source_timestamp,destination_timestamp,x,y,z,roll,pitch,yaw
1403774724855235,1403774724792742,-7.683942e-06,8.175897e-06,-1.245222e-05,-5.449033e-06,7.790445e-06,1.773431e-06
1403774724917727,1403774724855235,1.869502e-04,-1.322494e-05,-5.278928e-05,-2.007737e-05,-5.138015e-06,3.648188e-07
1403774724980218,1403774724917727,1.823924e-03,-3.589571e-02,1.809817e-02,1.222840e-03,1.503732e-03,1.630227e-03
1403774725042709,1403774724980218,5.200012e-05,3.245127e-06,5.705589e-06,6.594686e-06,-3.022880e-06,-5.104657e-06
1403774725105202,1403774725042709,9.776630e-05,2.022171e-05,5.331068e-05,1.366963e-05,1.311415e-05,-4.903617e-06
1403774725167694,1403774725105202,-1.570559e-03,3.720579e-03,2.944627e-03,1.889893e-06,2.311179e-04,-2.272288e-04
1403774725230186,1403774725167694,-7.174447e-05,-3.162424e-05,2.877515e-06,1.091165e-06,8.077606e-06,3.276767e-06
1403774725292678,1403774725230186,3.203202e-05,-2.316969e-05,4.725750e-05,-4.525517e-06,1.143861e-05,-6.640416e-06
1403774725355170,1403774725292678,-1.264125e-03,1.067769e-03,-7.180372e-04,-7.156894e-05,-1.319263e-04,-4.593712e-05
1403774725417663,1403774725355170,-2.783523e-06,-2.867219e-06,4.923552e-06,1.194074e-05,2.951975e-06,7.563154e-07
1403774725480154,1403774725417663,7.382674e-06,-6.740378e-06,-2.365881e-06,1.388553e-05,-1.858297e-06,-2.892921e-06
1403774725542645,1403774725480154,4.517768e-04,-2.031389e-05,1.706917e-04,2.076891e-05,2.189680e-05,-2.288653e-05
1403774725605138,1403774725542645,-2.197742e-05,-2.917350e-06,1.181244e-05,-7.316818e-06,3.908594e-06,4.079841e-06
1403774725667631,1403774725605138,-2.259411e-05,1.052929e-05,-4.110903e-06,9.960809e-06,-4.372036e-06,-1.062169e-05
1403774725730122,1403774725667631,-2.537425e-04,1.971352e-04,-8.206627e-05,-5.287366e-07,-1.884890e-06,-2.450227e-05
1403774725792611,1403774725730122,8.500997e-05,-4.525475e-06,3.889444e-05,1.545446e-05,3.496150e-06,-7.935436e-06
1403774725855105,1403774725792611,6.552028e-06,-7.681360e-05,-1.321416e-05,5.420764e-06,-1.419266e-05,1.611141e-05
1403774725917597,1403774725855105,4.253088e-04,-1.915998e-04,1.825999e-04,-1.336318e-05,2.932350e-05,2.128482e-05
1403774725980087,1403774725917597,6.887714e-05,-2.179061e-05,-1.274175e-05,7.864969e-06,-5.424800e-06,2.899176e-06
1403774726042580,1403774725980087,1.200555e-05,3.092241e-05,7.883434e-06,-1.534525e-06,-9.850347e-07,-6.214205e-06
1403774726105068,1403774726042580,-5.240252e-14,1.998401e-14,-4.796163e-14,-7.854827e-15,-3.580468e-15,1.054713e-15
1403774726167555,1403774726105068,1.296107e-05,-1.284487e-06,-8.291190e-06,-2.558653e-05,-3.110909e-06,4.346479e-06
1403774726230045,1403774726167555,-1.272483e-05,8.462935e-06,5.285088e-06,-2.011422e-07,7.121893e-06,-7.809223e-06
1403774726292538,1403774726230045,1.221942e-05,8.846989e-06,2.106097e-05,-4.808484e-06,6.960436e-06,-3.666234e-06
1403774726355028,1403774726292538,-6.391369e-05,-8.332846e-06,-2.299690e-05,1.797879e-06,1.005492e-06,1.290108e-07
1403774726417519,1403774726355028,-4.798269e-06,3.219160e-05,-1.411082e-05,9.215510e-06,-1.326554e-05,-4.396304e-06
1403774726480009,1403774726417519,-2.459708e-05,7.913831e-06,-2.765329e-05,-9.261370e-06,-1.242227e-05,-4.734586e-06
1403774726542497,1403774726480009,3.433103e-05,1.986102e-05,2.405635e-05,-5.559384e-06,2.981549e-06,-7.326731e-06
1403774726604985,1403774726542497,-4.596315e-05,-1.431223e-05,-2.025080e-05,-3.755436e-06,5.316675e-07,4.991819e-07
1403774726667476,1403774726604985,-5.980708e-05,-2.211500e-05,-2.998982e-05,-1.923384e-05,3.950317e-06,3.411811e-06
1403774726729968,1403774726667476,2.674467e-06,3.486452e-05,-1.590798e-05,-8.482631e-06,-9.867255e-06,-7.541598e-06
1403774726792460,1403774726729968,2.389926e-05,-2.816164e-05,7.493520e-06,-6.626722e-06,1.481094e-06,2.801425e-06
1403774726854951,1403774726792460,-6.512521e-05,2.111166e-05,-1.073896e-05,3.549390e-06,2.819904e-07,-9.593492e-06
1403774726917441,1403774726854951,1.992898e-05,1.688341e-05,8.188576e-06,1.653135e-05,2.982848e-06,-4.219141e-06
1403774726979928,1403774726917441,6.671029e-06,1.150334e-07,-4.317839e-07,-3.646103e-06,-2.283933e-06,-6.244904e-07
1403774727042424,1403774726979928,-8.725042e-06,-1.492700e-05,-1.986520e-06,1.002934e-05,-7.185047e-07,5.520009e-06
1403774727104913,1403774727042424,-4.927011e-06,3.667925e-05,-1.380173e-05,-9.521497e-06,-1.450626e-06,-5.112941e-06
1403774727167400,1403774727104913,6.058162e-06,-2.056469e-06,5.543947e-06,-5.554337e-07,5.154335e-07,-2.092155e-06
1403774727229891,1403774727167400,-6.197023e-05,-3.782838e-05,1.073996e-05,-2.006308e-05,6.476382e-06,2.995668e-06
1403774727292387,1403774727229891,-3.290261e-05,-5.006697e-07,-2.457084e-05,7.162713e-06,-3.038711e-06,-2.676329e-06
1403774727354886,1403774727292387,2.032518e-04,8.378707e-05,5.047589e-05,1.603868e-05,-1.527268e-06,-3.546229e-06
1403774727417380,1403774727354886,-1.973014e-06,2.770837e-05,-5.936191e-06,-2.577774e-06,-5.472542e-06,-7.373576e-06
1403774727479870,1403774727417380,-4.403528e-05,3.945231e-05,-3.595753e-05,1.055545e-05,-1.318194e-05,-9.634426e-06
1403774727542360,1403774727479870,5.162826e-05,-3.150638e-05,4.783422e-06,5.514216e-06,-8.896690e-06,1.107197e-06
1403774727604852,1403774727542360,5.533795e-05,1.499604e-05,-7.465957e-05,1.018222e-05,-1.424354e-05,-2.473516e-06
1403774727667348,1403774727604852,-7.625157e-06,2.255169e-05,-2.310660e-06,6.431729e-06,2.949839e-07,-8.074376e-06
1403774727729846,1403774727667348,1.070233e-05,5.434205e-06,-5.162909e-06,3.898175e-06,-6.400474e-06,3.605655e-07
1403774727792361,1403774727729846,2.852887e-05,4.333244e-06,1.301128e-06,1.136886e-05,-5.014264e-06,-5.060087e-07
1403774727854830,1403774727792361,-1.404888e-05,7.038041e-06,-4.748113e-06,-3.251599e-07,2.093921e-06,8.528480e-06
1403774727917320,1403774727854830,-3.528359e-05,-2.910547e-05,1.368130e-05,-9.118290e-06,1.381607e-05,2.031073e-05
1403774727979807,1403774727917320,-2.456560e-05,-5.551864e-06,6.652980e-06,-6.016945e-06,1.352591e-05,6.016566e-07
1403774728042297,1403774727979807,-5.983665e-06,4.045254e-06,-9.943960e-07,3.747147e-06,-1.730989e-06,-6.632138e-06
1403774728104791,1403774728042297,-1.144521e-05,-1.324553e-05,-8.529103e-06,-1.265299e-05,-1.208554e-05,5.492117e-06
1403774728167278,1403774728104791,1.757181e-05,1.351652e-06,5.801520e-06,6.162676e-06,-1.907605e-06,3.465190e-06
1403774728229768,1403774728167278,-1.424537e-05,-1.993051e-05,-1.861635e-05,-3.775728e-05,-1.383633e-06,1.197499e-05
1403774728292258,1403774728229768,-2.650300e-05,-1.814598e-05,9.672815e-06,-1.022040e-05,1.132132e-05,-3.090597e-06
1403774728354749,1403774728292258,-1.702590e-05,-1.318996e-05,1.156973e-06,-1.093183e-05,2.725281e-06,-4.728733e-06
1403774728417244,1403774728354749,2.859077e-05,-8.117839e-06,3.820223e-06,-3.689546e-06,-1.067706e-05,7.848207e-06
1403774728479731,1403774728417244,-1.219376e-05,-4.415424e-06,-3.043953e-06,-6.422905e-07,-5.797851e-06,1.980105e-06
1403774728542219,1403774728479731,6.124746e-06,7.579817e-06,-2.849184e-06,-9.731808e-06,-4.766805e-06,-5.448466e-06
1403774728604710,1403774728542219,1.304690e-05,-1.182607e-06,7.191228e-06,8.899943e-06,5.160633e-06,3.959604e-06
1403774728667200,1403774728604710,-3.939944e-05,-5.854595e-06,-1.608370e-05,-2.193205e-06,4.537717e-06,3.644222e-06
1403774728729691,1403774728667200,-5.602567e-06,-9.374694e-06,2.183643e-06,-1.836911e-06,3.639882e-07,4.620176e-06
1403774728792180,1403774728729691,-1.372936e-05,-9.958504e-06,-5.623160e-06,-1.468998e-05,-4.818286e-06,-2.293377e-06
1403774728854667,1403774728792180,4.753642e-05,-1.938947e-06,-2.430851e-07,5.333812e-06,-5.643643e-06,-2.800428e-06
1403774728917159,1403774728854667,-1.528760e-05,-2.013110e-06,-6.657540e-06,-6.185955e-06,-2.008738e-06,5.382727e-06
1403774728979649,1403774728917159,-1.837444e-06,1.178228e-06,-2.293363e-06,1.397656e-08,1.213464e-06,1.298314e-06
1403774729042139,1403774728979649,-5.955323e-06,1.262303e-06,-2.620460e-06,-3.136204e-06,2.264167e-06,-3.701177e-08
1403774729104633,1403774729042139,-1.165358e-05,1.180254e-05,-8.677513e-06,1.352697e-06,-1.677885e-06,-1.748424e-06
1403774729167122,1403774729104633,-2.889423e-05,-3.268808e-06,-7.111891e-06,-1.939028e-06,7.275126e-06,7.630937e-06
1403774729229610,1403774729167122,2.992354e-05,-4.000050e-06,2.620080e-05,3.462041e-07,1.140755e-05,3.612804e-06
1403774729292102,1403774729229610,7.122940e-06,1.410328e-05,7.956416e-06,8.181249e-07,-7.782717e-07,-1.099292e-05
1403774729354591,1403774729292102,2.937225e-05,5.083260e-06,-2.727722e-05,8.993410e-06,-2.453615e-05,-4.459256e-06
1403774729417083,1403774729354591,-6.307221e-05,6.543700e-06,-3.117631e-05,9.322271e-06,-1.103873e-05,9.127151e-06
1403774729479575,1403774729417083,4.203842e-06,-2.455456e-05,1.019092e-05,-2.593337e-05,8.185263e-06,5.435917e-06
1403774729542060,1403774729479575,7.237732e-06,2.068836e-06,1.520261e-05,-3.558178e-06,1.090648e-05,-7.203070e-06
1403774729604551,1403774729542060,9.769959e-15,8.770762e-15,2.164937e-15,1.915135e-15,6.036838e-16,-1.231654e-15
1403774729667041,1403774729604551,-3.120142e-06,1.038061e-05,-3.103109e-05,1.200439e-05,-1.492673e-05,-7.535435e-06
1403774729729530,1403774729667041,8.052941e-07,-1.216824e-05,-1.146626e-05,2.220292e-05,-1.499656e-05,1.903828e-05
1403774729792022,1403774729729530,1.879072e-05,1.359077e-05,-3.715874e-06,1.037258e-05,-1.172500e-06,4.963416e-06
1403774729854510,1403774729792022,-2.192263e-05,-1.796408e-06,5.030143e-06,-2.607096e-06,1.030778e-05,2.194854e-06
1403774729917002,1403774729854510,-1.290382e-05,-1.313829e-05,7.379801e-06,-3.028033e-05,1.076153e-05,-8.314444e-06
1403774729979492,1403774729917002,1.771286e-05,-1.443801e-05,4.797778e-06,-2.385407e-05,-7.917761e-06,-1.580754e-06
1403774730041982,1403774729979492,-1.306108e-05,-3.242439e-05,-4.825638e-06,-2.364691e-05,-8.797337e-06,4.999040e-06
1403774730104472,1403774730041982,2.061895e-05,1.020867e-05,-1.003053e-05,2.012427e-06,-7.058381e-06,-3.434789e-06
1403774730166961,1403774730104472,3.201272e-05,2.229281e-05,-7.119477e-06,9.288889e-06,-6.525351e-06,7.934308e-07
1403774730229451,1403774730166961,-2.314163e-05,6.712925e-06,-4.643637e-06,5.078899e-06,-2.382998e-06,-3.117691e-06
1403774730291941,1403774730229451,2.289801e-06,-2.049333e-06,5.210806e-06,-1.363439e-05,4.110159e-06,-2.173788e-06
1403774730354432,1403774730291941,3.328256e-05,-1.594618e-05,5.485062e-06,-2.234078e-05,-3.069685e-06,-2.387326e-06
1403774730416921,1403774730354432,-1.124297e-05,-9.297855e-06,-2.225436e-05,-2.165030e-05,-1.981094e-05,-3.190638e-06
1403774730479410,1403774730416921,1.172301e-05,3.149508e-06,-2.419719e-06,-1.710218e-05,-9.696594e-06,-7.437212e-06
1403774730541904,1403774730479410,4.959889e-05,1.221842e-05,5.553233e-06,-1.160356e-05,-6.217355e-06,-3.564558e-07
1403774730604393,1403774730541904,2.215815e-05,-8.428801e-06,9.428420e-06,3.721173e-06,-5.482265e-06,1.872063e-05
1403774730666885,1403774730604393,-2.985241e-05,-2.448874e-05,-2.647396e-05,-2.507540e-05,-1.961141e-05,1.556206e-05
1403774730729373,1403774730666885,9.549840e-07,-5.640607e-06,3.312542e-06,-1.889361e-05,-5.417101e-06,7.389460e-06
1403774730791874,1403774730729373,2.621288e-05,-2.422581e-05,-4.325846e-06,-1.476910e-05,-1.306201e-05,2.077527e-05
1403774730854353,1403774730791874,1.414983e-05,-1.768496e-05,6.302253e-07,-2.620726e-05,-6.216045e-06,1.928337e-05
1403774730916844,1403774730854353,2.581951e-05,-1.415998e-05,5.924973e-06,-2.902408e-05,-1.266989e-05,2.081112e-05
1403774730979332,1403774730916844,-6.710401e-06,-1.556427e-05,-2.985564e-06,-2.711826e-05,-8.499637e-06,1.394267e-05
1403774731041823,1403774730979332,-4.813471e-05,-2.664689e-05,7.039853e-05,-3.565198e-05,1.378460e-04,3.520154e-05
1403774731104314,1403774731041823,3.603197e-04,7.934994e-05,-3.384427e-05,-8.360953e-05,3.856602e-04,7.683277e-05
1403774731166803,1403774731104314,6.708150e-04,1.664124e-04,7.112238e-04,8.248416e-05,4.570706e-04,7.395524e-05
1403774731229294,1403774731166803,4.147862e-03,4.718054e-04,-4.681916e-04,6.012123e-05,1.641382e-04,7.857428e-05
1403774731291784,1403774731229294,2.819347e-03,9.588445e-04,9.239427e-04,1.134918e-04,2.062266e-04,1.698373e-04
1403774731354272,1403774731291784,7.204083e-03,5.976266e-04,-9.445205e-04,-7.193203e-05,8.699824e-06,1.939779e-04
1403774731416765,1403774731354272,9.014155e-03,3.010441e-04,-8.362207e-04,-6.116611e-05,3.614986e-05,2.917817e-04
1403774731479255,1403774731416765,1.017225e-03,-5.794040e-04,3.706792e-04,-8.222428e-05,8.146396e-05,4.085056e-04
1403774731541744,1403774731479255,1.124239e-02,4.800151e-04,-1.464618e-03,-2.286376e-04,-1.658769e-04,3.794222e-04
1403774731604234,1403774731541744,1.293341e-02,1.060418e-04,-8.787791e-04,-2.919857e-04,-1.898179e-04,5.207836e-04
1403774731666723,1403774731604234,1.455107e-02,1.454962e-04,-1.083106e-03,-3.889851e-04,-2.345979e-04,7.323411e-04
1403774731729213,1403774731666723,1.500874e-02,6.714823e-04,-1.128082e-03,-5.183389e-04,-2.078226e-04,8.412381e-04
1403774731791703,1403774731729213,1.667008e-02,3.487657e-04,-1.154971e-03,-4.261142e-04,-1.729796e-04,9.409824e-04
1403774731854193,1403774731791703,1.842223e-02,7.743639e-04,-9.537749e-04,-2.627696e-04,-1.759858e-04,9.557923e-04
1403774731916695,1403774731854193,1.866858e-02,8.286910e-04,-1.487013e-03,-3.087043e-04,-1.819442e-04,1.010420e-03
1403774731979174,1403774731916695,2.034154e-02,1.392028e-03,-1.002239e-03,-1.571715e-04,-7.973083e-05,1.100992e-03
1403774732041666,1403774731979174,2.231913e-02,2.406731e-03,-1.624492e-03,6.839330e-04,2.475397e-04,1.153004e-03
1403774732104154,1403774732041666,2.178607e-02,3.012183e-03,-2.569770e-03,9.015847e-04,3.360294e-04,1.122534e-03
1403774732166643,1403774732104154,6.825888e-03,-3.185069e-04,2.361035e-03,9.622038e-04,8.321567e-04,1.723921e-03
1403774732229134,1403774732166643,2.289063e-02,4.577913e-03,-2.000468e-03,9.946163e-04,2.118696e-04,1.736777e-03
1403774732291621,1403774732229134,2.473043e-02,4.258831e-03,-2.030752e-03,9.243560e-04,-1.218968e-04,2.096237e-03
1403774732416613,1403774732291621,5.190548e-02,1.014232e-02,-3.815161e-03,3.062093e-03,3.937838e-04,4.304983e-03
1403774732479104,1403774732416613,2.769768e-02,4.744622e-03,-3.021163e-03,1.427925e-03,6.553836e-04,2.265027e-03
1403774732541591,1403774732479104,2.975416e-02,4.769826e-03,-3.000538e-03,6.959429e-04,3.395675e-04,2.456063e-03
1403774732604082,1403774732541591,3.337929e-02,4.709282e-03,-2.714879e-03,1.901717e-04,1.630549e-04,2.710490e-03
1403774732666576,1403774732604082,3.747291e-02,4.824147e-03,-2.853594e-03,1.104092e-04,9.448241e-05,3.043544e-03
1403774732791567,1403774732666576,8.943467e-02,1.034447e-02,-3.909695e-03,4.793939e-04,9.096099e-04,6.565216e-03
1403774732854054,1403774732791567,5.136331e-02,5.778564e-03,-1.889698e-03,3.059944e-04,8.667718e-04,3.575038e-03
1403774732916543,1403774732854054,5.537600e-02,6.196901e-03,-2.314556e-03,8.946025e-04,7.972189e-04,4.075924e-03
1403774732979036,1403774732916543,5.921104e-02,6.618188e-03,-2.627101e-03,7.989028e-05,5.663388e-04,4.296623e-03
1403774733104028,1403774732979036,1.317195e-01,1.369030e-02,-6.438193e-03,-6.901631e-04,5.539806e-04,9.393971e-03
1403774733166514,1403774733104028,7.303195e-02,6.609076e-03,-2.735777e-03,-3.172500e-04,-1.266143e-04,4.887458e-03
1403774733229005,1403774733166514,7.786481e-02,9.150666e-03,-2.631084e-03,7.143784e-04,-5.616355e-04,4.809902e-03
1403774733291494,1403774733229005,8.246800e-02,9.722062e-03,-3.035667e-03,1.813157e-03,-1.149140e-03,4.837381e-03
1403774733416485,1403774733291494,1.749124e-01,2.293315e-02,-8.765634e-03,3.874651e-03,-3.088190e-03,1.109832e-02
1403774733478977,1403774733416485,9.121162e-02,1.153737e-02,-5.668383e-03,2.111240e-03,-7.709303e-04,5.457655e-03
1403774733541463,1403774733478977,9.407116e-02,1.175486e-02,-6.813406e-03,3.378595e-03,2.391147e-04,4.855053e-03
1403774733603955,1403774733541463,9.713630e-02,1.129964e-02,-6.894097e-03,3.458190e-03,1.386309e-04,4.266541e-03
1403774733728944,1403774733603955,2.035753e-01,2.055781e-02,-1.264472e-02,3.218705e-03,-1.061624e-04,9.558207e-03
1403774733791436,1403774733728944,1.077826e-01,7.117967e-03,-5.006183e-03,5.917838e-05,6.914714e-04,5.572333e-03
1403774733853934,1403774733791436,1.094729e-01,6.854420e-03,-4.803869e-03,8.321722e-04,1.232298e-03,4.943202e-03
1403774733916430,1403774733853934,1.128747e-01,5.949219e-03,-5.444965e-03,8.316945e-04,1.273987e-03,3.946857e-03
1403774733978920,1403774733916430,1.156054e-01,6.173548e-03,-6.287693e-03,6.348386e-04,9.842357e-04,3.378541e-03
1403774734103922,1403774733978920,2.403040e-01,1.646865e-02,-1.431517e-02,3.505383e-03,9.809859e-04,7.966514e-03
1403774734166418,1403774734103922,1.261602e-01,7.845376e-03,-7.273661e-03,2.378324e-03,4.576272e-05,4.222844e-03
1403774734228908,1403774734166418,1.298666e-01,6.877641e-03,-6.377038e-03,1.886163e-03,1.752278e-04,3.663275e-03
1403774734291409,1403774734228908,1.326569e-01,4.668942e-03,-5.559224e-03,6.965587e-04,3.545400e-05,2.984738e-03
1403774734416406,1403774734291409,2.765410e-01,8.924015e-03,-1.254266e-02,3.397880e-03,-3.291127e-03,3.347147e-03
1403774734478897,1403774734416406,1.440229e-01,2.491066e-03,-6.694693e-03,-2.762050e-04,-1.987601e-03,1.799589e-03
1403774734541398,1403774734478897,1.453824e-01,2.360391e-03,-7.853012e-03,8.964301e-04,-1.416956e-03,1.997417e-03
1403774734603894,1403774734541398,1.478853e-01,3.914505e-03,-8.272066e-03,1.800313e-03,-8.511739e-04,2.112815e-03
1403774734728886,1403774734603894,3.071691e-01,1.623838e-03,-1.331328e-02,6.541656e-05,-8.854544e-05,3.142168e-03
1403774734791386,1403774734728886,1.570746e-01,9.657884e-04,-6.393811e-03,1.772686e-03,6.147549e-04,4.548549e-04
1403774734853883,1403774734791386,1.624183e-01,2.582036e-03,-6.170645e-03,2.741388e-03,6.460268e-04,-2.204780e-05
1403774734916372,1403774734853883,1.641576e-01,3.525383e-03,-8.037769e-03,2.238685e-03,-4.936658e-05,3.125609e-04
1403774734978874,1403774734916372,1.688864e-01,3.897598e-03,-9.952870e-03,2.678504e-03,-8.746150e-04,5.309719e-04
1403774735041371,1403774734978874,1.727632e-01,2.916428e-03,-1.060176e-02,3.244631e-03,-1.372798e-03,3.327710e-04
1403774735103863,1403774735041371,1.761493e-01,7.978705e-04,-1.141614e-02,2.625932e-03,-1.902000e-03,-1.576298e-04
1403774735166362,1403774735103863,1.770645e-01,-1.482764e-03,-1.243257e-02,1.407579e-03,-2.048237e-03,-7.116164e-04
1403774735228859,1403774735166362,1.819460e-01,-2.233562e-03,-1.131825e-02,5.369334e-04,-1.503443e-03,-9.685052e-04
1403774735291349,1403774735228859,1.833011e-01,-3.466722e-03,-1.140257e-02,-3.552165e-04,-9.685671e-04,-9.077841e-04
1403774735353839,1403774735291349,1.861603e-01,-4.068327e-03,-1.096376e-02,-1.935598e-05,-3.856057e-04,-6.180213e-04
1403774735416332,1403774735353839,1.904133e-01,-1.276284e-03,-8.799288e-03,1.323982e-03,-1.221617e-04,-5.251727e-04
1403774735478821,1403774735416332,1.909660e-01,-6.835042e-04,-9.931221e-03,1.232593e-03,3.643232e-04,-5.089404e-04
1403774735541310,1403774735478821,1.968830e-01,-5.695394e-04,-9.096649e-03,1.243734e-03,8.744332e-04,-7.497417e-04
1403774735603801,1403774735541310,1.993339e-01,6.162474e-05,-1.035393e-02,1.772472e-03,8.086909e-04,-7.880050e-04
1403774735666300,1403774735603801,2.044295e-01,1.107675e-04,-9.871791e-03,2.776343e-03,4.227185e-04,-5.563555e-04
1403774735728797,1403774735666300,2.050304e-01,-5.027021e-04,-1.076563e-02,1.909250e-03,2.372096e-04,-3.068823e-04
1403774735791290,1403774735728797,2.097523e-01,-5.136576e-04,-1.199394e-02,1.332965e-03,-3.249941e-04,-5.285998e-04
1403774735853789,1403774735791290,2.149390e-01,-2.336869e-04,-1.089966e-02,2.190609e-03,-1.673405e-03,-7.065097e-04
1403774735916285,1403774735853789,2.209829e-01,4.803637e-04,-1.016551e-02,2.961387e-03,-2.626200e-03,-8.040154e-04
1403774735978798,1403774735916285,2.234484e-01,4.731467e-04,-1.086718e-02,2.694374e-03,-2.535853e-03,-6.044711e-04
1403774736041276,1403774735978798,2.233435e-01,4.131679e-05,-1.279748e-02,9.070743e-04,-7.371828e-04,-5.386484e-04
1403774736103774,1403774736041276,2.253596e-01,-2.683731e-03,-1.482344e-02,1.111663e-03,1.172047e-03,-7.965003e-04
1403774736166266,1403774736103774,2.267601e-01,-1.555275e-03,-1.604977e-02,3.084879e-03,1.376977e-03,-1.449556e-03
1403774736228757,1403774736166266,2.321127e-01,-3.362781e-03,-1.390040e-02,1.176269e-03,3.313696e-04,-1.732509e-03
1403774736291246,1403774736228757,2.367148e-01,-3.088360e-03,-1.153708e-02,1.367418e-03,-7.712735e-04,-1.777002e-03
1403774736353746,1403774736291246,2.437441e-01,-1.249640e-03,-9.829168e-03,3.933422e-03,-2.109596e-03,-1.634078e-03
1403774736416239,1403774736353746,2.450006e-01,-1.255672e-04,-1.059331e-02,3.899215e-03,-1.586725e-03,-1.640668e-03
1403774736478728,1403774736416239,2.472948e-01,-4.262766e-03,-1.346389e-02,-4.107982e-04,1.437520e-04,-1.294540e-03
1403774736541222,1403774736478728,2.460097e-01,-8.306078e-03,-1.689659e-02,-4.018132e-03,1.980023e-03,-1.204455e-03
1403774736603715,1403774736541222,2.465904e-01,-8.998791e-03,-1.700426e-02,-1.552901e-03,3.043284e-03,-1.419818e-03
1403774736666205,1403774736603715,2.492571e-01,-8.784156e-03,-1.539702e-02,-2.026082e-03,3.205084e-03,-1.447662e-03
1403774736728697,1403774736666205,2.521295e-01,-9.374289e-03,-1.509179e-02,-3.842714e-03,1.760267e-03,-1.435710e-03
1403774736791184,1403774736728697,2.537204e-01,-6.996833e-03,-1.669541e-02,-1.807544e-03,1.087177e-03,-1.265542e-03
1403774736853674,1403774736791184,2.558750e-01,-2.109750e-03,-1.928580e-02,2.497781e-03,2.232231e-03,-1.476889e-03
1403774736916163,1403774736853674,2.543512e-01,1.115381e-03,-1.932683e-02,3.687224e-03,3.422308e-03,-1.560808e-03
1403774736978654,1403774736916163,2.557897e-01,2.459468e-03,-1.601431e-02,3.864422e-03,3.999292e-03,-1.550999e-03
1403774737041143,1403774736978654,2.591846e-01,3.390681e-03,-1.247815e-02,3.145092e-03,4.186995e-03,-1.926576e-03
1403774737103634,1403774737041143,2.598525e-01,-6.077485e-04,-9.355443e-03,9.770030e-04,2.014191e-03,-1.540896e-03
1403774737166123,1403774737103634,2.661113e-01,-6.265446e-03,-8.302397e-03,-2.419389e-03,-1.647707e-03,-3.143079e-04
1403774737228614,1403774737166123,2.684162e-01,-1.000945e-02,-8.724710e-03,-3.667822e-03,-3.511267e-03,4.063729e-05
1403774737291105,1403774737228614,2.699569e-01,-1.252156e-02,-9.540354e-03,-4.295803e-03,-3.267039e-03,-1.991604e-04
1403774737353594,1403774737291105,2.681867e-01,-1.373499e-02,-1.167145e-02,-5.224049e-03,-1.977242e-03,-5.944489e-04
1403774737416088,1403774737353594,2.685672e-01,-9.862609e-03,-1.368850e-02,-2.847175e-03,-1.421647e-03,-1.075834e-03
1403774737478585,1403774737416088,2.691754e-01,-4.871119e-03,-1.653321e-02,-1.145614e-05,-2.661904e-03,-1.329270e-03
1403774737541061,1403774737478585,2.733861e-01,-8.720334e-04,-1.785712e-02,2.696871e-03,-2.836944e-03,-1.317500e-03
1403774737603552,1403774737541061,2.666392e-01,-5.066747e-04,-1.950855e-02,3.150884e-03,-2.801118e-03,-9.563178e-04
1403774737666045,1403774737603552,2.710836e-01,2.162153e-04,-1.757278e-02,2.289059e-03,-2.016344e-03,-6.786286e-04
1403774737728532,1403774737666045,2.708288e-01,-1.520904e-03,-1.795104e-02,1.544321e-03,-1.526278e-03,-1.734158e-04
1403774737791024,1403774737728532,2.752570e-01,-3.575347e-03,-1.516995e-02,7.140636e-04,-7.705430e-04,-3.670451e-04
1403774737853513,1403774737791024,2.715388e-01,-5.793743e-03,-1.379597e-02,-1.220048e-03,5.656172e-04,-9.009368e-04
1403774737916012,1403774737853513,2.711558e-01,-7.342179e-03,-1.477411e-02,-2.254054e-03,1.468203e-03,-9.325911e-04
1403774737978509,1403774737916012,2.739205e-01,-6.920358e-03,-1.424580e-02,-1.674007e-03,1.235749e-03,-8.317144e-04
1403774738041002,1403774737978509,2.772690e-01,-6.833934e-03,-1.512544e-02,-1.052563e-03,2.374501e-04,-6.574765e-04
1403774738103499,1403774738041002,2.781925e-01,-4.983637e-03,-1.605458e-02,-5.463608e-04,-4.499690e-04,-9.076485e-04
1403774738165997,1403774738103499,2.805040e-01,-3.544004e-03,-1.569174e-02,3.790481e-04,-1.055648e-03,-1.064859e-03
1403774738228490,1403774738165997,2.790330e-01,-1.443388e-03,-1.715309e-02,1.897508e-03,-1.256991e-03,-1.280978e-03
1403774738290988,1403774738228490,2.815276e-01,5.593061e-04,-1.653935e-02,2.735117e-03,-1.112586e-03,-1.113688e-03
1403774738353485,1403774738290988,2.808831e-01,-4.883626e-06,-1.626526e-02,2.003561e-03,-9.239344e-05,-9.417599e-04
1403774738415990,1403774738353485,2.828484e-01,-1.246098e-03,-1.512773e-02,1.473385e-03,-3.234946e-05,-8.574439e-04
1403774738478469,1403774738415990,2.835294e-01,-1.346617e-03,-1.438096e-02,2.600774e-03,-3.697431e-04,-6.688859e-04
1403774738540962,1403774738478469,2.849389e-01,-2.259617e-03,-1.589250e-02,1.631144e-03,-3.415985e-04,-5.626404e-04
1403774738603450,1403774738540962,2.830724e-01,-4.331301e-03,-1.713436e-02,-1.488146e-04,5.014031e-04,-4.598291e-04
1403774738665940,1403774738603450,2.825985e-01,-5.349374e-03,-1.854711e-02,-1.236602e-03,1.106791e-03,-3.770379e-04
1403774738728429,1403774738665940,2.828323e-01,-3.544334e-03,-1.897876e-02,-1.825855e-04,1.204387e-03,-5.131251e-04
1403774738790919,1403774738728429,2.863833e-01,-4.103612e-03,-1.647638e-02,1.548985e-04,1.118338e-03,-4.036742e-04
1403774738853410,1403774738790919,2.854007e-01,-2.792817e-03,-1.553311e-02,2.510913e-04,6.688136e-04,-4.190270e-04
1403774738915902,1403774738853410,2.860359e-01,-1.106784e-03,-1.576203e-02,1.010054e-03,5.281796e-04,-4.597985e-04
1403774738978391,1403774738915902,2.873381e-01,-1.910504e-03,-1.573596e-02,7.528612e-04,8.538229e-04,-3.276358e-04
1403774739040882,1403774738978391,2.868489e-01,-1.690802e-05,-1.531808e-02,1.773958e-03,1.271939e-03,-4.843539e-04
1403774739103370,1403774739040882,2.844492e-01,-2.706951e-04,-1.626267e-02,1.872891e-03,1.297216e-03,-7.109196e-04
1403774739165859,1403774739103370,2.867658e-01,-1.925256e-03,-1.598171e-02,2.625189e-04,7.854557e-04,-6.086732e-04
1403774739228352,1403774739165859,2.894152e-01,-2.995819e-03,-1.603720e-02,-1.461111e-04,-1.862133e-04,-2.427051e-04
1403774739290841,1403774739228352,2.920969e-01,-1.677144e-03,-1.752385e-02,7.857389e-04,-5.672103e-04,-7.404914e-05
1403774739353330,1403774739290841,2.933654e-01,-3.235480e-03,-1.654196e-02,4.179438e-04,-8.549270e-04,1.209197e-04
1403774739415821,1403774739353330,2.925462e-01,-3.451253e-03,-1.561381e-02,-1.028543e-03,-1.210838e-03,-3.816355e-05
1403774739478308,1403774739415821,2.977851e-01,-3.235932e-03,-1.271980e-02,-7.419509e-05,-9.849740e-04,-2.089863e-04
1403774739540806,1403774739478308,2.940019e-01,-3.353699e-03,-1.595828e-02,6.868532e-05,-8.046494e-04,-7.601542e-05
1403774739603291,1403774739540806,2.960459e-01,-1.792907e-03,-1.510335e-02,2.367722e-04,-4.323731e-04,-1.305832e-04
1403774739665783,1403774739603291,2.993447e-01,-1.057153e-03,-1.575980e-02,1.374819e-03,-5.848424e-04,7.393418e-05
1403774739728270,1403774739665783,2.996190e-01,-1.797460e-03,-1.603939e-02,-2.694757e-04,-1.088354e-03,4.778049e-04
1403774739790759,1403774739728270,2.984329e-01,-3.645673e-03,-1.835145e-02,-2.283173e-03,-8.849614e-04,5.128737e-04
1403774739853253,1403774739790759,3.025166e-01,-5.303685e-03,-1.840181e-02,-2.658342e-03,-4.495032e-04,5.140748e-04
1403774739915742,1403774739853253,3.032631e-01,-4.165064e-03,-1.927445e-02,-1.229007e-03,3.514349e-04,3.890268e-04
1403774739978234,1403774739915742,3.005131e-01,-1.543996e-03,-1.806389e-02,-1.112794e-04,7.948397e-04,1.319015e-04
1403774740040721,1403774739978234,3.049763e-01,-1.219847e-03,-1.632957e-02,6.255832e-04,6.809027e-04,2.212237e-04
1403774740103211,1403774740040721,3.049707e-01,4.225140e-04,-1.612596e-02,7.256633e-04,-2.993426e-04,1.542062e-04
1403774740165701,1403774740103211,3.072783e-01,2.455701e-03,-1.445029e-02,1.832079e-03,-6.896748e-04,1.783161e-04
1403774740228192,1403774740165701,3.100629e-01,6.458072e-04,-1.465966e-02,1.626106e-03,8.714975e-06,2.301589e-04
1403774740290681,1403774740228192,3.082896e-01,-2.854097e-03,-1.642036e-02,-1.096521e-03,7.208932e-04,3.046555e-04
1403774740353172,1403774740290681,3.084742e-01,-4.256273e-03,-1.800339e-02,-1.903746e-03,6.608885e-04,2.866905e-04
1403774740415661,1403774740353172,3.116282e-01,-4.101547e-03,-1.743491e-02,-7.451237e-04,-6.889204e-05,6.564193e-04
1403774740478154,1403774740415661,3.113539e-01,-2.465364e-03,-1.818264e-02,-1.078973e-04,-1.453230e-03,5.158466e-04
1403774740540643,1403774740478154,3.146314e-01,-3.380057e-03,-1.786402e-02,-7.707346e-04,-1.455575e-03,3.820840e-04
1403774740603134,1403774740540643,3.158574e-01,-4.807985e-03,-1.647337e-02,-3.044395e-03,-1.226789e-03,2.388612e-04
1403774740665623,1403774740603134,3.156831e-01,-4.516311e-03,-1.570560e-02,-2.245868e-03,-1.331004e-03,2.718196e-04
1403774740728113,1403774740665623,3.170578e-01,-4.223338e-04,-1.535036e-02,2.110904e-03,-2.453276e-04,3.853505e-04
1403774740790602,1403774740728113,3.188164e-01,4.532978e-04,-1.749567e-02,1.248287e-03,3.610924e-04,6.106734e-04
1403774740853091,1403774740790602,3.203057e-01,-1.648552e-03,-1.804230e-02,-1.693557e-04,-2.083108e-04,8.722514e-04
1403774740915582,1403774740853091,3.202996e-01,-5.464645e-04,-1.885475e-02,1.150151e-03,-6.298612e-04,5.703835e-04
1403774740978071,1403774740915582,3.193853e-01,-6.872347e-04,-2.086548e-02,1.676115e-03,4.886708e-04,2.370918e-04
1403774741040565,1403774740978071,3.217651e-01,-1.628898e-03,-2.015888e-02,-1.756873e-03,1.413991e-03,3.690998e-05
1403774741103054,1403774741040565,3.181022e-01,-4.893727e-03,-1.974826e-02,-3.316485e-03,1.627214e-03,4.836661e-04
1403774741165544,1403774741103054,3.217909e-01,-4.870886e-03,-1.738157e-02,-2.233088e-03,1.607650e-03,1.113999e-03
1403774741228034,1403774741165544,3.228586e-01,-4.006069e-03,-1.502002e-02,-2.048988e-04,8.417668e-04,1.027499e-03
1403774741290527,1403774741228034,3.239159e-01,-4.090591e-03,-1.491676e-02,-1.855837e-04,-1.575891e-04,2.712492e-04
1403774741353016,1403774741290527,3.238483e-01,-5.626770e-04,-1.594680e-02,1.084712e-03,-2.663237e-04,-3.111436e-04
1403774741415508,1403774741353016,3.245445e-01,6.068830e-03,-1.669525e-02,5.549384e-03,-3.812901e-05,-3.569912e-04
1403774741477998,1403774741415508,3.239832e-01,6.936104e-03,-1.628916e-02,6.250388e-03,-1.236789e-03,1.750930e-05
1403774741540487,1403774741477998,3.264682e-01,4.876902e-03,-1.717650e-02,3.096804e-03,-1.771725e-03,3.928468e-04
1403774741602978,1403774741540487,3.238684e-01,-2.459694e-03,-2.052924e-02,-1.610567e-03,-1.155503e-03,8.958212e-04
1403774741665469,1403774741602978,3.213037e-01,-5.590283e-03,-2.172855e-02,-2.446087e-03,2.852989e-04,7.323691e-04
1403774741727961,1403774741665469,3.204863e-01,-7.187613e-03,-2.214352e-02,-1.901048e-03,2.188781e-03,2.437799e-04
1403774741790452,1403774741727961,3.245839e-01,-8.171214e-03,-2.012526e-02,-3.342520e-03,2.542917e-03,-5.822904e-05
1403774741852941,1403774741790452,3.234292e-01,-5.604031e-03,-1.772862e-02,-2.187590e-03,1.119828e-03,7.921667e-06
1403774741915431,1403774741852941,3.274265e-01,-1.268897e-03,-1.587066e-02,1.672449e-03,-3.094448e-04,-2.046393e-04
1403774741977920,1403774741915431,3.279064e-01,1.852812e-03,-1.557332e-02,2.859291e-03,-2.708981e-06,-6.447811e-04
1403774742040411,1403774741977920,3.282216e-01,2.772748e-03,-1.538878e-02,2.373992e-03,4.867061e-04,-7.440010e-04
1403774742102905,1403774742040411,3.271989e-01,1.619312e-03,-1.665400e-02,1.518029e-03,1.339934e-04,-1.510178e-04
1403774742165394,1403774742102905,3.306956e-01,9.299877e-04,-1.674849e-02,1.346336e-03,-1.183830e-03,4.380889e-04
1403774742227884,1403774742165394,3.311076e-01,-7.993336e-05,-1.766505e-02,1.243369e-03,-2.778101e-03,4.673389e-04
1403774742290374,1403774742227884,3.338369e-01,-2.880726e-03,-1.857624e-02,-3.839078e-04,-3.380767e-03,3.847447e-04
1403774742352863,1403774742290374,3.341187e-01,-2.048583e-03,-2.006674e-02,2.776005e-04,-2.177882e-03,2.325155e-04
1403774742415354,1403774742352863,3.315839e-01,-1.477172e-03,-1.915223e-02,3.674497e-04,-1.202126e-03,4.047222e-04
1403774742477847,1403774742415354,3.323476e-01,-1.431502e-03,-1.856166e-02,-5.287795e-04,-1.619432e-04,6.173416e-04
1403774742540335,1403774742477847,3.305545e-01,-1.821525e-03,-1.929770e-02,-1.311008e-05,3.807706e-04,8.391327e-04
1403774742602825,1403774742540335,3.324216e-01,-2.824388e-03,-1.900623e-02,-5.665990e-05,3.127040e-05,7.697022e-04
1403774742665319,1403774742602825,3.330269e-01,-2.959039e-03,-1.996842e-02,-1.361485e-03,2.421846e-04,4.536936e-04
1403774742727808,1403774742665319,3.335283e-01,-4.137882e-03,-1.911521e-02,-2.968030e-03,9.520585e-04,4.091659e-04
1403774742790298,1403774742727808,3.340325e-01,-3.548380e-03,-1.937317e-02,-4.441712e-04,1.087842e-03,4.440132e-04
1403774742852787,1403774742790298,3.331188e-01,5.952902e-04,-1.923486e-02,2.501087e-03,2.676558e-04,-3.944745e-05
1403774742915276,1403774742852787,3.381320e-01,2.166401e-03,-1.726232e-02,1.591749e-03,2.920004e-04,-2.410046e-04
1403774742977766,1403774742915276,3.382894e-01,3.210333e-03,-1.714813e-02,2.956688e-03,-1.386118e-04,1.026219e-04
1403774743040256,1403774742977766,3.407578e-01,5.168219e-03,-1.748682e-02,3.781711e-03,-9.305896e-04,6.873750e-04
1403774743102746,1403774743040256,3.400933e-01,1.524364e-03,-1.844894e-02,1.240099e-03,-8.758879e-04,1.168286e-03
1403774743165236,1403774743102746,3.411316e-01,-2.128896e-03,-1.992074e-02,-1.157212e-03,-2.606647e-04,1.178776e-03
1403774743227728,1403774743165236,3.416922e-01,-5.208191e-03,-2.038032e-02,-2.806504e-03,-5.422644e-05,1.075440e-03
1403774743290218,1403774743227728,3.394401e-01,-5.145251e-03,-2.115099e-02,-2.366267e-03,-4.856759e-05,7.216805e-04
1403774743352712,1403774743290218,3.417153e-01,-4.666453e-03,-2.010563e-02,-1.353802e-03,2.556460e-06,5.067382e-04
1403774743415198,1403774743352712,3.447496e-01,-2.843183e-03,-1.949462e-02,-2.247010e-04,-1.806537e-04,5.225818e-04
1403774743477688,1403774743415198,3.473473e-01,-1.255771e-03,-1.758763e-02,7.299923e-04,-6.638883e-04,2.363048e-04
1403774743540178,1403774743477688,3.451528e-01,1.057968e-03,-1.730454e-02,2.117280e-03,-1.896503e-04,-2.298536e-04
1403774743602668,1403774743540178,3.459514e-01,1.682524e-03,-1.896342e-02,2.321959e-03,9.579183e-05,-5.484910e-05
1403774743665158,1403774743602668,3.465628e-01,7.722822e-04,-1.955710e-02,9.767559e-04,4.927555e-04,3.541310e-04
1403774743727646,1403774743665158,3.465519e-01,3.610843e-05,-2.184602e-02,1.496463e-03,8.211356e-04,4.838074e-04
1403774743790137,1403774743727646,3.477225e-01,3.070794e-04,-2.186784e-02,1.320892e-03,-1.462827e-04,6.245339e-04
1403774743915127,1403774743790137,7.003921e-01,-2.718845e-03,-3.995506e-02,-2.005590e-04,-3.971874e-04,1.058942e-03
1403774743977619,1403774743915127,3.481840e-01,-2.289464e-03,-1.996632e-02,-1.016116e-03,2.022719e-03,5.020875e-04
1403774744040108,1403774743977619,3.508871e-01,-2.037369e-03,-1.953532e-02,2.141074e-04,2.108123e-03,6.542794e-04
1403774744102599,1403774744040108,3.484952e-01,6.083363e-04,-1.920771e-02,-4.121164e-05,8.736228e-04,7.007507e-04
1403774744165087,1403774744102599,3.506070e-01,-4.680159e-03,-1.898885e-02,-3.025087e-03,-4.837376e-04,1.076423e-03
1403774744290079,1403774744165087,7.162188e-01,-1.240701e-03,-3.767756e-02,7.120752e-04,-1.557524e-03,8.090669e-04
1403774744352566,1403774744290079,3.521628e-01,9.967672e-04,-2.008547e-02,1.184508e-03,4.259808e-04,2.253462e-04
1403774744415058,1403774744352566,3.523571e-01,3.601170e-04,-2.008029e-02,3.476022e-04,-3.038679e-04,6.745362e-04
1403774744477549,1403774744415058,3.551818e-01,5.622399e-04,-1.797422e-02,5.827420e-04,-1.424129e-03,9.158152e-04
1403774744602539,1403774744477549,7.180907e-01,1.011290e-03,-3.497409e-02,3.688219e-03,-4.283582e-03,1.428372e-03
1403774744665030,1403774744602539,3.556226e-01,-3.505301e-03,-1.948198e-02,-2.429282e-03,-1.033751e-03,8.602937e-04
1403774744727520,1403774744665030,3.539130e-01,-5.512667e-03,-2.099860e-02,-2.883683e-03,3.200390e-04,8.866055e-04
1403774744790011,1403774744727520,3.551936e-01,-3.361077e-03,-2.153477e-02,3.851192e-04,6.012019e-04,6.273055e-04
1403774744852509,1403774744790011,3.549761e-01,-3.673193e-03,-2.079071e-02,-9.669149e-04,-7.526166e-04,3.562034e-04
1403774744977507,1403774744852509,7.164946e-01,-9.975144e-03,-3.630574e-02,-3.806259e-03,-2.702384e-03,-2.931036e-05
1403774745040001,1403774744977507,3.528786e-01,-7.033571e-04,-2.314080e-02,2.199730e-03,3.097599e-03,-5.337039e-04
1403774745102499,1403774745040001,3.512620e-01,-3.381384e-04,-2.541279e-02,1.390434e-03,4.938197e-03,-7.733423e-04
1403774745164996,1403774745102499,3.532085e-01,-2.380983e-03,-2.455010e-02,-4.039890e-04,3.540063e-03,-4.113931e-04
1403774745289988,1403774745164996,7.165868e-01,-1.083248e-03,-4.458344e-02,4.123757e-03,2.304425e-03,-5.822487e-04
1403774745352486,1403774745289988,3.584697e-01,-6.418686e-03,-1.771997e-02,-3.734994e-03,1.704301e-03,-2.082090e-04
1403774745414983,1403774745352486,3.553886e-01,-8.830751e-03,-1.689276e-02,-4.601699e-03,3.269487e-03,-9.588569e-05
1403774745477477,1403774745414983,3.587307e-01,-7.976698e-03,-1.679048e-02,-1.534532e-03,9.909882e-04,-8.494354e-05
1403774745602467,1403774745477477,7.264179e-01,-8.961978e-03,-3.466188e-02,2.549207e-04,-6.677536e-03,-5.679882e-04
1403774745664954,1403774745602467,3.645166e-01,-1.290554e-04,-2.079849e-02,1.571268e-03,-2.971863e-03,-6.280268e-04
1403774745727446,1403774745664954,3.602028e-01,2.452176e-04,-2.267854e-02,2.060804e-03,-8.348601e-04,-9.627121e-04
1403774745789935,1403774745727446,3.604666e-01,1.038666e-03,-2.212764e-02,2.509465e-03,-2.471567e-05,-7.676999e-04
1403774745852425,1403774745789935,3.602466e-01,-2.122757e-03,-2.033676e-02,9.432298e-04,-5.026552e-04,-2.887055e-04
1403774745914915,1403774745852425,3.594038e-01,-3.634161e-03,-2.037726e-02,-6.652646e-04,-1.897420e-03,-3.171899e-04
1403774746039904,1403774745914915,7.248582e-01,-2.031703e-02,-3.641857e-02,-7.028312e-03,-3.733293e-03,-1.139736e-03
1403774746102395,1403774746039904,3.629262e-01,-6.779339e-03,-1.777376e-02,-7.666460e-04,-1.333736e-03,-8.019250e-04
1403774746164884,1403774746102395,3.618106e-01,-4.426207e-03,-1.995085e-02,-1.744541e-03,-8.592806e-04,-3.910089e-04
1403774746227376,1403774746164884,3.591204e-01,-3.247165e-03,-2.277455e-02,1.851728e-04,2.266590e-04,-2.637286e-04
1403774746289864,1403774746227376,3.564219e-01,-2.156895e-03,-2.578579e-02,1.639511e-03,1.460850e-03,-4.987401e-04
1403774746352355,1403774746289864,3.615984e-01,1.056487e-03,-2.480291e-02,3.852002e-03,1.559568e-03,-9.074055e-04
1403774746414846,1403774746352355,3.596079e-01,1.568557e-03,-2.205589e-02,3.108957e-03,1.194983e-03,-7.243462e-04
1403774746477333,1403774746414846,3.648586e-01,-6.031415e-05,-1.884804e-02,1.275035e-03,3.671003e-04,-1.352705e-04
1403774746539824,1403774746477333,3.642831e-01,-4.000585e-04,-1.628407e-02,1.309110e-03,-3.607861e-04,5.764310e-05
1403774746602317,1403774746539824,3.642709e-01,-1.972937e-03,-1.565300e-02,6.542965e-04,-1.125883e-03,5.382885e-05
1403774746664805,1403774746602317,3.646610e-01,-5.243952e-03,-1.770341e-02,-1.881640e-03,-1.049095e-03,-4.755550e-05
1403774746727296,1403774746664805,3.678009e-01,-4.760440e-03,-1.932745e-02,-1.337019e-03,-1.514353e-03,-1.630590e-04
1403774746789786,1403774746727296,3.651076e-01,-5.266461e-03,-2.284629e-02,-9.387017e-04,-1.304975e-03,-3.362475e-04
1403774746852276,1403774746789786,3.697844e-01,-1.799957e-03,-2.337964e-02,1.745182e-03,-1.313636e-03,-6.585766e-04
1403774746914765,1403774746852276,3.679467e-01,-9.658737e-04,-2.129514e-02,1.430443e-03,-2.647072e-03,-5.496548e-04
1403774746977255,1403774746914765,3.686793e-01,1.124242e-03,-1.935801e-02,2.472156e-03,-2.227403e-03,-5.051510e-04
1403774747039747,1403774746977255,3.671017e-01,7.902692e-04,-1.947140e-02,1.895191e-03,1.082993e-04,-3.967934e-04
1403774747102235,1403774747039747,3.681636e-01,-4.743125e-03,-2.103946e-02,-1.940679e-03,1.637037e-03,-4.342573e-05
1403774747164726,1403774747102235,3.684849e-01,-6.311036e-03,-2.229971e-02,-3.075858e-03,2.512733e-03,1.886159e-04
1403774747227216,1403774747164726,3.658980e-01,-7.997593e-03,-2.381868e-02,-3.046047e-03,1.899352e-03,3.438764e-04
1403774747289705,1403774747227216,3.651452e-01,-6.148191e-03,-2.399241e-02,-1.218590e-03,8.455689e-04,4.475659e-05
1403774747352195,1403774747289705,3.699700e-01,-5.283166e-03,-2.065409e-02,-1.585989e-03,1.372246e-04,-3.407661e-04
1403774747414686,1403774747352195,3.684210e-01,-4.433681e-03,-1.751579e-02,-1.451875e-03,8.046576e-04,-6.326654e-04
1403774747477177,1403774747414686,3.677812e-01,-1.428224e-03,-1.882381e-02,1.270216e-03,1.535104e-03,-7.136212e-04
1403774747539665,1403774747477177,3.692184e-01,8.666363e-04,-2.011744e-02,2.404479e-03,9.613923e-04,-3.551709e-04
1403774747602156,1403774747539665,3.749220e-01,-3.159040e-03,-2.021897e-02,-8.347042e-04,-6.723162e-04,2.323143e-04
1403774747664648,1403774747602156,3.744834e-01,-6.543512e-03,-2.131653e-02,-2.693370e-03,-1.498807e-03,3.854185e-04
1403774747727138,1403774747664648,3.729496e-01,-5.924464e-03,-2.391546e-02,-2.058935e-03,-1.423854e-03,-1.057175e-05
1403774747789630,1403774747727138,3.734934e-01,-4.703084e-03,-2.384847e-02,-3.519176e-04,8.186148e-04,-5.134866e-04
1403774747852119,1403774747789630,3.729606e-01,-3.765338e-03,-2.294420e-02,-4.746941e-04,2.057315e-03,-4.078722e-04
1403774747914606,1403774747852119,3.779044e-01,-4.731867e-04,-2.088697e-02,1.719236e-03,1.421643e-03,-5.155128e-05
1403774747977096,1403774747914606,3.777867e-01,1.043332e-03,-2.136303e-02,3.671653e-03,9.192719e-04,2.451443e-04
1403774748039586,1403774747977096,3.752216e-01,-4.542091e-04,-2.068652e-02,2.134012e-05,1.170017e-03,1.799334e-04
1403774748164578,1403774748039586,7.532404e-01,-7.494448e-03,-4.047235e-02,-3.945724e-03,1.058328e-03,9.166396e-04
1403774748227067,1403774748164578,3.752163e-01,-5.149836e-03,-1.988367e-02,-1.584522e-03,-1.208053e-03,5.124924e-04
1403774748289557,1403774748227067,3.778638e-01,-3.624286e-03,-1.972873e-02,-5.528810e-04,-1.746451e-03,3.431646e-04
1403774748352048,1403774748289557,3.797767e-01,-7.894521e-04,-1.871862e-02,1.890528e-03,-2.042342e-03,8.546944e-05
1403774748477035,1403774748352048,7.615651e-01,6.672062e-03,-4.134371e-02,5.856768e-03,-4.591202e-03,-4.254709e-04
1403774748539529,1403774748477035,3.791698e-01,1.662674e-03,-2.261749e-02,1.382657e-03,-1.630298e-03,5.864787e-04
1403774748602018,1403774748539529,3.809948e-01,-2.679748e-03,-2.291827e-02,-1.196235e-03,-7.081950e-04,1.515153e-03
1403774748664509,1403774748602018,3.782407e-01,-5.459800e-03,-2.469804e-02,-3.139482e-03,2.956711e-04,1.718410e-03
1403774748789498,1403774748664509,7.561903e-01,-1.109781e-02,-4.931189e-02,-2.990133e-03,2.868011e-03,1.951115e-03
1403774748851989,1403774748789498,3.763332e-01,-2.235955e-03,-2.155551e-02,-6.892374e-04,1.943309e-03,-8.248759e-05
1403774748914477,1403774748851989,3.793403e-01,-7.936852e-04,-2.120833e-02,2.638927e-04,1.828342e-03,-1.585840e-04
1403774748976967,1403774748914477,3.781311e-01,-3.541489e-04,-2.135615e-02,8.487203e-04,1.422402e-03,2.844878e-04
1403774749039459,1403774748976967,3.823037e-01,-9.353226e-04,-2.178773e-02,9.370157e-04,1.576182e-03,3.750156e-04
1403774749164449,1403774749039459,7.624942e-01,-4.963090e-03,-4.531923e-02,-8.884395e-04,3.551775e-04,4.268863e-04
1403774749226937,1403774749164449,3.837813e-01,-5.220760e-03,-2.046868e-02,-1.894544e-03,-9.660474e-04,-2.249460e-05
1403774749289426,1403774749226937,3.841794e-01,-6.150923e-03,-2.032034e-02,-1.510185e-03,-1.031644e-03,1.755410e-04
1403774749351919,1403774749289426,3.823768e-01,-3.971707e-03,-2.255083e-02,-6.820505e-04,9.930432e-05,2.439144e-04
1403774749476908,1403774749351919,7.804501e-01,-7.522182e-03,-4.102393e-02,-5.367613e-04,-7.500080e-04,3.469559e-04
1403774749539397,1403774749476908,3.880980e-01,-1.167392e-03,-2.103480e-02,1.572803e-03,-2.318779e-03,-1.585824e-04
1403774749601891,1403774749539397,3.866771e-01,-7.703656e-04,-2.148639e-02,2.119174e-03,-1.695516e-03,-2.715387e-04
1403774749664377,1403774749601891,3.872981e-01,-2.444957e-03,-2.233461e-02,4.005526e-04,-2.960380e-04,-1.810726e-04
1403774749726867,1403774749664377,3.844613e-01,-2.012891e-03,-2.244319e-02,3.911569e-04,4.974492e-04,-5.792922e-05
1403774749851858,1403774749726867,7.849687e-01,-6.248743e-03,-4.408182e-02,2.164865e-03,-3.020228e-03,6.069311e-05
1403774749914348,1403774749851858,3.890945e-01,-2.728148e-03,-2.409985e-02,-8.069253e-05,1.378187e-05,-1.280763e-04
1403774749976838,1403774749914348,3.889384e-01,-4.671553e-03,-2.400356e-02,-8.437432e-04,1.440530e-03,-1.196497e-04
1403774750039330,1403774749976838,3.859826e-01,-3.096015e-03,-2.405297e-02,-1.080270e-03,1.350654e-03,-2.556661e-04
1403774750164316,1403774750039330,7.752924e-01,-1.054666e-02,-4.715169e-02,-1.698769e-03,-3.247399e-04,2.349859e-04
1403774750226807,1403774750164316,3.911295e-01,-3.443930e-03,-2.004323e-02,1.372981e-04,-5.794067e-04,7.792439e-05
1403774750289299,1403774750226807,3.912269e-01,-1.866305e-03,-1.944002e-02,-2.506684e-04,-1.081693e-03,2.521753e-04
1403774750351789,1403774750289299,3.930169e-01,-1.141948e-03,-2.033575e-02,3.441668e-04,-1.434045e-03,4.501683e-04
1403774750476778,1403774750351789,7.865346e-01,-5.434414e-03,-4.430313e-02,-1.870798e-03,-2.237844e-03,1.307114e-03
1403774750539271,1403774750476778,3.920421e-01,-6.865992e-03,-2.460292e-02,-2.586473e-03,1.274307e-04,9.183215e-04
1403774750601758,1403774750539271,3.902953e-01,-4.437536e-03,-2.479140e-02,-7.501537e-04,3.237037e-04,6.985173e-04
1403774750664249,1403774750601758,3.927462e-01,-4.065073e-03,-2.502368e-02,-8.917865e-04,1.581560e-03,5.577630e-04
1403774750789240,1403774750664249,7.894480e-01,-8.736648e-03,-4.427713e-02,-3.394512e-03,2.706032e-03,8.777130e-04
1403774750851732,1403774750789240,3.968465e-01,-2.189817e-03,-1.890372e-02,9.120656e-04,8.409328e-04,4.603821e-04
1403774750914221,1403774750851732,3.926669e-01,-7.582249e-04,-2.119933e-02,1.581420e-03,2.579560e-04,4.782051e-04
1403774750976711,1403774750914221,3.937905e-01,-5.035027e-04,-2.280343e-02,1.149524e-03,-1.434943e-05,5.576737e-04
1403774751039206,1403774750976711,3.958948e-01,-1.182806e-03,-2.111976e-02,7.598234e-04,-1.311161e-03,6.640852e-04
1403774751164194,1403774751039206,7.951739e-01,-5.369244e-03,-4.415883e-02,-1.530856e-03,-2.794492e-03,1.743346e-03
1403774751226684,1403774751164194,3.938586e-01,-5.703883e-03,-2.309034e-02,-2.265395e-03,8.965224e-04,5.755966e-04
1403774751289173,1403774751226684,3.902321e-01,-4.579924e-03,-2.511154e-02,-3.037654e-04,9.649226e-04,3.340432e-04
1403774751351664,1403774751289173,3.907451e-01,-1.989002e-03,-2.395453e-02,1.050576e-03,5.799248e-04,1.707489e-04
1403774751476654,1403774751351664,7.918250e-01,-1.673173e-03,-4.648338e-02,1.250739e-03,3.147859e-03,-4.111675e-05
1403774751539145,1403774751476654,3.928602e-01,-9.621438e-04,-2.110726e-02,4.914947e-04,8.629372e-04,-1.662966e-04
1403774751601643,1403774751539145,3.953539e-01,-1.610560e-03,-1.956745e-02,8.807641e-04,-6.565455e-04,1.622122e-04
1403774751664144,1403774751601643,3.926407e-01,-1.279137e-03,-2.131506e-02,6.895318e-04,-1.385524e-03,5.805757e-04
1403774751789133,1403774751664144,7.921961e-01,-3.209767e-03,-4.299439e-02,6.720088e-04,-1.105588e-03,5.740778e-04
1403774751851622,1403774751789133,3.949527e-01,-2.534579e-03,-2.132674e-02,-6.571962e-04,-1.929506e-03,9.531462e-06
1403774751914114,1403774751851622,3.953334e-01,-9.924874e-04,-2.233273e-02,2.547590e-04,-2.098351e-03,-2.809108e-05
1403774751976604,1403774751914114,3.912230e-01,-4.309386e-04,-2.348670e-02,1.328007e-03,-4.674623e-04,1.998498e-04
1403774752039094,1403774751976604,3.912961e-01,-1.143175e-03,-2.306839e-02,1.278503e-03,4.316667e-04,3.221182e-04
1403774752101582,1403774752039094,3.918524e-01,-1.762013e-03,-2.343484e-02,1.220979e-03,-8.484523e-05,2.460538e-04
1403774752226573,1403774752101582,7.887550e-01,2.561836e-04,-4.424730e-02,2.364253e-03,-1.937864e-03,-2.577621e-04
1403774752289062,1403774752226573,3.924786e-01,-5.137400e-03,-2.049091e-02,-2.907188e-03,-5.219558e-04,5.490140e-05
1403774752351552,1403774752289062,3.918353e-01,-7.039992e-03,-2.089603e-02,-3.114525e-03,-4.787329e-06,2.816330e-04
1403774752414047,1403774752351552,3.897074e-01,-7.123016e-03,-2.179222e-02,-3.243464e-03,-2.495347e-04,1.832298e-04
1403774752476533,1403774752414047,3.926665e-01,-8.079343e-03,-2.107012e-02,-3.576850e-03,-8.558211e-04,3.953090e-05
1403774752539023,1403774752476533,3.914225e-01,-6.928281e-03,-2.148256e-02,-2.085190e-03,-1.112564e-03,-3.784773e-04
1403774752664014,1403774752539023,7.726645e-01,-3.206399e-03,-5.412636e-02,1.696517e-03,3.416718e-03,-1.532711e-03
1403774752726506,1403774752664014,3.869731e-01,-1.471276e-03,-2.637855e-02,1.432294e-03,4.190132e-03,-1.681977e-04
1403774752788993,1403774752726506,3.866462e-01,-2.836527e-03,-2.718627e-02,1.142588e-03,4.287808e-03,5.789071e-05
1403774752851484,1403774752788993,3.876654e-01,-1.772371e-03,-2.483096e-02,1.864730e-03,3.440285e-03,-3.763075e-04
1403774752913973,1403774752851484,3.883761e-01,-3.633490e-03,-2.164806e-02,1.288523e-03,2.589175e-03,-1.003519e-03
1403774752976464,1403774752913973,3.897413e-01,-5.580218e-03,-1.936803e-02,-2.651204e-04,1.801900e-03,-1.363120e-03
1403774753038954,1403774752976464,3.901326e-01,-4.975979e-03,-1.981814e-02,1.203577e-03,1.041069e-04,-1.281564e-03
1403774753101443,1403774753038954,3.945829e-01,-5.537537e-03,-1.789222e-02,5.239433e-04,-1.560436e-03,-8.637905e-04
1403774753163933,1403774753101443,3.937811e-01,-5.215733e-03,-1.883216e-02,7.408162e-05,-3.184611e-03,-9.221312e-04
1403774753226424,1403774753163933,3.959967e-01,-4.448132e-03,-2.037838e-02,4.453297e-04,-4.498987e-03,-1.296635e-03
1403774753288927,1403774753226424,3.939917e-01,-5.093040e-03,-2.146676e-02,5.629417e-04,-4.488663e-03,-1.680679e-03
1403774753351403,1403774753288927,3.940009e-01,-4.315943e-03,-2.254271e-02,1.144450e-03,-3.519687e-03,-1.569481e-03
1403774753413896,1403774753351403,3.961548e-01,-3.831577e-03,-2.244221e-02,-3.493601e-05,-2.671419e-03,-1.408290e-03
1403774753476385,1403774753413896,3.940961e-01,-2.968806e-03,-2.460103e-02,1.006988e-03,-1.510578e-03,-1.278398e-03
1403774753601376,1403774753476385,7.819275e-01,-9.749620e-03,-5.090781e-02,6.384623e-04,1.901473e-03,-1.814455e-03
1403774753663863,1403774753601376,3.886584e-01,-4.514735e-03,-2.371146e-02,-2.151255e-04,1.792126e-03,-5.227757e-04
1403774753726356,1403774753663863,3.888870e-01,-7.721466e-03,-2.130023e-02,-2.534998e-03,1.704740e-03,-2.040646e-04
1403774753788846,1403774753726356,3.924205e-01,-6.880741e-03,-1.986798e-02,-1.861673e-03,1.126880e-03,-2.126916e-04
1403774753913835,1403774753788846,7.908359e-01,-1.048062e-02,-4.020970e-02,-1.013020e-03,3.224012e-05,-1.523818e-04
1403774753976326,1403774753913835,3.970891e-01,-3.710951e-03,-2.011856e-02,-1.039312e-03,-1.276981e-03,2.796530e-04
1403774754038815,1403774753976326,3.959254e-01,-5.123683e-03,-2.236183e-02,-1.391478e-03,-1.427271e-03,7.707743e-04
1403774754101304,1403774754038815,3.970184e-01,-4.060111e-03,-2.186214e-02,-2.370524e-03,-1.632278e-03,7.525472e-04
1403774754226297,1403774754101304,7.973605e-01,-1.114124e-02,-4.528454e-02,-6.155482e-03,-1.669280e-03,2.028694e-03
1403774754288785,1403774754226297,3.965021e-01,-8.149414e-03,-2.248244e-02,-4.949804e-03,-5.859032e-04,9.307816e-04
1403774754351272,1403774754288785,3.979839e-01,-6.463316e-03,-2.104884e-02,-3.221299e-03,-9.320730e-04,5.867965e-04
1403774754413766,1403774754351272,3.984112e-01,-4.693632e-03,-2.119687e-02,-1.578573e-03,-7.936477e-04,3.817644e-04
1403774754476256,1403774754413766,3.993574e-01,-3.413981e-03,-2.317798e-02,-1.324744e-03,2.473858e-04,5.921922e-04
1403774754601248,1403774754476256,7.917057e-01,-2.699545e-03,-5.435162e-02,1.573579e-03,6.774955e-03,1.807826e-03
1403774754663737,1403774754601248,3.929806e-01,9.871519e-04,-2.854624e-02,1.636956e-03,4.489878e-03,9.520236e-04
1403774754726225,1403774754663737,3.973699e-01,3.564358e-04,-2.585711e-02,5.211533e-04,3.724630e-03,1.321597e-03
1403774754788716,1403774754726225,3.957902e-01,-1.678355e-03,-2.121872e-02,8.263440e-04,3.114673e-03,1.919617e-03
1403774754913703,1403774754788716,7.940521e-01,2.087758e-04,-4.186253e-02,2.359023e-04,3.281136e-03,3.486217e-03
1403774754976198,1403774754913703,3.998951e-01,1.709862e-04,-2.032507e-02,6.353618e-04,-7.737903e-04,1.637015e-03
1403774755038686,1403774754976198,3.978445e-01,2.453393e-03,-2.164333e-02,1.998835e-03,-3.076283e-03,1.318051e-03
1403774755101176,1403774755038686,4.006520e-01,3.129756e-03,-2.185649e-02,2.751995e-03,-3.822122e-03,1.206847e-03
1403774755226165,1403774755101176,8.030167e-01,1.086219e-02,-4.511927e-02,5.580490e-03,-5.206346e-03,1.853893e-03
1403774755288656,1403774755226165,3.960257e-01,1.937202e-03,-2.306179e-02,1.948010e-03,-1.125630e-03,9.839818e-04
1403774755351145,1403774755288656,3.963066e-01,-1.736980e-04,-2.338587e-02,2.494308e-04,-1.343689e-03,1.149803e-03
1403774755413637,1403774755351145,3.949392e-01,-2.361438e-03,-2.320891e-02,-9.556009e-04,-1.367713e-03,1.044444e-03
1403774755476128,1403774755413637,3.984326e-01,-2.832971e-03,-2.009934e-02,-1.258261e-03,-1.982003e-03,9.561139e-04
1403774755601117,1403774755476128,7.883975e-01,-2.633505e-03,-4.434286e-02,1.134252e-03,-1.028292e-03,1.751575e-03
1403774755663607,1403774755601117,3.924563e-01,-3.169249e-03,-2.368999e-02,-1.575666e-03,1.077147e-03,7.446986e-04
1403774755726105,1403774755663607,3.893832e-01,-8.666423e-04,-2.548954e-02,-4.227460e-04,8.043314e-04,7.384661e-04
1403774755788604,1403774755726105,3.902217e-01,-3.253767e-03,-2.497278e-02,-4.536732e-04,3.238474e-04,9.657719e-04
1403774755913594,1403774755788604,7.866878e-01,-4.589775e-03,-4.405105e-02,-1.025365e-03,1.895283e-03,1.376698e-03
1403774755976094,1403774755913594,3.914607e-01,-3.918517e-03,-2.204728e-02,7.511785e-05,1.684406e-03,-1.675443e-04
1403774756038591,1403774755976094,3.896824e-01,-3.542910e-03,-2.208058e-02,-1.457188e-04,-9.217846e-05,-3.472334e-04
1403774756101081,1403774756038591,3.907859e-01,-1.631992e-03,-2.236118e-02,3.573396e-04,-9.227688e-04,-2.752054e-04
1403774756163580,1403774756101081,3.913665e-01,-1.571253e-03,-2.293686e-02,1.681880e-03,-8.942904e-04,5.056509e-05
1403774756288579,1403774756163580,7.852040e-01,-8.423656e-03,-4.341214e-02,-1.920650e-03,-2.004577e-04,4.105115e-04
1403774756351069,1403774756288579,3.919334e-01,-5.228470e-03,-2.114795e-02,-6.019529e-04,-3.548355e-04,-3.203057e-05
1403774756413570,1403774756351069,3.925205e-01,-3.702650e-03,-2.155285e-02,3.789948e-04,-5.918343e-04,-1.043155e-04
1403774756476068,1403774756413570,3.913628e-01,-4.089813e-03,-2.104425e-02,-1.081984e-03,-5.071699e-04,-1.733963e-04
1403774756601057,1403774756476068,7.791657e-01,-8.537822e-03,-4.531062e-02,1.750389e-04,-8.920891e-04,-1.027625e-03
1403774756663556,1403774756601057,3.883931e-01,-1.526351e-03,-2.406926e-02,1.733990e-03,6.501037e-04,-9.365702e-04
1403774756726056,1403774756663556,3.889942e-01,-2.399360e-03,-2.433360e-02,-8.215145e-04,1.171915e-03,-6.231775e-04
1403774756788544,1403774756726056,3.884342e-01,-3.076168e-03,-2.338852e-02,-7.692881e-04,7.090887e-04,-4.381011e-04
1403774756913545,1403774756788544,7.858894e-01,-8.375141e-03,-4.074378e-02,2.265482e-04,-1.032912e-04,-1.177065e-03
1403774756976042,1403774756913545,3.943695e-01,-6.127171e-03,-1.991026e-02,-1.901904e-03,-4.922365e-04,-4.682783e-04
1403774757038533,1403774756976042,3.937979e-01,-3.048231e-03,-2.103576e-02,7.804425e-04,-6.667937e-04,-5.182570e-04
1403774757101022,1403774757038533,3.936128e-01,-2.622216e-03,-2.169298e-02,1.071541e-03,-1.509917e-03,-7.501235e-04
1403774757163512,1403774757101022,3.971432e-01,-4.035617e-03,-2.186574e-02,-9.696358e-04,-1.709837e-03,-7.690371e-04
1403774757225999,1403774757163512,3.971483e-01,-4.916694e-03,-2.394303e-02,-9.238509e-04,-9.450912e-04,-4.947255e-04
1403774757288500,1403774757225999,3.965148e-01,-5.262911e-03,-2.232548e-02,-9.783877e-04,-1.377784e-03,-3.652398e-04
1403774757351000,1403774757288500,3.975714e-01,-6.398308e-03,-1.995835e-02,-1.574624e-03,-1.981878e-03,-2.449457e-04
1403774757413488,1403774757351000,3.997157e-01,-6.996041e-03,-2.031547e-02,-1.237855e-03,-1.455371e-03,-3.101914e-04
1403774757475988,1403774757413488,3.964141e-01,-5.726971e-03,-2.230328e-02,-7.953374e-04,-9.748108e-05,-6.048983e-04
1403774757538491,1403774757475988,3.975607e-01,-3.682721e-03,-2.437595e-02,5.499882e-05,1.240130e-03,-6.627391e-04
1403774757600976,1403774757538491,3.941066e-01,-3.578196e-03,-2.552881e-02,7.419613e-04,1.547431e-03,-1.975329e-04
1403774757663475,1403774757600976,3.970827e-01,-2.604570e-03,-2.497565e-02,9.308812e-04,1.217923e-03,7.595377e-06
1403774757725974,1403774757663475,3.950413e-01,-1.368560e-03,-2.642392e-02,1.156556e-03,2.177242e-03,9.129850e-05
1403774757788463,1403774757725974,3.949932e-01,-2.513824e-03,-2.429477e-02,2.893764e-04,2.687687e-03,3.333047e-05
1403774757850963,1403774757788463,4.021040e-01,-3.203147e-03,-1.957251e-02,1.319659e-04,1.211141e-03,3.471991e-05
1403774757913460,1403774757850963,4.028142e-01,-2.487761e-03,-2.023046e-02,3.919234e-04,2.945169e-04,1.367356e-04
1403774757975948,1403774757913460,4.002359e-01,-4.848698e-03,-2.095862e-02,3.169089e-04,6.490276e-06,3.402871e-04
1403774758038445,1403774757975948,4.043928e-01,-3.401989e-03,-2.374097e-02,3.764077e-04,1.106876e-03,2.380312e-04
1403774758100936,1403774758038445,3.996038e-01,-3.329580e-03,-2.394896e-02,-9.045862e-04,9.078501e-04,4.663518e-04
1403774758163426,1403774758100936,3.993769e-01,-4.339289e-03,-2.496022e-02,-1.224157e-03,1.003721e-03,8.627742e-04
1403774758225920,1403774758163426,4.004032e-01,-2.186334e-03,-2.293346e-02,1.118881e-03,6.940562e-04,1.124088e-03
1403774758288410,1403774758225920,4.017424e-01,8.123897e-04,-2.195108e-02,1.697841e-03,8.502808e-04,1.102705e-03
1403774758350899,1403774758288410,4.014259e-01,2.384296e-03,-2.022439e-02,2.631958e-03,4.593948e-04,8.879000e-04
1403774758413389,1403774758350899,3.986568e-01,-1.022844e-03,-2.137123e-02,5.087166e-04,-7.165251e-04,1.028071e-03
1403774758475879,1403774758413389,3.980148e-01,-2.019357e-03,-2.210789e-02,-4.505674e-04,-1.883689e-03,9.764998e-04
1403774758538371,1403774758475879,3.983841e-01,-2.697213e-03,-2.209535e-02,-5.515719e-04,-2.089269e-03,9.908110e-04
1403774758600858,1403774758538371,3.958808e-01,-2.307912e-03,-2.362720e-02,-3.517725e-04,-1.979922e-03,9.243411e-04
1403774758663348,1403774758600858,3.929356e-01,-2.104498e-03,-2.445992e-02,2.020995e-04,-4.880564e-04,6.486425e-04
1403774758725838,1403774758663348,3.930242e-01,-1.483915e-03,-2.361877e-02,1.081283e-03,2.257075e-04,3.576604e-04
1403774758788328,1403774758725838,3.916417e-01,-1.915139e-03,-2.343239e-02,-2.158872e-04,2.797614e-04,2.293887e-04
1403774758850821,1403774758788328,3.937580e-01,-4.442230e-03,-2.143581e-02,-2.098989e-03,-6.774480e-04,3.257701e-04
1403774758913310,1403774758850821,3.947018e-01,-4.256006e-03,-2.025887e-02,-5.025586e-04,-1.770668e-03,5.058555e-04
1403774758975803,1403774758913310,3.900918e-01,-8.829957e-04,-2.111722e-02,1.291901e-03,-8.000305e-04,3.846127e-04
1403774759038287,1403774758975803,3.902072e-01,-3.857561e-03,-2.239321e-02,7.507458e-05,2.385682e-04,6.087030e-05
1403774759100790,1403774759038287,3.886763e-01,-5.158273e-03,-2.367261e-02,-1.203080e-03,4.540192e-04,-3.292365e-04
1403774759163286,1403774759100790,3.874927e-01,-1.805009e-03,-2.536265e-02,1.431072e-03,1.818967e-03,-5.094459e-04
1403774759225777,1403774759163286,3.857286e-01,-2.522238e-03,-2.599946e-02,4.748329e-04,2.103563e-03,-1.191249e-04
1403774759288265,1403774759225777,3.832133e-01,-2.547457e-03,-2.435541e-02,-2.294006e-04,1.727475e-03,1.846624e-04
1403774759350758,1403774759288265,3.839527e-01,-3.452784e-03,-2.138619e-02,-5.710027e-05,1.923921e-03,7.256111e-05
1403774759413249,1403774759350758,3.832085e-01,-4.780088e-03,-2.086992e-02,-3.477001e-04,1.084713e-03,-1.887647e-04
1403774759475742,1403774759413249,3.812457e-01,-4.472191e-03,-2.115673e-02,-2.771924e-05,5.273717e-04,-2.093341e-04
1403774759538229,1403774759475742,3.837424e-01,-4.748163e-03,-2.042598e-02,-1.387013e-03,4.801175e-04,-7.725061e-05
1403774759600722,1403774759538229,3.833705e-01,-2.690289e-03,-2.086382e-02,7.521218e-04,-1.381926e-03,-1.743883e-05
1403774759663211,1403774759600722,3.854113e-01,-3.018891e-03,-2.050289e-02,5.867682e-04,-2.074919e-03,-1.959111e-04
1403774759725702,1403774759663211,3.846475e-01,-4.328950e-03,-2.145497e-02,-7.526049e-04,-1.841317e-03,-2.456421e-04
1403774759788192,1403774759725702,3.809810e-01,-3.659072e-03,-2.039905e-02,-1.945073e-04,-1.486421e-03,-2.755446e-04
