timestamp,ins_status,latitude,longitude,altitude,northing,easting,down,utm_zone,velocity_north,velocity_east,velocity_down,roll,pitch,yaw
1403772868980061,INS_SOLUTION_GOOD,51.765520,-1.258634,113.088955,5736393.709887,620164.983668,-113.088955,30U,0.022787,-0.016062,0.002881,-0.074890,-0.010724,1.088534
1403772868994433,INS_SOLUTION_GOOD,51.765520,-1.258634,113.088896,5736393.710323,620164.983312,-113.088896,30U,0.023006,-0.016141,0.002961,-0.074894,-0.010726,1.088539
1403772869012540,INS_SOLUTION_GOOD,51.765520,-1.258634,113.088838,5736393.710762,620164.983026,-113.088838,30U,0.023329,-0.016120,0.002873,-0.074903,-0.010725,1.088546
1403772869032248,INS_SOLUTION_GOOD,51.765520,-1.258634,113.088780,5736393.711198,620164.982670,-113.088780,30U,0.023884,-0.016298,0.002859,-0.074908,-0.010725,1.088556
1403772869052700,INS_SOLUTION_GOOD,51.765520,-1.258634,113.088723,5736393.711746,620164.982312,-113.088723,30U,0.024278,-0.016600,0.002830,-0.074916,-0.010726,1.088568
1403772869075073,INS_SOLUTION_GOOD,51.765520,-1.258634,113.088666,5736393.712183,620164.981956,-113.088666,30U,0.024471,-0.016707,0.002703,-0.074921,-0.010723,1.088578
1403772869094366,INS_SOLUTION_GOOD,51.765520,-1.258634,113.088612,5736393.712621,620164.981670,-113.088612,30U,0.024574,-0.016850,0.002681,-0.074925,-0.010719,1.088588
1403772869112367,INS_SOLUTION_GOOD,51.765520,-1.258634,113.088559,5736393.713169,620164.981311,-113.088559,30U,0.024808,-0.017009,0.002700,-0.074928,-0.010714,1.088592
1403772869132179,INS_SOLUTION_GOOD,51.765520,-1.258634,113.088505,5736393.713605,620164.980956,-113.088505,30U,0.024795,-0.017059,0.002640,-0.074927,-0.010709,1.088595
1403772869152214,INS_SOLUTION_GOOD,51.765520,-1.258634,113.088455,5736393.714153,620164.980597,-113.088455,30U,0.024880,-0.017464,0.002492,-0.074924,-0.010707,1.088597
1403772869180149,INS_SOLUTION_GOOD,51.765520,-1.258634,113.088409,5736393.714590,620164.980242,-113.088409,30U,0.024852,-0.017492,0.002080,-0.074925,-0.010704,1.088598
1403772869194088,INS_SOLUTION_GOOD,51.765520,-1.258634,113.088369,5736393.715137,620164.979883,-113.088369,30U,0.024844,-0.017568,0.002061,-0.074926,-0.010706,1.088597
1403772869213334,INS_SOLUTION_GOOD,51.765520,-1.258634,113.088329,5736393.715574,620164.979528,-113.088329,30U,0.024740,-0.017577,0.002094,-0.074928,-0.010706,1.088590
1403772869232208,INS_SOLUTION_GOOD,51.765520,-1.258634,113.088290,5736393.716120,620164.979101,-113.088290,30U,0.025039,-0.017634,0.002001,-0.074926,-0.010709,1.088586
1403772869252584,INS_SOLUTION_GOOD,51.765520,-1.258634,113.088248,5736393.716557,620164.978745,-113.088248,30U,0.025359,-0.017850,0.002119,-0.074924,-0.010715,1.088580
1403772869274455,INS_SOLUTION_GOOD,51.765520,-1.258634,113.088203,5736393.717105,620164.978387,-113.088203,30U,0.025569,-0.017781,0.002326,-0.074921,-0.010719,1.088573
1403772869292313,INS_SOLUTION_GOOD,51.765520,-1.258634,113.088155,5736393.717541,620164.978031,-113.088155,30U,0.025800,-0.018001,0.002656,-0.074915,-0.010724,1.088572
1403772869312292,INS_SOLUTION_GOOD,51.765520,-1.258634,113.088098,5736393.718089,620164.977673,-113.088098,30U,0.025896,-0.018015,0.003031,-0.074909,-0.010727,1.088571
1403772869332186,INS_SOLUTION_GOOD,51.765520,-1.258634,113.088035,5736393.718635,620164.977245,-113.088035,30U,0.025826,-0.018006,0.003302,-0.074902,-0.010728,1.088572
1403772869352324,INS_SOLUTION_GOOD,51.765520,-1.258634,113.087966,5736393.719072,620164.976890,-113.087966,30U,0.025476,-0.018140,0.003490,-0.074894,-0.010729,1.088573
1403772869382288,INS_SOLUTION_GOOD,51.765520,-1.258634,113.087894,5736393.719620,620164.976532,-113.087894,30U,0.025384,-0.017996,0.003686,-0.074891,-0.010729,1.088571
1403772869394468,INS_SOLUTION_GOOD,51.765520,-1.258634,113.087824,5736393.720056,620164.976176,-113.087824,30U,0.025228,-0.018063,0.003399,-0.074893,-0.010732,1.088570
1403772869412333,INS_SOLUTION_GOOD,51.765520,-1.258634,113.087758,5736393.720604,620164.975818,-113.087758,30U,0.024945,-0.018103,0.003200,-0.074899,-0.010732,1.088564
1403772869432219,INS_SOLUTION_GOOD,51.765520,-1.258634,113.087696,5736393.721039,620164.975393,-113.087696,30U,0.024809,-0.018223,0.002988,-0.074907,-0.010739,1.088561
1403772869452202,INS_SOLUTION_GOOD,51.765520,-1.258635,113.101481,5736393.695825,620164.953971,-113.101481,30U,0.024743,-0.018425,0.002822,-0.074916,-0.010744,1.088549
1403772869474967,INS_SOLUTION_GOOD,51.765520,-1.258635,113.101423,5736393.696373,620164.953613,-113.101423,30U,0.024964,-0.018707,0.002920,-0.074919,-0.010747,1.088545
1403772869492333,INS_SOLUTION_GOOD,51.765520,-1.258635,113.101367,5736393.696808,620164.953188,-113.101367,30U,0.024864,-0.018840,0.002797,-0.074916,-0.010755,1.088543
1403772869512160,INS_SOLUTION_GOOD,51.765520,-1.258635,113.101309,5736393.697356,620164.952830,-113.101309,30U,0.025010,-0.018860,0.003058,-0.074910,-0.010757,1.088539
1403772869532333,INS_SOLUTION_GOOD,51.765520,-1.258635,113.101245,5736393.697791,620164.952405,-113.101245,30U,0.025054,-0.019061,0.003311,-0.074904,-0.010758,1.088539
1403772869552448,INS_SOLUTION_GOOD,51.765520,-1.258635,113.101174,5736393.698339,620164.952047,-113.101174,30U,0.024845,-0.018949,0.003703,-0.074897,-0.010756,1.088538
1403772869580202,INS_SOLUTION_GOOD,51.765520,-1.258635,113.101097,5736393.698774,620164.951622,-113.101097,30U,0.024605,-0.019015,0.003869,-0.074895,-0.010752,1.088543
1403772869595078,INS_SOLUTION_GOOD,51.765520,-1.258635,113.101021,5736393.699321,620164.951264,-113.101021,30U,0.024448,-0.018882,0.003835,-0.074893,-0.010746,1.088544
1403772869612340,INS_SOLUTION_GOOD,51.765520,-1.258635,113.100942,5736393.699756,620164.950840,-113.100942,30U,0.024213,-0.018840,0.004078,-0.074894,-0.010743,1.088546
1403772869632475,INS_SOLUTION_GOOD,51.765520,-1.258635,113.100862,5736393.700193,620164.950484,-113.100862,30U,0.024021,-0.018969,0.003954,-0.074896,-0.010740,1.088548
1403772869652453,INS_SOLUTION_GOOD,51.765520,-1.258635,113.100785,5736393.700739,620164.950057,-113.100785,30U,0.024127,-0.018871,0.003825,-0.074897,-0.010741,1.088549
1403772869675216,INS_SOLUTION_GOOD,51.765520,-1.258635,113.100709,5736393.701176,620164.949701,-113.100709,30U,0.024260,-0.018758,0.003647,-0.074896,-0.010741,1.088552
1403772869692166,INS_SOLUTION_GOOD,51.765520,-1.258635,113.100636,5736393.701722,620164.949274,-113.100636,30U,0.024137,-0.018479,0.003619,-0.074889,-0.010744,1.088555
1403772869712145,INS_SOLUTION_GOOD,51.765520,-1.258635,113.100561,5736393.702158,620164.948918,-113.100561,30U,0.024194,-0.018549,0.003775,-0.074878,-0.010747,1.088554
1403772869732220,INS_SOLUTION_GOOD,51.765520,-1.258635,113.100485,5736393.702595,620164.948562,-113.100485,30U,0.024147,-0.018554,0.003809,-0.074869,-0.010748,1.088549
1403772869752226,INS_SOLUTION_GOOD,51.765520,-1.258635,113.100409,5736393.703141,620164.948135,-113.100409,30U,0.024283,-0.018512,0.003891,-0.074865,-0.010751,1.088547
1403772869779568,INS_SOLUTION_GOOD,51.765520,-1.258635,113.100328,5736393.703578,620164.947780,-113.100328,30U,0.024150,-0.018713,0.004163,-0.074866,-0.010753,1.088544
1403772869793416,INS_SOLUTION_GOOD,51.765520,-1.258635,113.100242,5736393.704014,620164.947424,-113.100242,30U,0.024333,-0.018673,0.004342,-0.074868,-0.010755,1.088540
1403772869812185,INS_SOLUTION_GOOD,51.765520,-1.258635,113.100155,5736393.704560,620164.946997,-113.100155,30U,0.024361,-0.018858,0.004334,-0.074873,-0.010756,1.088536
1403772869832345,INS_SOLUTION_GOOD,51.765520,-1.258635,113.100067,5736393.704997,620164.946641,-113.100067,30U,0.024565,-0.019140,0.004472,-0.074877,-0.010758,1.088535
1403772869852218,INS_SOLUTION_GOOD,51.765520,-1.258635,113.099977,5736393.705432,620164.946216,-113.099977,30U,0.024622,-0.019352,0.004596,-0.074879,-0.010759,1.088535
1403772869874971,INS_SOLUTION_GOOD,51.765520,-1.258635,113.099884,5736393.705978,620164.945789,-113.099884,30U,0.024738,-0.019716,0.004724,-0.074880,-0.010761,1.088536
1403772869892447,INS_SOLUTION_GOOD,51.765520,-1.258635,113.099787,5736393.706415,620164.945433,-113.099787,30U,0.024696,-0.019835,0.004876,-0.074881,-0.010764,1.088539
1403772869912476,INS_SOLUTION_GOOD,51.765520,-1.258635,113.099688,5736393.706961,620164.945006,-113.099688,30U,0.024781,-0.020182,0.005055,-0.074878,-0.010763,1.088543
1403772869932354,INS_SOLUTION_GOOD,51.765520,-1.258635,113.099587,5736393.707396,620164.944582,-113.099587,30U,0.024682,-0.020301,0.005020,-0.074881,-0.010764,1.088545
1403772869952359,INS_SOLUTION_GOOD,51.765520,-1.258635,113.099486,5736393.707942,620164.944154,-113.099486,30U,0.024489,-0.020510,0.005007,-0.074883,-0.010763,1.088549
1403772869980367,INS_SOLUTION_GOOD,51.765520,-1.258635,113.099384,5736393.708377,620164.943730,-113.099384,30U,0.024277,-0.020551,0.005058,-0.074891,-0.010761,1.088545
1403772869994349,INS_SOLUTION_GOOD,51.765520,-1.258635,113.099284,5736393.708812,620164.943305,-113.099284,30U,0.024248,-0.020478,0.004889,-0.074898,-0.010759,1.088544
1403772870012685,INS_SOLUTION_GOOD,51.765520,-1.258635,113.099185,5736393.709358,620164.942878,-113.099185,30U,0.024179,-0.020475,0.004932,-0.074902,-0.010754,1.088542
1403772870032136,INS_SOLUTION_GOOD,51.765520,-1.258635,113.099088,5736393.709793,620164.942453,-113.099088,30U,0.024247,-0.020520,0.004790,-0.074903,-0.010751,1.088541
1403772870052437,INS_SOLUTION_GOOD,51.765520,-1.258635,113.098992,5736393.710228,620164.942028,-113.098992,30U,0.024263,-0.020401,0.004789,-0.074900,-0.010748,1.088537
1403772870075113,INS_SOLUTION_GOOD,51.765520,-1.258635,113.098896,5736393.710776,620164.941670,-113.098896,30U,0.024479,-0.020401,0.004646,-0.074889,-0.010746,1.088535
1403772870092231,INS_SOLUTION_GOOD,51.765520,-1.258635,113.098803,5736393.711211,620164.941246,-113.098803,30U,0.024529,-0.020431,0.004534,-0.074876,-0.010744,1.088539
1403772870112358,INS_SOLUTION_GOOD,51.765520,-1.258635,113.098715,5736393.711757,620164.940818,-113.098715,30U,0.024625,-0.020454,0.004267,-0.074864,-0.010747,1.088539
1403772870132231,INS_SOLUTION_GOOD,51.765520,-1.258635,113.098632,5736393.712192,620164.940394,-113.098632,30U,0.024483,-0.020385,0.004002,-0.074855,-0.010747,1.088539
1403772870151720,INS_SOLUTION_GOOD,51.765520,-1.258635,113.098552,5736393.712627,620164.939969,-113.098552,30U,0.024780,-0.020429,0.003999,-0.074856,-0.010750,1.088541
1403772870180737,INS_SOLUTION_GOOD,51.765520,-1.258635,113.098475,5736393.713173,620164.939542,-113.098475,30U,0.024665,-0.020250,0.003773,-0.074858,-0.010755,1.088540
1403772870194327,INS_SOLUTION_GOOD,51.765520,-1.258635,113.098398,5736393.713608,620164.939117,-113.098398,30U,0.024656,-0.020430,0.003977,-0.074861,-0.010756,1.088540
1403772870213486,INS_SOLUTION_GOOD,51.765520,-1.258635,113.098317,5736393.714154,620164.938690,-113.098317,30U,0.025021,-0.020633,0.004077,-0.074861,-0.010759,1.088542
1403772870232235,INS_SOLUTION_GOOD,51.765520,-1.258635,113.098233,5736393.714589,620164.938265,-113.098233,30U,0.025083,-0.020774,0.004261,-0.074861,-0.010758,1.088540
1403772870252233,INS_SOLUTION_GOOD,51.765520,-1.258635,113.098148,5736393.715135,620164.937838,-113.098148,30U,0.025404,-0.021049,0.004200,-0.074856,-0.010757,1.088542
1403772870274606,INS_SOLUTION_GOOD,51.765520,-1.258635,113.098060,5736393.715570,620164.937413,-113.098060,30U,0.025592,-0.021069,0.004525,-0.074853,-0.010755,1.088541
1403772870292372,INS_SOLUTION_GOOD,51.765520,-1.258635,113.097969,5736393.716116,620164.936986,-113.097969,30U,0.025681,-0.021285,0.004671,-0.074851,-0.010754,1.088544
1403772870312362,INS_SOLUTION_GOOD,51.765520,-1.258635,113.097871,5736393.716662,620164.936559,-113.097871,30U,0.025645,-0.021502,0.004961,-0.074848,-0.010753,1.088542
1403772870332345,INS_SOLUTION_GOOD,51.765520,-1.258635,113.097771,5736393.717095,620164.936065,-113.097771,30U,0.025769,-0.021542,0.004963,-0.074847,-0.010752,1.088540
1403772870352373,INS_SOLUTION_GOOD,51.765520,-1.258635,113.097671,5736393.717642,620164.935638,-113.097671,30U,0.025579,-0.021632,0.005154,-0.074851,-0.010750,1.088541
1403772870382640,INS_SOLUTION_GOOD,51.765520,-1.258635,113.097567,5736393.718076,620164.935213,-113.097567,30U,0.025534,-0.021566,0.005173,-0.074859,-0.010748,1.088540
1403772870392124,INS_SOLUTION_GOOD,51.765520,-1.258635,113.097465,5736393.718623,620164.934786,-113.097465,30U,0.025433,-0.021406,0.005059,-0.074869,-0.010748,1.088540
1403772870412665,INS_SOLUTION_GOOD,51.765520,-1.258635,113.097365,5736393.719167,620164.934290,-113.097365,30U,0.025264,-0.021287,0.004877,-0.074878,-0.010747,1.088540
1403772870432362,INS_SOLUTION_GOOD,51.765520,-1.258635,113.097265,5736393.719602,620164.933865,-113.097265,30U,0.025175,-0.021266,0.005066,-0.074882,-0.010747,1.088539
1403772870452684,INS_SOLUTION_GOOD,51.765520,-1.258635,113.097162,5736393.720148,620164.933438,-113.097162,30U,0.025394,-0.021222,0.005281,-0.074877,-0.010746,1.088538
1403772870475247,INS_SOLUTION_GOOD,51.765520,-1.258635,113.097058,5736393.720583,620164.933013,-113.097058,30U,0.025363,-0.021221,0.005191,-0.074865,-0.010747,1.088539
1403772870492123,INS_SOLUTION_GOOD,51.765520,-1.258635,113.096952,5736393.721129,620164.932586,-113.096952,30U,0.025337,-0.021366,0.005347,-0.074851,-0.010749,1.088540
1403772870512474,INS_SOLUTION_GOOD,51.765520,-1.258634,113.104309,5736393.683171,620164.964560,-113.104309,30U,0.019905,-0.016412,0.004605,-0.074792,-0.010770,1.088706
1403772870532348,INS_SOLUTION_GOOD,51.765520,-1.258634,113.108155,5736393.690637,620164.965003,-113.108155,30U,0.020656,-0.016705,0.004834,-0.074804,-0.010762,1.088742
1403772870552329,INS_SOLUTION_GOOD,51.765520,-1.258634,113.108057,5736393.691073,620164.964648,-113.108057,30U,0.020830,-0.016643,0.004949,-0.074801,-0.010762,1.088742
1403772870580524,INS_SOLUTION_GOOD,51.765520,-1.258634,113.107957,5736393.691399,620164.964295,-113.107957,30U,0.021036,-0.016739,0.005123,-0.074803,-0.010763,1.088744
1403772870595258,INS_SOLUTION_GOOD,51.765520,-1.258634,113.107852,5736393.691837,620164.964008,-113.107852,30U,0.021431,-0.017183,0.005314,-0.074809,-0.010762,1.088744
1403772870612245,INS_SOLUTION_GOOD,51.765520,-1.258634,113.107743,5736393.692273,620164.963653,-113.107743,30U,0.021722,-0.017419,0.005553,-0.074816,-0.010762,1.088744
1403772870632085,INS_SOLUTION_GOOD,51.765520,-1.258634,113.107633,5736393.692708,620164.963228,-113.107633,30U,0.022124,-0.017615,0.005311,-0.074822,-0.010762,1.088749
1403772870652132,INS_SOLUTION_GOOD,51.765520,-1.258634,113.107527,5736393.693145,620164.962872,-113.107527,30U,0.022275,-0.017881,0.005330,-0.074826,-0.010762,1.088750
1403772870674623,INS_SOLUTION_GOOD,51.765520,-1.258634,113.107419,5736393.693581,620164.962517,-113.107419,30U,0.022612,-0.018053,0.005348,-0.074833,-0.010763,1.088755
1403772870692127,INS_SOLUTION_GOOD,51.765520,-1.258634,113.107311,5736393.694018,620164.962161,-113.107311,30U,0.022690,-0.018139,0.005369,-0.074840,-0.010762,1.088756
1403772870712251,INS_SOLUTION_GOOD,51.765520,-1.258634,113.107205,5736393.694455,620164.961805,-113.107205,30U,0.022592,-0.017941,0.005216,-0.074852,-0.010761,1.088756
1403772870732380,INS_SOLUTION_GOOD,51.765520,-1.258635,113.107100,5736393.694890,620164.961381,-113.107100,30U,0.022575,-0.017845,0.005173,-0.074863,-0.010759,1.088757
1403772870752463,INS_SOLUTION_GOOD,51.765520,-1.258635,113.106997,5736393.695326,620164.961025,-113.106997,30U,0.022374,-0.017743,0.005132,-0.074877,-0.010759,1.088753
1403772870780316,INS_SOLUTION_GOOD,51.765520,-1.258635,113.106896,5736393.695763,620164.960670,-113.106896,30U,0.022181,-0.017808,0.004979,-0.074887,-0.010759,1.088749
1403772870794377,INS_SOLUTION_GOOD,51.765520,-1.258635,113.106792,5736393.696199,620164.960314,-113.106792,30U,0.022085,-0.017635,0.005194,-0.074891,-0.010761,1.088746
1403772870812991,INS_SOLUTION_GOOD,51.765520,-1.258635,113.106689,5736393.696636,620164.959958,-113.106689,30U,0.021940,-0.017339,0.005059,-0.074893,-0.010762,1.088745
1403772870832463,INS_SOLUTION_GOOD,51.765520,-1.258635,113.106584,5736393.697073,620164.959603,-113.106584,30U,0.021788,-0.017078,0.005484,-0.074890,-0.010764,1.088744
1403772870852744,INS_SOLUTION_GOOD,51.765520,-1.258635,113.106473,5736393.697509,620164.959247,-113.106473,30U,0.021378,-0.016886,0.005586,-0.074879,-0.010764,1.088746
1403772870874876,INS_SOLUTION_GOOD,51.765520,-1.258635,113.106358,5736393.697946,620164.958891,-113.106358,30U,0.021160,-0.016918,0.005843,-0.074866,-0.010765,1.088748
1403772870892285,INS_SOLUTION_GOOD,51.765520,-1.258635,113.106237,5736393.698382,620164.958536,-113.106237,30U,0.021020,-0.017220,0.006193,-0.074853,-0.010764,1.088748
1403772870912378,INS_SOLUTION_GOOD,51.765520,-1.258635,113.106109,5736393.698708,620164.958183,-113.106109,30U,0.020949,-0.017144,0.006503,-0.074843,-0.010764,1.088750
1403772870932107,INS_SOLUTION_GOOD,51.765520,-1.258635,113.105976,5736393.699144,620164.957827,-113.105976,30U,0.021013,-0.017319,0.006640,-0.074832,-0.010764,1.088751
1403772870952265,INS_SOLUTION_GOOD,51.765520,-1.258635,113.105842,5736393.699581,620164.957472,-113.105842,30U,0.020937,-0.017479,0.006583,-0.074823,-0.010761,1.088752
1403772870980311,INS_SOLUTION_GOOD,51.765520,-1.258635,113.105712,5736393.700017,620164.957116,-113.105712,30U,0.020970,-0.017836,0.006255,-0.074814,-0.010757,1.088754
1403772870994933,INS_SOLUTION_GOOD,51.765520,-1.258635,113.105589,5736393.700454,620164.956760,-113.105589,30U,0.021218,-0.017683,0.006018,-0.074808,-0.010753,1.088753
1403772871012255,INS_SOLUTION_GOOD,51.765520,-1.258635,113.105471,5736393.700779,620164.956407,-113.105471,30U,0.021632,-0.017739,0.005769,-0.074801,-0.010753,1.088753
1403772871032310,INS_SOLUTION_GOOD,51.765520,-1.258635,113.105358,5736393.701216,620164.956052,-113.105358,30U,0.021798,-0.017827,0.005544,-0.074796,-0.010751,1.088749
1403772871053026,INS_SOLUTION_GOOD,51.765520,-1.258635,113.105246,5736393.701651,620164.955627,-113.105246,30U,0.021922,-0.017895,0.005568,-0.074793,-0.010748,1.088746
1403772871075255,INS_SOLUTION_GOOD,51.765520,-1.258635,113.105137,5736393.702088,620164.955271,-113.105137,30U,0.022186,-0.018075,0.005319,-0.074793,-0.010746,1.088747
1403772871092517,INS_SOLUTION_GOOD,51.765520,-1.258635,113.105029,5736393.702524,620164.954916,-113.105029,30U,0.022456,-0.018169,0.005369,-0.074798,-0.010746,1.088746
1403772871112332,INS_SOLUTION_GOOD,51.765520,-1.258635,113.104920,5736393.702961,620164.954560,-113.104920,30U,0.022745,-0.018317,0.005431,-0.074807,-0.010747,1.088746
1403772871132087,INS_SOLUTION_GOOD,51.765520,-1.258635,113.104808,5736393.703396,620164.954136,-113.104808,30U,0.023035,-0.018580,0.005654,-0.074822,-0.010749,1.088745
1403772871152265,INS_SOLUTION_GOOD,51.765520,-1.258635,113.104692,5736393.703943,620164.953777,-113.104692,30U,0.023201,-0.018680,0.005980,-0.074836,-0.010751,1.088743
1403772871181011,INS_SOLUTION_GOOD,51.765520,-1.258635,113.104567,5736393.704380,620164.953422,-113.104567,30U,0.023204,-0.018516,0.006383,-0.074850,-0.010754,1.088743
1403772871192135,INS_SOLUTION_GOOD,51.765520,-1.258635,113.104439,5736393.704815,620164.952997,-113.104439,30U,0.022903,-0.018509,0.006437,-0.074859,-0.010757,1.088744
1403772871212512,INS_SOLUTION_GOOD,51.765520,-1.258635,113.104307,5736393.705252,620164.952641,-113.104307,30U,0.022488,-0.018469,0.006600,-0.074863,-0.010762,1.088744
1403772871232216,INS_SOLUTION_GOOD,51.765520,-1.258635,113.104176,5736393.705686,620164.952217,-113.104176,30U,0.022357,-0.018309,0.006471,-0.074866,-0.010766,1.088745
1403772871252395,INS_SOLUTION_GOOD,51.765520,-1.258635,113.104048,5736393.706123,620164.951861,-113.104048,30U,0.022223,-0.017991,0.006336,-0.074870,-0.010767,1.088747
1403772871275139,INS_SOLUTION_GOOD,51.765520,-1.258635,113.103922,5736393.706560,620164.951506,-113.103922,30U,0.022011,-0.017997,0.006184,-0.074872,-0.010767,1.088746
1403772871292514,INS_SOLUTION_GOOD,51.765520,-1.258635,113.103800,5736393.706996,620164.951150,-113.103800,30U,0.021934,-0.017786,0.005960,-0.074871,-0.010768,1.088746
1403772871312311,INS_SOLUTION_GOOD,51.765520,-1.258635,113.103682,5736393.707433,620164.950794,-113.103682,30U,0.021752,-0.017868,0.005836,-0.074869,-0.010769,1.088742
1403772871332143,INS_SOLUTION_GOOD,51.765520,-1.258635,113.103566,5736393.707868,620164.950370,-113.103566,30U,0.021744,-0.018046,0.005728,-0.074865,-0.010767,1.088741
1403772871352370,INS_SOLUTION_GOOD,51.765520,-1.258635,113.103452,5736393.708304,620164.950014,-113.103452,30U,0.021693,-0.018193,0.005689,-0.074860,-0.010764,1.088740
1403772871382885,INS_SOLUTION_GOOD,51.765520,-1.258635,113.103337,5736393.708741,620164.949658,-113.103337,30U,0.021776,-0.018339,0.005738,-0.074849,-0.010762,1.088741
1403772871392303,INS_SOLUTION_GOOD,51.765520,-1.258635,113.103223,5736393.709066,620164.949305,-113.103223,30U,0.021734,-0.018482,0.005571,-0.074839,-0.010762,1.088742
1403772871412649,INS_SOLUTION_GOOD,51.765520,-1.258635,113.103111,5736393.709501,620164.948881,-113.103111,30U,0.021939,-0.018543,0.005606,-0.074831,-0.010758,1.088743
1403772871432348,INS_SOLUTION_GOOD,51.765520,-1.258635,113.102993,5736393.709938,620164.948525,-113.102993,30U,0.022184,-0.018801,0.006078,-0.074826,-0.010756,1.088747
1403772871452745,INS_SOLUTION_GOOD,51.765520,-1.258635,113.102869,5736393.710373,620164.948101,-113.102869,30U,0.022375,-0.018975,0.006239,-0.074821,-0.010756,1.088750
1403772871474369,INS_SOLUTION_GOOD,51.765520,-1.258635,113.102742,5736393.710809,620164.947745,-113.102742,30U,0.022342,-0.019132,0.006505,-0.074815,-0.010752,1.088752
1403772871492184,INS_SOLUTION_GOOD,51.765520,-1.258635,113.102610,5736393.711244,620164.947320,-113.102610,30U,0.022431,-0.019421,0.006570,-0.074813,-0.010753,1.088753
1403772871512424,INS_SOLUTION_GOOD,51.765519,-1.258634,113.106188,5736393.673422,620164.971007,-113.106188,30U,0.017550,-0.016021,0.005420,-0.074754,-0.010772,1.088854
1403772871532445,INS_SOLUTION_GOOD,51.765519,-1.258634,113.104812,5736393.671376,620164.969192,-113.104812,30U,0.017670,-0.016035,0.005357,-0.074746,-0.010772,1.088860
1403772871552388,INS_SOLUTION_GOOD,51.765519,-1.258634,113.104705,5736393.671701,620164.968839,-113.104705,30U,0.017912,-0.015987,0.005433,-0.074746,-0.010774,1.088857
1403772871580145,INS_SOLUTION_GOOD,51.765519,-1.258634,113.104594,5736393.672028,620164.968555,-113.104594,30U,0.017987,-0.016037,0.005451,-0.074751,-0.010776,1.088855
1403772871594395,INS_SOLUTION_GOOD,51.765519,-1.258634,113.104485,5736393.672353,620164.968202,-113.104485,30U,0.018106,-0.016316,0.005451,-0.074756,-0.010777,1.088852
1403772871612575,INS_SOLUTION_GOOD,51.765519,-1.258634,113.104375,5736393.672679,620164.967849,-113.104375,30U,0.018115,-0.016613,0.005523,-0.074764,-0.010779,1.088850
1403772871632261,INS_SOLUTION_GOOD,51.765519,-1.258634,113.104266,5736393.673115,620164.967493,-113.104266,30U,0.018311,-0.016814,0.005351,-0.074773,-0.010780,1.088850
1403772871652397,INS_SOLUTION_GOOD,51.765519,-1.258634,113.104160,5736393.673441,620164.967140,-113.104160,30U,0.018480,-0.017033,0.005225,-0.074780,-0.010782,1.088850
1403772871675021,INS_SOLUTION_GOOD,51.765519,-1.258634,113.104054,5736393.673768,620164.966856,-113.104054,30U,0.018431,-0.016978,0.005172,-0.074786,-0.010781,1.088851
1403772871692911,INS_SOLUTION_GOOD,51.765519,-1.258634,113.103950,5736393.674204,620164.966501,-113.103950,30U,0.018333,-0.016999,0.005157,-0.074795,-0.010779,1.088853
1403772871712203,INS_SOLUTION_GOOD,51.765519,-1.258634,113.103844,5736393.674530,620164.966148,-113.103844,30U,0.018473,-0.016955,0.005444,-0.074800,-0.010777,1.088855
1403772871732204,INS_SOLUTION_GOOD,51.765519,-1.258634,113.103734,5736393.674855,620164.965795,-113.103734,30U,0.018245,-0.017013,0.005575,-0.074804,-0.010774,1.088857
1403772871752391,INS_SOLUTION_GOOD,51.765519,-1.258634,113.103622,5736393.675181,620164.965442,-113.103622,30U,0.017986,-0.017064,0.005663,-0.074807,-0.010771,1.088858
1403772871779986,INS_SOLUTION_GOOD,51.765519,-1.258634,113.103507,5736393.675617,620164.965086,-113.103507,30U,0.017849,-0.016938,0.005761,-0.074806,-0.010769,1.088859
1403772871793028,INS_SOLUTION_GOOD,51.765519,-1.258634,113.103389,5736393.675943,620164.964733,-113.103389,30U,0.017702,-0.016916,0.006015,-0.074804,-0.010767,1.088862
1403772871812276,INS_SOLUTION_GOOD,51.765519,-1.258634,113.103268,5736393.676268,620164.964380,-113.103268,30U,0.017566,-0.016774,0.006170,-0.074795,-0.010768,1.088857
1403772871832158,INS_SOLUTION_GOOD,51.765519,-1.258634,113.103144,5736393.676593,620164.964027,-113.103144,30U,0.017756,-0.016824,0.006130,-0.074785,-0.010766,1.088855
1403772871852530,INS_SOLUTION_GOOD,51.765519,-1.258634,113.103020,5736393.676919,620164.963674,-113.103020,30U,0.017708,-0.016850,0.006240,-0.074776,-0.010766,1.088856
1403772871875439,INS_SOLUTION_GOOD,51.765519,-1.258634,113.102897,5736393.677357,620164.963387,-113.102897,30U,0.017672,-0.016807,0.006059,-0.074766,-0.010763,1.088854
1403772871892409,INS_SOLUTION_GOOD,51.765519,-1.258634,113.102777,5736393.677682,620164.963034,-113.102777,30U,0.017996,-0.016960,0.005828,-0.074761,-0.010762,1.088857
1403772871912243,INS_SOLUTION_GOOD,51.765519,-1.258634,113.102661,5736393.678008,620164.962682,-113.102661,30U,0.018294,-0.017097,0.005732,-0.074755,-0.010764,1.088856
1403772871932387,INS_SOLUTION_GOOD,51.765519,-1.258634,113.102548,5736393.678333,620164.962329,-113.102548,30U,0.018521,-0.017427,0.005535,-0.074748,-0.010764,1.088858
1403772871952405,INS_SOLUTION_GOOD,51.765520,-1.258635,113.102436,5736393.678770,620164.961973,-113.102436,30U,0.018759,-0.017504,0.005557,-0.074744,-0.010764,1.088860
1403772871980397,INS_SOLUTION_GOOD,51.765520,-1.258635,113.102326,5736393.679095,620164.961620,-113.102326,30U,0.019173,-0.017662,0.005423,-0.074739,-0.010763,1.088864
1403772871994480,INS_SOLUTION_GOOD,51.765520,-1.258635,113.102216,5736393.679530,620164.961195,-113.102216,30U,0.019443,-0.017830,0.005590,-0.074739,-0.010763,1.088863
1403772872012916,INS_SOLUTION_GOOD,51.765520,-1.258635,113.102105,5736393.679855,620164.960842,-113.102105,30U,0.019491,-0.018019,0.005431,-0.074738,-0.010763,1.088863
1403772872032411,INS_SOLUTION_GOOD,51.765520,-1.258635,113.101994,5736393.680292,620164.960487,-113.101994,30U,0.019717,-0.018328,0.005659,-0.074741,-0.010762,1.088860
1403772872052902,INS_SOLUTION_GOOD,51.765520,-1.258635,113.101877,5736393.680617,620164.960134,-113.101877,30U,0.019711,-0.018462,0.006100,-0.074743,-0.010762,1.088861
1403772872074414,INS_SOLUTION_GOOD,51.765520,-1.258635,113.101753,5736393.681052,620164.959709,-113.101753,30U,0.019712,-0.018404,0.006251,-0.074749,-0.010761,1.088860
1403772872092428,INS_SOLUTION_GOOD,51.765520,-1.258635,113.101629,5736393.681378,620164.959356,-113.101629,30U,0.019834,-0.018546,0.006155,-0.074755,-0.010763,1.088859
1403772872112345,INS_SOLUTION_GOOD,51.765520,-1.258635,113.101507,5736393.681814,620164.959001,-113.101507,30U,0.019901,-0.018605,0.005996,-0.074760,-0.010763,1.088860
1403772872132126,INS_SOLUTION_GOOD,51.765520,-1.258635,113.101384,5736393.682138,620164.958579,-113.101384,30U,0.019698,-0.018823,0.006156,-0.074766,-0.010764,1.088859
1403772872152323,INS_SOLUTION_GOOD,51.765520,-1.258635,113.101260,5736393.682575,620164.958223,-113.101260,30U,0.019699,-0.018586,0.006177,-0.074772,-0.010764,1.088861
1403772872181015,INS_SOLUTION_GOOD,51.765520,-1.258635,113.101136,5736393.683009,620164.957798,-113.101136,30U,0.019888,-0.018740,0.006248,-0.074776,-0.010765,1.088860
1403772872194895,INS_SOLUTION_GOOD,51.765520,-1.258635,113.101013,5736393.683335,620164.957445,-113.101013,30U,0.019936,-0.018580,0.006041,-0.074779,-0.010764,1.088859
1403772872212278,INS_SOLUTION_GOOD,51.765520,-1.258635,113.100890,5736393.683771,620164.957090,-113.100890,30U,0.020047,-0.018472,0.006088,-0.074781,-0.010764,1.088861
1403772872232152,INS_SOLUTION_GOOD,51.765520,-1.258635,113.100768,5736393.684095,620164.956668,-113.100768,30U,0.020077,-0.018483,0.006076,-0.074782,-0.010764,1.088861
1403772872252912,INS_SOLUTION_GOOD,51.765520,-1.258635,113.100647,5736393.684532,620164.956312,-113.100647,30U,0.020238,-0.018659,0.005975,-0.074783,-0.010765,1.088860
1403772872274418,INS_SOLUTION_GOOD,51.765520,-1.258635,113.100530,5736393.684967,620164.955887,-113.100530,30U,0.020347,-0.018839,0.005724,-0.074783,-0.010765,1.088861
1403772872292154,INS_SOLUTION_GOOD,51.765520,-1.258635,113.100415,5736393.685292,620164.955534,-113.100415,30U,0.020197,-0.018997,0.005770,-0.074779,-0.010765,1.088862
1403772872312251,INS_SOLUTION_GOOD,51.765520,-1.258635,113.100298,5736393.685727,620164.955110,-113.100298,30U,0.020244,-0.018992,0.005887,-0.074774,-0.010766,1.088864
1403772872332095,INS_SOLUTION_GOOD,51.765520,-1.258635,113.100182,5736393.686052,620164.954757,-113.100182,30U,0.020296,-0.018802,0.005818,-0.074772,-0.010766,1.088865
1403772872352172,INS_SOLUTION_GOOD,51.765520,-1.258635,113.100066,5736393.686487,620164.954332,-113.100066,30U,0.020478,-0.018874,0.005675,-0.074769,-0.010766,1.088865
1403772872382594,INS_SOLUTION_GOOD,51.765520,-1.258635,113.099950,5736393.686924,620164.953977,-113.099950,30U,0.020463,-0.018708,0.005838,-0.074768,-0.010767,1.088866
1403772872392423,INS_SOLUTION_GOOD,51.765520,-1.258635,113.099834,5736393.687360,620164.953621,-113.099834,30U,0.020798,-0.018674,0.005789,-0.074768,-0.010768,1.088868
1403772872412695,INS_SOLUTION_GOOD,51.765520,-1.258635,113.099719,5736393.687684,620164.953199,-113.099719,30U,0.020821,-0.018843,0.005567,-0.074770,-0.010769,1.088870
1403772872432099,INS_SOLUTION_GOOD,51.765520,-1.258635,113.099606,5736393.688121,620164.952843,-113.099606,30U,0.021125,-0.018949,0.005593,-0.074770,-0.010770,1.088866
1403772872452556,INS_SOLUTION_GOOD,51.765520,-1.258635,113.099492,5736393.688556,620164.952419,-113.099492,30U,0.021431,-0.019125,0.005725,-0.074773,-0.010772,1.088864
1403772872475181,INS_SOLUTION_GOOD,51.765520,-1.258635,113.099377,5736393.688992,620164.952063,-113.099377,30U,0.021865,-0.019242,0.005631,-0.074777,-0.010774,1.088862
1403772872492458,INS_SOLUTION_GOOD,51.765520,-1.258635,113.099263,5736393.689427,620164.951638,-113.099263,30U,0.022244,-0.019312,0.005728,-0.074779,-0.010775,1.088858
1403772872512262,INS_SOLUTION_GOOD,51.765519,-1.258634,113.105011,5736393.659781,620164.977546,-113.105011,30U,0.018367,-0.015431,0.004853,-0.074745,-0.010799,1.088897
1403772872532205,INS_SOLUTION_GOOD,51.765519,-1.258634,113.105610,5736393.661586,620164.978608,-113.105610,30U,0.018803,-0.015173,0.004678,-0.074751,-0.010803,1.088860
1403772872552426,INS_SOLUTION_GOOD,51.765519,-1.258634,113.105518,5736393.661913,620164.978324,-113.105518,30U,0.018788,-0.015180,0.004559,-0.074754,-0.010802,1.088858
1403772872579434,INS_SOLUTION_GOOD,51.765519,-1.258634,113.105425,5736393.662350,620164.977968,-113.105425,30U,0.018984,-0.015281,0.004766,-0.074756,-0.010801,1.088857
1403772872593512,INS_SOLUTION_GOOD,51.765519,-1.258634,113.105330,5736393.662677,620164.977684,-113.105330,30U,0.019129,-0.015163,0.004721,-0.074758,-0.010801,1.088857
1403772872612292,INS_SOLUTION_GOOD,51.765519,-1.258634,113.105234,5736393.663002,620164.977331,-113.105234,30U,0.018998,-0.015181,0.004877,-0.074763,-0.010802,1.088858
1403772872632352,INS_SOLUTION_GOOD,51.765519,-1.258634,113.105136,5736393.663440,620164.977045,-113.105136,30U,0.018928,-0.015122,0.004957,-0.074766,-0.010804,1.088857
1403772872652788,INS_SOLUTION_GOOD,51.765519,-1.258634,113.105034,5736393.663768,620164.976761,-113.105034,30U,0.018931,-0.015113,0.005194,-0.074769,-0.010806,1.088854
1403772872674427,INS_SOLUTION_GOOD,51.765519,-1.258634,113.104928,5736393.664204,620164.976405,-113.104928,30U,0.019154,-0.015158,0.005310,-0.074773,-0.010806,1.088855
1403772872692371,INS_SOLUTION_GOOD,51.765519,-1.258634,113.104821,5736393.664531,620164.976121,-113.104821,30U,0.019028,-0.015192,0.005382,-0.074771,-0.010808,1.088853
1403772872712790,INS_SOLUTION_GOOD,51.765519,-1.258634,113.104712,5736393.664968,620164.975765,-113.104712,30U,0.019069,-0.015283,0.005440,-0.074765,-0.010808,1.088854
1403772872732192,INS_SOLUTION_GOOD,51.765519,-1.258634,113.104599,5736393.665295,620164.975481,-113.104599,30U,0.019090,-0.015505,0.005782,-0.074760,-0.010809,1.088853
1403772872752433,INS_SOLUTION_GOOD,51.765519,-1.258634,113.104482,5736393.665620,620164.975128,-113.104482,30U,0.019165,-0.015666,0.005882,-0.074753,-0.010810,1.088852
1403772872780016,INS_SOLUTION_GOOD,51.765519,-1.258634,113.104362,5736393.666058,620164.974842,-113.104362,30U,0.019180,-0.015611,0.006063,-0.074750,-0.010810,1.088850
1403772872793352,INS_SOLUTION_GOOD,51.765519,-1.258634,113.104242,5736393.666384,620164.974489,-113.104242,30U,0.019191,-0.015713,0.005886,-0.074749,-0.010808,1.088845
1403772872812418,INS_SOLUTION_GOOD,51.765519,-1.258634,113.104125,5736393.666822,620164.974202,-113.104125,30U,0.019125,-0.015785,0.005737,-0.074747,-0.010807,1.088844
1403772872832383,INS_SOLUTION_GOOD,51.765519,-1.258634,113.104011,5736393.667147,620164.973849,-113.104011,30U,0.019384,-0.016088,0.005694,-0.074743,-0.010806,1.088842
1403772872852684,INS_SOLUTION_GOOD,51.765519,-1.258634,113.103894,5736393.667584,620164.973494,-113.103894,30U,0.019713,-0.016138,0.005906,-0.074740,-0.010805,1.088843
1403772872874563,INS_SOLUTION_GOOD,51.765519,-1.258634,113.103775,5736393.667911,620164.973210,-113.103775,30U,0.019827,-0.016331,0.006081,-0.074736,-0.010802,1.088843
1403772872892334,INS_SOLUTION_GOOD,51.765519,-1.258634,113.103652,5736393.668348,620164.972854,-113.103652,30U,0.019953,-0.016496,0.006216,-0.074732,-0.010801,1.088844
1403772872912109,INS_SOLUTION_GOOD,51.765519,-1.258634,113.103526,5736393.668673,620164.972501,-113.103526,30U,0.020199,-0.016598,0.006312,-0.074729,-0.010801,1.088845
1403772872932112,INS_SOLUTION_GOOD,51.765519,-1.258634,113.103398,5736393.669110,620164.972145,-113.103398,30U,0.020048,-0.016718,0.006418,-0.074729,-0.010800,1.088845
1403772872952188,INS_SOLUTION_GOOD,51.765519,-1.258634,113.103271,5736393.669546,620164.971790,-113.103271,30U,0.020281,-0.016816,0.006248,-0.074732,-0.010800,1.088848
1403772872980386,INS_SOLUTION_GOOD,51.765519,-1.258634,113.103146,5736393.669873,620164.971506,-113.103146,30U,0.020538,-0.017049,0.006233,-0.074737,-0.010800,1.088849
1403772872994037,INS_SOLUTION_GOOD,51.765519,-1.258634,113.103019,5736393.670310,620164.971150,-113.103019,30U,0.020788,-0.017222,0.006512,-0.074744,-0.010801,1.088850
1403772873012565,INS_SOLUTION_GOOD,51.765519,-1.258634,113.102888,5736393.670746,620164.970795,-113.102888,30U,0.020887,-0.017258,0.006491,-0.074751,-0.010801,1.088848
1403772873032108,INS_SOLUTION_GOOD,51.765519,-1.258634,113.102759,5736393.671183,620164.970439,-113.102759,30U,0.021096,-0.017216,0.006394,-0.074755,-0.010802,1.088847
1403772873052444,INS_SOLUTION_GOOD,51.765519,-1.258634,113.102631,5736393.671508,620164.970086,-113.102631,30U,0.021000,-0.017105,0.006418,-0.074757,-0.010804,1.088848
1403772873075190,INS_SOLUTION_GOOD,51.765519,-1.258634,113.102503,5736393.671945,620164.969730,-113.102503,30U,0.021056,-0.017216,0.006481,-0.074760,-0.010805,1.088847
1403772873092483,INS_SOLUTION_GOOD,51.765519,-1.258634,113.102374,5736393.672381,620164.969375,-113.102374,30U,0.020979,-0.017348,0.006358,-0.074762,-0.010806,1.088849
1403772873112064,INS_SOLUTION_GOOD,51.765519,-1.258634,113.102248,5736393.672818,620164.969019,-113.102248,30U,0.021059,-0.017448,0.006295,-0.074763,-0.010806,1.088845
1403772873132169,INS_SOLUTION_GOOD,51.765519,-1.258634,113.102121,5736393.673255,620164.968663,-113.102121,30U,0.021075,-0.017440,0.006409,-0.074761,-0.010803,1.088844
1403772873152119,INS_SOLUTION_GOOD,51.765519,-1.258634,113.101992,5736393.673580,620164.968311,-113.101992,30U,0.021143,-0.017484,0.006388,-0.074761,-0.010801,1.088847
1403772873180921,INS_SOLUTION_GOOD,51.765519,-1.258634,113.101868,5736393.674017,620164.967955,-113.101868,30U,0.021172,-0.017412,0.006107,-0.074763,-0.010799,1.088846
1403772873194938,INS_SOLUTION_GOOD,51.765519,-1.258634,113.101749,5736393.674452,620164.967530,-113.101749,30U,0.021383,-0.017371,0.005937,-0.074766,-0.010799,1.088846
1403772873212856,INS_SOLUTION_GOOD,51.765519,-1.258634,113.101630,5736393.674888,620164.967175,-113.101630,30U,0.021496,-0.017466,0.005879,-0.074769,-0.010798,1.088850
1403772873232067,INS_SOLUTION_GOOD,51.765519,-1.258634,113.101513,5736393.675325,620164.966819,-113.101513,30U,0.021563,-0.017524,0.005741,-0.074770,-0.010800,1.088851
1403772873252288,INS_SOLUTION_GOOD,51.765519,-1.258634,113.101400,5736393.675761,620164.966463,-113.101400,30U,0.021597,-0.017527,0.005626,-0.074766,-0.010801,1.088850
1403772873275195,INS_SOLUTION_GOOD,51.765519,-1.258634,113.101285,5736393.676087,620164.966110,-113.101285,30U,0.021631,-0.017422,0.005824,-0.074758,-0.010802,1.088851
1403772873292316,INS_SOLUTION_GOOD,51.765519,-1.258634,113.101167,5736393.676523,620164.965755,-113.101167,30U,0.021468,-0.017418,0.005873,-0.074752,-0.010803,1.088850
1403772873312246,INS_SOLUTION_GOOD,51.765519,-1.258634,113.101051,5736393.676960,620164.965399,-113.101051,30U,0.021553,-0.017284,0.005728,-0.074742,-0.010804,1.088851
1403772873332069,INS_SOLUTION_GOOD,51.765519,-1.258634,113.100937,5736393.677396,620164.965044,-113.100937,30U,0.021480,-0.017073,0.005625,-0.074737,-0.010806,1.088848
1403772873352180,INS_SOLUTION_GOOD,51.765519,-1.258634,113.100826,5736393.677833,620164.964688,-113.100826,30U,0.021369,-0.016979,0.005500,-0.074734,-0.010806,1.088847
1403772873382372,INS_SOLUTION_GOOD,51.765519,-1.258634,113.100715,5736393.678270,620164.964332,-113.100715,30U,0.021585,-0.017143,0.005579,-0.074735,-0.010807,1.088843
1403772873391947,INS_SOLUTION_GOOD,51.765520,-1.258634,113.100602,5736393.678706,620164.963977,-113.100602,30U,0.021687,-0.017266,0.005604,-0.074737,-0.010809,1.088841
1403772873412820,INS_SOLUTION_GOOD,51.765520,-1.258634,113.100491,5736393.679143,620164.963621,-113.100491,30U,0.021934,-0.017590,0.005461,-0.074740,-0.010812,1.088841
1403772873432031,INS_SOLUTION_GOOD,51.765520,-1.258634,113.100381,5736393.679579,620164.963265,-113.100381,30U,0.022223,-0.017841,0.005571,-0.074743,-0.010818,1.088844
1403772873452800,INS_SOLUTION_GOOD,51.765520,-1.258634,113.100267,5736393.680016,620164.962910,-113.100267,30U,0.022529,-0.018095,0.005763,-0.074746,-0.010820,1.088848
1403772873475085,INS_SOLUTION_GOOD,51.765520,-1.258634,113.100153,5736393.680453,620164.962554,-113.100153,30U,0.022652,-0.018478,0.005669,-0.074749,-0.010822,1.088852
1403772873492406,INS_SOLUTION_GOOD,51.765519,-1.258634,113.104935,5736393.649914,620164.983719,-113.104935,30U,0.018657,-0.015776,0.004689,-0.074714,-0.010830,1.088979
1403772873512210,INS_SOLUTION_GOOD,51.765519,-1.258634,113.104840,5736393.650239,620164.983366,-113.104840,30U,0.018552,-0.015887,0.004801,-0.074719,-0.010824,1.088978
1403772873532162,INS_SOLUTION_GOOD,51.765519,-1.258634,113.105251,5736393.651338,620164.982788,-113.105251,30U,0.018467,-0.015816,0.004892,-0.074725,-0.010812,1.089027
1403772873552077,INS_SOLUTION_GOOD,51.765519,-1.258634,113.105153,5736393.651663,620164.982435,-113.105153,30U,0.018299,-0.015522,0.004888,-0.074731,-0.010806,1.089027
1403772873580006,INS_SOLUTION_GOOD,51.765519,-1.258634,113.105054,5736393.652102,620164.982148,-113.105054,30U,0.018080,-0.015344,0.004840,-0.074738,-0.010799,1.089025
1403772873593806,INS_SOLUTION_GOOD,51.765519,-1.258634,113.104957,5736393.652427,620164.981795,-113.104957,30U,0.018006,-0.015449,0.004879,-0.074740,-0.010797,1.089020
1403772873612342,INS_SOLUTION_GOOD,51.765519,-1.258634,113.104858,5736393.652754,620164.981511,-113.104858,30U,0.017811,-0.015533,0.004978,-0.074737,-0.010794,1.089017
1403772873632181,INS_SOLUTION_GOOD,51.765519,-1.258634,113.104761,5736393.653079,620164.981158,-113.104761,30U,0.017940,-0.015076,0.004743,-0.074733,-0.010796,1.089016
1403772873652332,INS_SOLUTION_GOOD,51.765519,-1.258634,113.104668,5736393.653406,620164.980874,-113.104668,30U,0.017953,-0.015097,0.004560,-0.074730,-0.010805,1.089014
1403772873674960,INS_SOLUTION_GOOD,51.765519,-1.258634,113.104580,5736393.653845,620164.980588,-113.104580,30U,0.018016,-0.014869,0.004250,-0.074725,-0.010813,1.089012
1403772873692332,INS_SOLUTION_GOOD,51.765519,-1.258634,113.104496,5736393.654170,620164.980235,-113.104496,30U,0.017892,-0.014673,0.004180,-0.074724,-0.010821,1.089009
1403772873712213,INS_SOLUTION_GOOD,51.765519,-1.258634,113.104411,5736393.654497,620164.979951,-113.104411,30U,0.018022,-0.014587,0.004286,-0.074723,-0.010829,1.089009
1403772873732042,INS_SOLUTION_GOOD,51.765519,-1.258634,113.104326,5736393.654824,620164.979667,-113.104326,30U,0.018195,-0.014493,0.004254,-0.074722,-0.010836,1.089012
1403772873752136,INS_SOLUTION_GOOD,51.765519,-1.258634,113.104238,5736393.655262,620164.979380,-113.104238,30U,0.018171,-0.014716,0.004554,-0.074724,-0.010839,1.089014
1403772873780123,INS_SOLUTION_GOOD,51.765519,-1.258634,113.104144,5736393.655588,620164.979027,-113.104144,30U,0.018232,-0.014843,0.004918,-0.074718,-0.010838,1.089016
1403772873792639,INS_SOLUTION_GOOD,51.765519,-1.258634,113.104041,5736393.655915,620164.978743,-113.104041,30U,0.018294,-0.014980,0.005330,-0.074711,-0.010832,1.089017
1403772873812025,INS_SOLUTION_GOOD,51.765519,-1.258634,113.103934,5736393.656242,620164.978459,-113.103934,30U,0.018333,-0.015315,0.005372,-0.074703,-0.010826,1.089019
1403772873832138,INS_SOLUTION_GOOD,51.765519,-1.258634,113.103826,5736393.656678,620164.978104,-113.103826,30U,0.018366,-0.015658,0.005399,-0.074698,-0.010820,1.089021
1403772873852682,INS_SOLUTION_GOOD,51.765519,-1.258634,113.103717,5736393.657005,620164.977820,-113.103717,30U,0.018228,-0.015987,0.005479,-0.074696,-0.010813,1.089020
1403772873874592,INS_SOLUTION_GOOD,51.765519,-1.258634,113.103607,5736393.657331,620164.977467,-113.103607,30U,0.018240,-0.016059,0.005411,-0.074700,-0.010808,1.089020
1403772873892216,INS_SOLUTION_GOOD,51.765519,-1.258634,113.103500,5736393.657767,620164.977111,-113.103500,30U,0.017994,-0.016160,0.005323,-0.074702,-0.010805,1.089019
1403772873912078,INS_SOLUTION_GOOD,51.765519,-1.258634,113.103395,5736393.658094,620164.976827,-113.103395,30U,0.017979,-0.016108,0.005301,-0.074710,-0.010802,1.089015
1403772873932418,INS_SOLUTION_GOOD,51.765519,-1.258634,113.103290,5736393.658420,620164.976474,-113.103290,30U,0.018285,-0.015780,0.005138,-0.074712,-0.010801,1.089013
1403772873952177,INS_SOLUTION_GOOD,51.765519,-1.258634,113.103187,5736393.658745,620164.976121,-113.103187,30U,0.018795,-0.015671,0.005069,-0.074714,-0.010802,1.089012
1403772873979913,INS_SOLUTION_GOOD,51.765519,-1.258634,113.103085,5736393.659183,620164.975835,-113.103085,30U,0.019280,-0.015566,0.004996,-0.074712,-0.010805,1.089013
1403772873993844,INS_SOLUTION_GOOD,51.765519,-1.258634,113.102987,5736393.659509,620164.975482,-113.102987,30U,0.019653,-0.015359,0.004841,-0.074710,-0.010809,1.089015
1403772874012472,INS_SOLUTION_GOOD,51.765519,-1.258634,113.102891,5736393.659947,620164.975195,-113.102891,30U,0.019815,-0.015126,0.004681,-0.074712,-0.010811,1.089017
1403772874032079,INS_SOLUTION_GOOD,51.765519,-1.258634,113.102798,5736393.660274,620164.974911,-113.102798,30U,0.019750,-0.015204,0.004630,-0.074714,-0.010816,1.089019
1403772874052323,INS_SOLUTION_GOOD,51.765519,-1.258634,113.102707,5736393.660711,620164.974555,-113.102707,30U,0.019811,-0.015323,0.004491,-0.074721,-0.010819,1.089021
1403772874074805,INS_SOLUTION_GOOD,51.765519,-1.258634,113.102619,5736393.661149,620164.974269,-113.102619,30U,0.019680,-0.015492,0.004434,-0.074723,-0.010823,1.089023
1403772874092481,INS_SOLUTION_GOOD,51.765519,-1.258634,113.102528,5736393.661474,620164.973916,-113.102528,30U,0.019671,-0.015656,0.004578,-0.074727,-0.010828,1.089024
1403772874112316,INS_SOLUTION_GOOD,51.765519,-1.258634,113.102432,5736393.661912,620164.973629,-113.102432,30U,0.019592,-0.015899,0.004937,-0.074730,-0.010834,1.089021
1403772874131984,INS_SOLUTION_GOOD,51.765519,-1.258634,113.102329,5736393.662238,620164.973276,-113.102329,30U,0.019423,-0.016208,0.005321,-0.074726,-0.010838,1.089023
1403772874151985,INS_SOLUTION_GOOD,51.765519,-1.258634,113.102220,5736393.662674,620164.972920,-113.102220,30U,0.019240,-0.016398,0.005659,-0.074722,-0.010837,1.089025
1403772874180217,INS_SOLUTION_GOOD,51.765519,-1.258634,113.102105,5736393.663001,620164.972637,-113.102105,30U,0.019099,-0.016575,0.005759,-0.074718,-0.010833,1.089021
1403772874194476,INS_SOLUTION_GOOD,51.765519,-1.258634,113.101989,5736393.663327,620164.972284,-113.101989,30U,0.019030,-0.016754,0.005830,-0.074716,-0.010827,1.089019
1403772874212396,INS_SOLUTION_GOOD,51.765519,-1.258634,113.101871,5736393.663763,620164.971928,-113.101871,30U,0.019195,-0.016724,0.006001,-0.074716,-0.010821,1.089017
1403772874232102,INS_SOLUTION_GOOD,51.765519,-1.258634,113.101752,5736393.664089,620164.971575,-113.101752,30U,0.019390,-0.016823,0.005846,-0.074715,-0.010813,1.089017
1403772874252333,INS_SOLUTION_GOOD,51.765519,-1.258634,113.101634,5736393.664525,620164.971219,-113.101634,30U,0.019454,-0.016740,0.005881,-0.074716,-0.010806,1.089020
1403772874274862,INS_SOLUTION_GOOD,51.765519,-1.258634,113.101520,5736393.664851,620164.970866,-113.101520,30U,0.019782,-0.016643,0.005606,-0.074716,-0.010803,1.089019
1403772874292133,INS_SOLUTION_GOOD,51.765519,-1.258634,113.101409,5736393.665287,620164.970511,-113.101409,30U,0.019925,-0.016693,0.005483,-0.074717,-0.010802,1.089021
1403772874311974,INS_SOLUTION_GOOD,51.765519,-1.258634,113.101303,5736393.665726,620164.970224,-113.101303,30U,0.020048,-0.016366,0.005095,-0.074713,-0.010804,1.089025
1403772874332082,INS_SOLUTION_GOOD,51.765519,-1.258634,113.101203,5736393.666051,620164.969871,-113.101203,30U,0.020094,-0.016241,0.004903,-0.074712,-0.010810,1.089029
1403772874352100,INS_SOLUTION_GOOD,51.765519,-1.258634,113.101106,5736393.666488,620164.969515,-113.101106,30U,0.020001,-0.016253,0.004766,-0.074708,-0.010817,1.089029
1403772874382364,INS_SOLUTION_GOOD,51.765519,-1.258634,113.101011,5736393.666815,620164.969232,-113.101011,30U,0.020046,-0.015980,0.004783,-0.074706,-0.010820,1.089029
1403772874392258,INS_SOLUTION_GOOD,51.765519,-1.258634,113.100911,5736393.667251,620164.968876,-113.100911,30U,0.020019,-0.016009,0.005116,-0.074705,-0.010826,1.089028
1403772874412491,INS_SOLUTION_GOOD,51.765519,-1.258634,113.100807,5736393.667688,620164.968520,-113.100807,30U,0.020198,-0.016221,0.005361,-0.074706,-0.010830,1.089026
1403772874432355,INS_SOLUTION_GOOD,51.765519,-1.258634,113.100696,5736393.668015,620164.968236,-113.100696,30U,0.020235,-0.016597,0.005651,-0.074704,-0.010831,1.089024
1403772874452750,INS_SOLUTION_GOOD,51.765519,-1.258634,113.100581,5736393.668451,620164.967881,-113.100581,30U,0.020406,-0.016913,0.005945,-0.074704,-0.010831,1.089023
1403772874474342,INS_SOLUTION_GOOD,51.765519,-1.258634,113.100459,5736393.668888,620164.967525,-113.100459,30U,0.020656,-0.017106,0.006184,-0.074703,-0.010829,1.089025
1403772874492050,INS_SOLUTION_GOOD,51.765519,-1.258634,113.100333,5736393.669213,620164.967172,-113.100333,30U,0.020756,-0.017237,0.006395,-0.074702,-0.010825,1.089023
1403772874512243,INS_SOLUTION_GOOD,51.765519,-1.258634,113.103382,5736393.640843,620164.985938,-113.103382,30U,0.017111,-0.015070,0.005508,-0.074660,-0.010835,1.089054
1403772874532117,INS_SOLUTION_GOOD,51.765519,-1.258634,113.103031,5736393.640486,620164.984980,-113.103031,30U,0.017041,-0.015435,0.005465,-0.074657,-0.010831,1.089022
1403772874552326,INS_SOLUTION_GOOD,51.765519,-1.258634,113.102927,5736393.640813,620164.984696,-113.102927,30U,0.017185,-0.015629,0.004977,-0.074659,-0.010830,1.089026
1403772874579734,INS_SOLUTION_GOOD,51.765519,-1.258634,113.102830,5736393.641249,620164.984341,-113.102830,30U,0.017331,-0.015562,0.004662,-0.074666,-0.010830,1.089026
1403772874593912,INS_SOLUTION_GOOD,51.765519,-1.258634,113.102735,5736393.641577,620164.984057,-113.102735,30U,0.017479,-0.015637,0.004719,-0.074674,-0.010830,1.089023
1403772874612324,INS_SOLUTION_GOOD,51.765519,-1.258634,113.102641,5736393.641902,620164.983704,-113.102641,30U,0.017511,-0.015365,0.004718,-0.074680,-0.010828,1.089023
1403772874631968,INS_SOLUTION_GOOD,51.765519,-1.258634,113.102547,5736393.642229,620164.983420,-113.102547,30U,0.017783,-0.015335,0.004655,-0.074683,-0.010831,1.089023
1403772874652470,INS_SOLUTION_GOOD,51.765519,-1.258634,113.102454,5736393.642554,620164.983067,-113.102454,30U,0.017977,-0.015354,0.004611,-0.074685,-0.010830,1.089024
1403772874674062,INS_SOLUTION_GOOD,51.765519,-1.258634,113.102362,5736393.642881,620164.982783,-113.102362,30U,0.018104,-0.015334,0.004599,-0.074688,-0.010833,1.089023
1403772874692616,INS_SOLUTION_GOOD,51.765519,-1.258634,113.102268,5736393.643318,620164.982427,-113.102268,30U,0.018004,-0.015458,0.004756,-0.074686,-0.010834,1.089022
1403772874712091,INS_SOLUTION_GOOD,51.765519,-1.258634,113.102171,5736393.643645,620164.982143,-113.102171,30U,0.017859,-0.015216,0.005002,-0.074686,-0.010838,1.089026
1403772874731994,INS_SOLUTION_GOOD,51.765519,-1.258634,113.102069,5736393.643972,620164.981859,-113.102069,30U,0.017615,-0.015432,0.005194,-0.074685,-0.010840,1.089030
1403772874751942,INS_SOLUTION_GOOD,51.765519,-1.258634,113.101965,5736393.644297,620164.981506,-113.101965,30U,0.017534,-0.015456,0.005082,-0.074686,-0.010842,1.089033
1403772874779699,INS_SOLUTION_GOOD,51.765519,-1.258634,113.101862,5736393.644624,620164.981222,-113.101862,30U,0.017467,-0.015645,0.005157,-0.074687,-0.010842,1.089033
1403772874792867,INS_SOLUTION_GOOD,51.765519,-1.258634,113.101757,5736393.645061,620164.980867,-113.101757,30U,0.017426,-0.015816,0.005324,-0.074686,-0.010844,1.089034
1403772874812146,INS_SOLUTION_GOOD,51.765519,-1.258634,113.101651,5736393.645386,620164.980514,-113.101651,30U,0.017168,-0.015772,0.005221,-0.074685,-0.010843,1.089035
1403772874832001,INS_SOLUTION_GOOD,51.765519,-1.258634,113.101546,5736393.645713,620164.980230,-113.101546,30U,0.017116,-0.015709,0.005305,-0.074684,-0.010842,1.089035
1403772874852248,INS_SOLUTION_GOOD,51.765519,-1.258634,113.101442,5736393.646039,620164.979877,-113.101442,30U,0.017217,-0.015693,0.005113,-0.074683,-0.010840,1.089032
1403772874875166,INS_SOLUTION_GOOD,51.765519,-1.258634,113.101341,5736393.646366,620164.979593,-113.101341,30U,0.017295,-0.015596,0.005013,-0.074681,-0.010837,1.089031
1403772874891954,INS_SOLUTION_GOOD,51.765519,-1.258634,113.101241,5736393.646691,620164.979240,-113.101241,30U,0.017627,-0.015654,0.004965,-0.074682,-0.010835,1.089029
1403772874912320,INS_SOLUTION_GOOD,51.765519,-1.258634,113.101143,5736393.647018,620164.978956,-113.101143,30U,0.017743,-0.015633,0.004860,-0.074685,-0.010831,1.089028
1403772874932111,INS_SOLUTION_GOOD,51.765519,-1.258634,113.101046,5736393.647344,620164.978603,-113.101046,30U,0.017969,-0.015492,0.004778,-0.074685,-0.010832,1.089030
1403772874952340,INS_SOLUTION_GOOD,51.765519,-1.258634,113.100951,5736393.647782,620164.978316,-113.100951,30U,0.018167,-0.015528,0.004823,-0.074687,-0.010833,1.089029
1403772874979579,INS_SOLUTION_GOOD,51.765519,-1.258634,113.100854,5736393.648107,620164.977963,-113.100854,30U,0.018316,-0.015299,0.004873,-0.074689,-0.010833,1.089031
1403772874993506,INS_SOLUTION_GOOD,51.765519,-1.258634,113.100755,5736393.648434,620164.977679,-113.100755,30U,0.018543,-0.015182,0.004983,-0.074691,-0.010835,1.089036
1403772875012121,INS_SOLUTION_GOOD,51.765519,-1.258634,113.100653,5736393.648871,620164.977324,-113.100653,30U,0.018534,-0.015216,0.005192,-0.074693,-0.010837,1.089037
1403772875032083,INS_SOLUTION_GOOD,51.765519,-1.258634,113.100550,5736393.649198,620164.977040,-113.100550,30U,0.018488,-0.015196,0.005216,-0.074692,-0.010838,1.089038
1403772875052635,INS_SOLUTION_GOOD,51.765519,-1.258634,113.100446,5736393.649525,620164.976756,-113.100446,30U,0.018417,-0.015058,0.005266,-0.074692,-0.010842,1.089038
1403772875074243,INS_SOLUTION_GOOD,51.765519,-1.258634,113.100341,5736393.649961,620164.976400,-113.100341,30U,0.018321,-0.014916,0.005337,-0.074690,-0.010842,1.089037
1403772875092236,INS_SOLUTION_GOOD,51.765519,-1.258634,113.100234,5736393.650288,620164.976116,-113.100234,30U,0.018408,-0.014894,0.005262,-0.074691,-0.010843,1.089037
1403772875112504,INS_SOLUTION_GOOD,51.765519,-1.258634,113.100128,5736393.650616,620164.975832,-113.100128,30U,0.018173,-0.014990,0.005403,-0.074688,-0.010844,1.089035
1403772875132456,INS_SOLUTION_GOOD,51.765519,-1.258634,113.100021,5736393.650941,620164.975479,-113.100021,30U,0.018114,-0.015038,0.005250,-0.074686,-0.010844,1.089034
1403772875152156,INS_SOLUTION_GOOD,51.765519,-1.258634,113.099917,5736393.651379,620164.975192,-113.099917,30U,0.018097,-0.015054,0.005181,-0.074681,-0.010842,1.089031
1403772875179985,INS_SOLUTION_GOOD,51.765519,-1.258634,113.099813,5736393.651706,620164.974908,-113.099813,30U,0.018060,-0.015312,0.005131,-0.074674,-0.010844,1.089028
1403772875193818,INS_SOLUTION_GOOD,51.765519,-1.258634,113.099712,5736393.652032,620164.974555,-113.099712,30U,0.018094,-0.015395,0.004986,-0.074666,-0.010846,1.089028
1403772875212517,INS_SOLUTION_GOOD,51.765519,-1.258634,113.099616,5736393.652359,620164.974271,-113.099616,30U,0.018078,-0.015616,0.004631,-0.074662,-0.010846,1.089029
1403772875232129,INS_SOLUTION_GOOD,51.765519,-1.258634,113.099525,5736393.652795,620164.973916,-113.099525,30U,0.018008,-0.015528,0.004476,-0.074657,-0.010844,1.089032
1403772875252355,INS_SOLUTION_GOOD,51.765519,-1.258634,113.099435,5736393.653122,620164.973632,-113.099435,30U,0.018082,-0.015728,0.004447,-0.074655,-0.010843,1.089031
1403772875274762,INS_SOLUTION_GOOD,51.765519,-1.258634,113.099345,5736393.653448,620164.973279,-113.099345,30U,0.018132,-0.016064,0.004578,-0.074654,-0.010843,1.089034
1403772875292008,INS_SOLUTION_GOOD,51.765519,-1.258634,113.099251,5736393.653773,620164.972926,-113.099251,30U,0.018394,-0.016247,0.004666,-0.074655,-0.010840,1.089039
1403772875311930,INS_SOLUTION_GOOD,51.765519,-1.258634,113.099154,5736393.654211,620164.972639,-113.099154,30U,0.018485,-0.016435,0.004953,-0.074650,-0.010834,1.089043
1403772875331875,INS_SOLUTION_GOOD,51.765519,-1.258634,113.099049,5736393.654537,620164.972286,-113.099049,30U,0.018419,-0.016499,0.005443,-0.074641,-0.010827,1.089048
1403772875351970,INS_SOLUTION_GOOD,51.765519,-1.258634,113.098936,5736393.654862,620164.971933,-113.098936,30U,0.018315,-0.016372,0.005754,-0.074632,-0.010823,1.089051
1403772875382408,INS_SOLUTION_GOOD,51.765519,-1.258634,113.098822,5736393.655299,620164.971578,-113.098822,30U,0.018252,-0.016262,0.005610,-0.074629,-0.010818,1.089052
1403772875392284,INS_SOLUTION_GOOD,51.765519,-1.258634,113.098712,5736393.655626,620164.971294,-113.098712,30U,0.018408,-0.015981,0.005276,-0.074630,-0.010815,1.089048
1403772875412059,INS_SOLUTION_GOOD,51.765519,-1.258634,113.098610,5736393.655951,620164.970941,-113.098610,30U,0.018296,-0.015693,0.004951,-0.074641,-0.010814,1.089046
1403772875432005,INS_SOLUTION_GOOD,51.765519,-1.258634,113.098516,5736393.656389,620164.970654,-113.098516,30U,0.018304,-0.015423,0.004506,-0.074654,-0.010819,1.089042
1403772875452496,INS_SOLUTION_GOOD,51.765519,-1.258634,113.098429,5736393.656715,620164.970301,-113.098429,30U,0.018656,-0.015402,0.004107,-0.074666,-0.010828,1.089035
1403772875474833,INS_SOLUTION_GOOD,51.765519,-1.258634,113.098353,5736393.657042,620164.970017,-113.098353,30U,0.019008,-0.015308,0.003669,-0.074675,-0.010837,1.089030
1403772875492121,INS_SOLUTION_GOOD,51.765519,-1.258634,113.105015,5736393.636518,620164.991219,-113.105015,30U,0.016635,-0.012388,0.002788,-0.074661,-0.010864,1.089021
1403772875512126,INS_SOLUTION_GOOD,51.765519,-1.258634,113.104958,5736393.636847,620164.991005,-113.104958,30U,0.016973,-0.012523,0.002851,-0.074662,-0.010873,1.089022
1403772875532060,INS_SOLUTION_GOOD,51.765519,-1.258634,113.107118,5736393.640783,620164.992775,-113.107118,30U,0.017506,-0.012419,0.002871,-0.074678,-0.010881,1.088967
1403772875552270,INS_SOLUTION_GOOD,51.765519,-1.258634,113.107057,5736393.641112,620164.992560,-113.107057,30U,0.017477,-0.012664,0.003194,-0.074680,-0.010881,1.088972
1403772875579772,INS_SOLUTION_GOOD,51.765519,-1.258634,113.106989,5736393.641439,620164.992276,-113.106989,30U,0.017349,-0.012797,0.003608,-0.074684,-0.010882,1.088976
1403772875594011,INS_SOLUTION_GOOD,51.765519,-1.258634,113.106914,5736393.641766,620164.991992,-113.106914,30U,0.017153,-0.013048,0.004011,-0.074687,-0.010881,1.088977
1403772875612497,INS_SOLUTION_GOOD,51.765519,-1.258634,113.106828,5736393.642095,620164.991777,-113.106828,30U,0.017047,-0.013160,0.004449,-0.074691,-0.010877,1.088982
1403772875632266,INS_SOLUTION_GOOD,51.765519,-1.258634,113.106736,5736393.642422,620164.991493,-113.106736,30U,0.016871,-0.013464,0.004729,-0.074690,-0.010872,1.088984
1403772875652476,INS_SOLUTION_GOOD,51.765519,-1.258634,113.106642,5736393.642749,620164.991209,-113.106642,30U,0.016672,-0.013667,0.004746,-0.074687,-0.010868,1.088984
1403772875674151,INS_SOLUTION_GOOD,51.765519,-1.258634,113.106547,5736393.643076,620164.990925,-113.106547,30U,0.016675,-0.013523,0.004683,-0.074687,-0.010861,1.088981
1403772875692484,INS_SOLUTION_GOOD,51.765519,-1.258634,113.106453,5736393.643403,620164.990641,-113.106453,30U,0.016653,-0.013396,0.004688,-0.074684,-0.010858,1.088978
1403772875712275,INS_SOLUTION_GOOD,51.765519,-1.258634,113.106363,5736393.643730,620164.990357,-113.106363,30U,0.016708,-0.012805,0.004286,-0.074680,-0.010859,1.088972
1403772875732152,INS_SOLUTION_GOOD,51.765519,-1.258634,113.106282,5736393.644057,620164.990073,-113.106282,30U,0.016901,-0.012534,0.003726,-0.074680,-0.010856,1.088966
1403772875752143,INS_SOLUTION_GOOD,51.765519,-1.258634,113.106213,5736393.644497,620164.989855,-113.106213,30U,0.017322,-0.012402,0.003192,-0.074678,-0.010861,1.088959
1403772875779479,INS_SOLUTION_GOOD,51.765519,-1.258634,113.106153,5736393.644824,620164.989571,-113.106153,30U,0.017758,-0.012200,0.002783,-0.074676,-0.010868,1.088958
1403772875793019,INS_SOLUTION_GOOD,51.765519,-1.258634,113.106102,5736393.645152,620164.989356,-113.106102,30U,0.018096,-0.012199,0.002369,-0.074676,-0.010873,1.088957
1403772875812146,INS_SOLUTION_GOOD,51.765519,-1.258634,113.106056,5736393.645479,620164.989072,-113.106056,30U,0.018520,-0.012529,0.002184,-0.074674,-0.010878,1.088959
1403772875832251,INS_SOLUTION_GOOD,51.765519,-1.258634,113.106013,5736393.645918,620164.988786,-113.106013,30U,0.018793,-0.012984,0.002112,-0.074674,-0.010886,1.088961
1403772875852648,INS_SOLUTION_GOOD,51.765519,-1.258634,113.105972,5736393.646246,620164.988571,-113.105972,30U,0.018627,-0.013053,0.002084,-0.074672,-0.010887,1.088968
1403772875874750,INS_SOLUTION_GOOD,51.765519,-1.258634,113.105927,5736393.646573,620164.988287,-113.105927,30U,0.018657,-0.013308,0.002478,-0.074671,-0.010891,1.088973
1403772875892134,INS_SOLUTION_GOOD,51.765519,-1.258634,113.105873,5736393.647012,620164.988000,-113.105873,30U,0.018542,-0.013427,0.002882,-0.074671,-0.010892,1.088980
1403772875912227,INS_SOLUTION_GOOD,51.765519,-1.258634,113.105812,5736393.647339,620164.987716,-113.105812,30U,0.018309,-0.013515,0.003229,-0.074672,-0.010889,1.088986
1403772875932043,INS_SOLUTION_GOOD,51.765519,-1.258634,113.105743,5736393.647666,620164.987432,-113.105743,30U,0.017945,-0.013587,0.003668,-0.074674,-0.010888,1.088983
1403772875952106,INS_SOLUTION_GOOD,51.765519,-1.258634,113.105666,5736393.647993,620164.987148,-113.105666,30U,0.017675,-0.013715,0.003951,-0.074674,-0.010881,1.088982
1403772875979361,INS_SOLUTION_GOOD,51.765519,-1.258634,113.105585,5736393.648431,620164.986862,-113.105585,30U,0.017665,-0.013746,0.004165,-0.074675,-0.010876,1.088975
1403772875993101,INS_SOLUTION_GOOD,51.765519,-1.258634,113.105503,5736393.648758,620164.986578,-113.105503,30U,0.017745,-0.013657,0.004107,-0.074670,-0.010872,1.088966
1403772876012145,INS_SOLUTION_GOOD,51.765519,-1.258634,113.105420,5736393.649085,620164.986294,-113.105420,30U,0.017764,-0.013417,0.004020,-0.074662,-0.010867,1.088958
1403772876032347,INS_SOLUTION_GOOD,51.765519,-1.258634,113.105339,5736393.649412,620164.986010,-113.105339,30U,0.017941,-0.013346,0.003940,-0.074656,-0.010865,1.088950
1403772876052656,INS_SOLUTION_GOOD,51.765519,-1.258634,113.105267,5736393.649741,620164.985795,-113.105267,30U,0.018382,-0.013258,0.003285,-0.074651,-0.010864,1.088945
1403772876074863,INS_SOLUTION_GOOD,51.765519,-1.258634,113.105210,5736393.650179,620164.985508,-113.105210,30U,0.018893,-0.013179,0.002517,-0.074648,-0.010866,1.088943
