source_timestamp,destination_timestamp,x,y,z,roll,pitch,yaw
1403772869592912,1403772869530411,2.156263e-06,8.928825e-07,1.071451e-07,-5.001264e-06,6.823269e-07,-1.848434e-06
1403772869717912,1403772869655412,1.021546e-05,6.092869e-05,-1.260590e-05,-6.739634e-06,-1.988272e-06,-5.538623e-06
1403772869780415,1403772869717912,-8.830852e-05,1.049229e-04,3.929894e-06,1.053908e-06,-3.491619e-06,-4.387640e-06
1403772869842914,1403772869780415,-1.026993e-03,-1.490128e-03,3.641370e-03,2.723291e-04,3.096769e-04,1.347438e-04
1403772869905416,1403772869842914,8.700620e-05,-5.630172e-05,2.621925e-05,-6.222038e-06,5.185190e-06,2.353096e-06
1403772869967916,1403772869905416,-5.271599e-05,1.277642e-05,3.845946e-05,1.092336e-05,8.572848e-06,1.192488e-06
1403772870030418,1403772869967916,-1.127443e-03,9.610447e-04,6.827198e-04,-3.076462e-05,9.998022e-05,-6.633591e-05
1403772870092919,1403772870030418,3.474307e-05,-1.728413e-05,3.254555e-06,3.955555e-06,-3.611579e-06,3.791482e-06
1403772870155420,1403772870092919,-5.063728e-05,1.539649e-06,-2.257180e-05,3.153146e-06,-3.993924e-06,-1.717502e-06
1403772870217921,1403772870155420,-7.574581e-04,-5.240003e-04,-5.477268e-04,-1.171333e-04,-6.002929e-06,7.816967e-05
1403772870280421,1403772870217921,2.479389e-05,2.763861e-06,1.356932e-05,-5.031118e-06,2.527052e-06,-2.548264e-06
1403772870342923,1403772870280421,-2.444279e-05,-1.536954e-05,-9.831421e-06,-6.846596e-06,4.452819e-08,1.578865e-06
1403772870405425,1403772870342923,-1.204805e-04,-2.397351e-04,3.756721e-05,-1.757355e-05,1.746565e-05,4.314247e-05
1403772870467924,1403772870405425,1.177189e-05,2.027725e-06,-3.503093e-06,5.130115e-06,-1.511451e-07,3.671555e-06
1403772870530427,1403772870467924,3.791817e-05,7.867690e-06,1.358598e-05,-7.828146e-06,-4.145123e-06,-2.315133e-06
1403772870592928,1403772870530427,1.467630e-04,-1.335691e-04,-9.650569e-05,-2.998569e-06,-4.194073e-06,4.460438e-06
1403772870655427,1403772870592928,-1.845347e-05,-7.683233e-06,1.134896e-06,-1.770155e-05,1.132300e-06,-2.136336e-06
1403772870717929,1403772870655427,3.881866e-05,-2.088877e-06,1.230597e-05,-4.621846e-06,-2.306841e-06,-1.395197e-06
1403772870780429,1403772870717929,-3.209534e-05,4.645077e-06,-5.616983e-06,9.241717e-06,-4.823873e-06,3.261600e-06
1403772870842931,1403772870780429,2.822531e-05,-3.436168e-06,3.395615e-06,1.890065e-05,7.458300e-07,3.175389e-06
1403772870905434,1403772870842931,1.143823e-05,6.623783e-06,6.428691e-06,1.212597e-05,9.562209e-07,1.508566e-06
1403772870967937,1403772870905434,-3.909659e-05,3.701990e-05,-9.322924e-06,7.738574e-06,-2.340569e-07,-2.611771e-06
1403772871030437,1403772870967937,-4.973259e-07,-1.213973e-05,-6.298033e-06,-8.185030e-06,-4.844983e-07,1.664718e-06
1403772871092939,1403772871030437,3.006165e-05,-1.422878e-05,6.619067e-06,-1.263812e-05,-6.036788e-06,3.970943e-07
1403772871155437,1403772871092939,2.187455e-05,1.347811e-05,2.180289e-06,-1.166999e-05,-3.374812e-06,-4.313530e-07
1403772871217953,1403772871155437,-1.335522e-05,-3.074055e-06,-3.924596e-06,-1.620023e-06,1.105718e-06,2.075553e-06
1403772871280440,1403772871217953,-1.991248e-05,-9.742895e-06,-3.562086e-06,-3.917675e-06,1.926943e-06,1.838893e-06
1403772871342942,1403772871280440,-5.128721e-06,2.928071e-05,5.970743e-06,1.834970e-05,7.328066e-06,1.629517e-06
1403772871405446,1403772871342942,-5.209620e-05,-2.292902e-05,-2.377568e-05,1.441961e-06,-3.769491e-07,3.860664e-06
1403772871467946,1403772871405446,4.249490e-05,5.782321e-06,3.757418e-06,-1.339144e-06,-5.401992e-07,2.951211e-07
1403772871530445,1403772871467946,-1.842966e-05,1.145709e-06,-1.095838e-05,-5.603152e-06,-3.545910e-07,-3.630931e-06
1403772871592946,1403772871530445,1.212539e-05,7.945931e-06,1.190359e-05,5.700782e-07,8.312605e-07,-3.462005e-06
1403772871655450,1403772871592946,-1.862392e-05,-5.169104e-07,-6.593873e-06,-3.549021e-06,6.504397e-06,4.182434e-06
1403772871717952,1403772871655450,2.904713e-05,-3.646018e-06,6.532849e-06,1.361272e-05,1.348192e-07,1.874179e-06
1403772871780453,1403772871717952,5.229968e-06,8.001465e-06,-9.073117e-07,7.968454e-06,-6.076438e-08,7.532506e-07
1403772871842952,1403772871780453,4.090721e-07,-3.748132e-06,-1.087182e-07,1.089267e-06,7.416833e-07,-9.328764e-07
1403772871905454,1403772871842952,5.655580e-05,2.118446e-06,1.943453e-05,1.414245e-05,1.583030e-06,3.084595e-06
1403772871967955,1403772871905454,2.096643e-05,-2.560338e-07,1.433564e-05,-6.251982e-06,-5.130397e-08,-4.653716e-06
1403772872030456,1403772871967955,1.941793e-05,-2.310513e-05,1.729687e-05,-1.814314e-05,1.286272e-06,3.474081e-06
1403772872092959,1403772872030456,1.502176e-05,-3.042090e-07,2.109266e-06,-4.236187e-06,-2.271123e-06,-9.053245e-07
1403772872155461,1403772872092959,-3.873195e-06,-4.647345e-06,-7.407389e-09,1.413631e-07,4.257802e-07,-2.231651e-07
1403772872217960,1403772872155461,-3.680930e-05,3.173343e-05,-8.741361e-06,1.050237e-06,-1.734623e-06,3.078017e-07
1403772872280461,1403772872217960,1.646550e-05,-1.094487e-05,9.714177e-06,2.557989e-06,-9.754188e-07,1.180212e-08
1403772872342963,1403772872280461,2.304022e-05,-4.340287e-06,2.193312e-06,8.357658e-06,-1.152564e-06,-3.691917e-07
1403772872405464,1403772872342963,-1.421085e-14,2.042810e-14,-7.660538e-15,1.214306e-17,-2.844947e-16,-1.932049e-16
1403772872467965,1403772872405464,-8.035990e-06,2.379341e-06,-1.599000e-06,-3.764100e-06,-1.376139e-07,-4.690114e-06
1403772872530466,1403772872467965,-4.464170e-05,1.157481e-05,-7.447081e-06,-1.630389e-06,-1.858860e-06,-3.414353e-06
1403772872592968,1403772872530466,1.339183e-05,8.715117e-06,-1.241689e-06,-5.840686e-06,-1.508650e-06,3.197678e-06
1403772872655468,1403772872592968,5.483372e-06,8.101445e-06,-1.913822e-06,2.082351e-06,-3.063987e-06,-2.945046e-06
1403772872717970,1403772872655468,9.957586e-06,8.619151e-06,-3.584375e-06,5.870538e-06,-2.439970e-08,-2.097996e-06
1403772872780472,1403772872717970,3.530137e-05,3.028201e-06,2.567338e-05,3.581472e-06,1.348338e-06,1.143614e-06
1403772872842973,1403772872780472,-2.885028e-05,-2.618270e-05,-1.382319e-05,-1.755676e-06,8.965187e-07,2.302237e-06
1403772872905476,1403772872842973,2.824582e-06,-1.928692e-05,-1.992778e-07,-3.153832e-06,-1.048997e-06,-6.807693e-08
1403772872967976,1403772872905476,-1.143229e-05,1.116649e-06,-3.910570e-06,-4.784610e-06,-4.834670e-07,-1.013182e-06
1403772873030479,1403772872967976,4.863163e-05,-1.714948e-06,1.362436e-05,3.709158e-06,3.113558e-06,1.059809e-06
1403772873092979,1403772873030479,2.040447e-05,1.434782e-05,-3.681638e-06,2.512991e-06,-2.561329e-06,-5.776138e-07
1403772873155481,1403772873092979,4.600250e-06,-1.454547e-05,6.890250e-07,-6.249635e-06,-9.199697e-08,4.080091e-06
1403772873217980,1403772873155481,3.037855e-06,1.229721e-06,-4.434388e-06,2.256454e-06,-2.411558e-06,-1.224305e-06
1403772873280482,1403772873217980,-2.998557e-06,-2.788916e-06,-1.571390e-06,-4.581688e-06,7.874928e-07,-1.261489e-06
1403772873342983,1403772873280482,2.884775e-05,9.515319e-06,-5.346962e-06,-1.259077e-06,-4.800196e-06,-4.090581e-06
1403772873405484,1403772873342983,-2.096976e-06,-1.936518e-06,3.277347e-06,-8.036037e-06,2.217399e-06,2.923137e-06
1403772873467985,1403772873405484,-3.765983e-05,-2.309784e-05,1.783166e-05,-1.963941e-05,1.381639e-05,7.900606e-07
1403772873530486,1403772873467985,1.558468e-05,5.913156e-06,4.697231e-06,-5.063282e-06,1.832723e-06,-5.711811e-06
1403772873592990,1403772873530486,-7.191796e-06,2.707764e-05,-1.943651e-05,9.827646e-06,-1.247139e-05,-5.631929e-06
1403772873655491,1403772873592990,-3.552751e-06,6.916749e-06,-1.331774e-05,-4.187452e-06,-8.288738e-06,7.324353e-07
1403772873717990,1403772873655491,-2.364409e-05,-2.266830e-05,4.203355e-06,6.495942e-06,5.713695e-06,9.951483e-06
1403772873780492,1403772873717990,-3.034066e-05,1.597191e-05,2.645177e-06,3.612523e-06,9.555601e-06,9.754811e-07
1403772873842993,1403772873780492,2.742185e-05,1.721358e-05,-2.891280e-06,-6.819179e-07,6.615361e-07,-2.403571e-06
1403772873905494,1403772873842993,-2.449689e-05,-1.543398e-05,5.229057e-06,2.166630e-06,-3.869235e-07,6.488195e-07
1403772873967995,1403772873905494,5.499735e-05,1.763768e-06,6.267954e-06,-1.061534e-05,-6.924731e-06,-4.023207e-08
1403772874030497,1403772873967995,-5.676461e-06,-2.262805e-06,-7.871127e-07,-1.147598e-06,-3.112336e-06,-7.883895e-07
1403772874092998,1403772874030497,-4.086716e-05,4.775510e-06,-1.899131e-05,5.570163e-06,3.695185e-07,-4.119261e-06
1403772874155499,1403772874092998,3.791356e-06,6.778421e-06,4.133531e-06,-8.731178e-06,3.872654e-06,-3.550363e-06
1403772874218002,1403772874155499,-5.338436e-06,-7.923983e-06,1.214183e-06,1.627575e-06,6.473301e-07,3.189728e-06
1403772874280502,1403772874218002,-1.282286e-05,8.013578e-06,-1.005825e-05,5.912807e-06,-5.323283e-06,-8.252335e-07
1403772874343005,1403772874280502,3.453722e-06,1.145117e-06,-2.370357e-05,4.539028e-06,-9.405102e-06,-6.090427e-07
1403772874405505,1403772874343005,-4.440892e-15,5.329070e-15,4.884981e-15,1.942890e-16,2.862294e-16,-3.269963e-16
1403772874530508,1403772874405505,-3.476214e-06,1.150789e-06,2.235819e-06,-3.689110e-06,5.613213e-06,1.789432e-06
1403772874593007,1403772874530508,-3.183348e-05,-1.869394e-06,-1.317315e-05,2.503484e-07,-4.973343e-07,7.889158e-07
1403772874655510,1403772874593007,2.126660e-05,1.691548e-07,-1.984004e-06,-2.107042e-06,-5.238282e-06,1.341571e-06
1403772874718010,1403772874655510,-2.483994e-05,2.750626e-06,-2.621707e-06,-2.637709e-07,-2.559818e-06,-1.257797e-06
1403772874843011,1403772874718010,-2.633979e-05,1.005897e-05,-1.290820e-06,-2.210459e-07,9.142756e-06,-2.204700e-06
1403772874905512,1403772874843011,-2.251001e-05,-5.740169e-06,3.548464e-06,3.451770e-07,-3.083569e-07,8.015884e-07
1403772874968013,1403772874905512,-5.492200e-07,9.377389e-07,-1.891815e-06,-2.399853e-06,-2.882747e-06,-1.444797e-06
1403772875030516,1403772874968013,-2.454066e-05,-1.108648e-06,-1.101067e-05,-1.654773e-06,-3.215157e-06,5.935600e-07
1403772875155518,1403772875030516,-4.431693e-06,-7.702339e-06,1.085155e-06,8.665632e-06,2.029342e-07,1.298471e-06
1403772875218018,1403772875155518,-2.995393e-05,-9.688803e-06,-7.240625e-06,-1.417271e-06,3.900671e-06,6.996748e-06
1403772875280518,1403772875218018,-6.864762e-06,3.129282e-05,6.880363e-06,3.650221e-06,5.301702e-06,-2.931334e-06
1403772875405520,1403772875280518,1.574041e-05,9.798007e-06,-3.024243e-06,-2.306614e-05,-1.566363e-05,-1.211518e-05
1403772875468024,1403772875405520,5.704873e-06,1.809358e-06,-6.691535e-06,4.531664e-06,-6.771449e-06,1.762957e-06
1403772875530524,1403772875468024,-5.811677e-06,2.964625e-06,9.053446e-07,4.979552e-06,3.666001e-06,2.605049e-06
1403772875655523,1403772875530524,1.583431e-05,2.264336e-05,1.558838e-06,3.147064e-06,2.342301e-06,-4.567989e-06
1403772875718026,1403772875655523,4.331741e-05,9.744385e-06,7.384701e-06,3.338218e-06,-4.879327e-06,-3.596173e-06
1403772875780527,1403772875718026,-1.034141e-05,-9.707662e-06,-1.984065e-05,2.339517e-06,-8.876047e-06,7.472958e-06
1403772875905529,1403772875780527,1.000349e-05,-5.017546e-06,1.433631e-05,-1.677430e-07,6.797224e-06,3.896169e-07
1403772875968029,1403772875905529,2.085010e-07,1.428551e-06,-9.892303e-07,9.935279e-06,1.851333e-06,-3.092300e-06
1403772876030532,1403772875968029,2.239282e-05,1.512069e-05,-5.254036e-06,6.215970e-06,-2.077973e-06,-3.164687e-06
1403772876155532,1403772876030532,5.539196e-05,-9.517005e-07,1.256158e-05,-1.473394e-06,-1.112249e-05,1.486246e-06
1403772876218034,1403772876155532,-1.206867e-05,4.169058e-06,-8.635239e-06,1.165764e-06,-1.377728e-06,-3.979154e-06
1403772876280534,1403772876218034,-3.287124e-06,-2.649780e-06,4.485669e-06,-2.407990e-06,5.769105e-06,1.140842e-06
1403772876405537,1403772876280534,1.439019e-05,2.045663e-05,-4.558929e-06,4.610014e-06,-3.439548e-06,-2.085522e-06
1403772876468038,1403772876405537,7.378272e-07,1.472512e-05,-1.410322e-05,1.495791e-05,-6.794113e-06,-2.791003e-06
1403772876530540,1403772876468038,1.993774e-07,-1.278062e-05,-2.053182e-06,-7.201747e-06,-2.722756e-06,-1.448662e-06
1403772876593040,1403772876530540,5.312599e-05,-1.821836e-06,2.879589e-05,-9.594790e-06,5.394709e-06,4.333630e-06
1403772876718040,1403772876593040,-1.719856e-05,-1.727270e-06,-8.983305e-06,-9.865315e-06,-7.100067e-07,2.744472e-06
1403772876780543,1403772876718040,-5.022181e-06,7.714968e-06,2.688797e-06,-2.279642e-06,-1.137019e-06,3.645594e-07
1403772876843046,1403772876780543,-4.066073e-05,-6.878122e-07,-2.018764e-05,1.586399e-06,-3.751235e-06,2.371285e-06
1403772876968046,1403772876843046,-1.841738e-05,-2.348685e-06,-2.199560e-06,6.660156e-06,6.247605e-06,1.100878e-06
1403772877030548,1403772876968046,-1.832623e-05,-1.131184e-05,4.438682e-06,-1.407914e-05,8.874575e-07,4.649358e-07
1403772877093049,1403772877030548,9.699778e-08,-3.227672e-06,-1.338936e-06,-1.534789e-05,-1.266042e-06,-1.755906e-06
1403772877218049,1403772877093049,1.099162e-05,7.004342e-07,-5.330532e-07,-1.365056e-05,-7.705809e-06,-1.297649e-06
1403772877280550,1403772877218049,2.696711e-05,9.412270e-06,9.371666e-05,4.903625e-06,7.795221e-05,2.433241e-06
1403772877405552,1403772877280550,1.485829e-03,4.320259e-04,-1.505314e-04,-2.404400e-05,4.108589e-04,-9.768027e-05
1403772877468053,1403772877405552,2.315792e-03,1.579622e-04,-1.252212e-04,2.761585e-05,3.529070e-04,-8.179396e-05
1403772877530556,1403772877468053,3.440902e-03,7.169466e-05,-3.849742e-04,-5.763637e-05,2.099539e-04,-2.373960e-05
1403772877593057,1403772877530556,5.815476e-03,-1.847656e-04,-6.065981e-04,-5.311474e-05,6.272097e-05,3.199391e-05
1403772877718059,1403772877593057,1.057943e-03,-2.135866e-04,3.131858e-04,9.803220e-05,7.035783e-05,2.075956e-04
1403772877780558,1403772877718059,9.185216e-03,-1.732850e-04,-7.269208e-04,4.488266e-05,-4.576288e-05,1.147345e-04
1403772877905559,1403772877780558,2.238462e-02,3.229145e-04,-1.429498e-03,4.990498e-05,-1.549296e-04,3.647382e-04
1403772877968060,1403772877905559,1.254673e-02,1.228240e-04,-9.574137e-04,-6.586257e-05,-8.876055e-05,2.932196e-04
1403772878030564,1403772877968060,1.446546e-02,5.239436e-05,-5.648208e-04,-4.165504e-05,2.111009e-04,3.791596e-04
1403772878155563,1403772878030564,3.668440e-02,1.439937e-03,-2.703400e-03,4.030674e-04,9.194369e-04,9.733775e-04
1403772878218064,1403772878155563,2.312633e-02,1.102064e-03,-1.669378e-03,3.418964e-04,4.725195e-04,6.425256e-04
1403772878280566,1403772878218064,2.665259e-02,1.326853e-03,-1.947243e-03,3.289554e-04,3.680877e-04,8.516738e-04
1403772878405581,1403772878280566,6.368715e-02,4.331733e-03,-4.160011e-03,8.030282e-04,4.162192e-04,2.255643e-03
1403772878468070,1403772878405581,3.785384e-02,1.572148e-03,-2.176245e-03,1.686258e-04,2.727140e-04,1.427183e-03
1403772878530570,1403772878468070,4.038844e-02,2.160161e-03,-2.256108e-03,2.691613e-04,4.903084e-04,1.567431e-03
1403772878655571,1403772878530570,9.072035e-02,6.532572e-03,-5.575986e-03,1.472923e-03,1.603413e-03,3.783487e-03
1403772878718073,1403772878655571,4.995028e-02,4.482521e-03,-3.115580e-03,8.748793e-04,5.025519e-04,2.053809e-03
1403772878780576,1403772878718073,5.245916e-02,4.941902e-03,-3.460020e-03,6.144093e-04,1.476571e-04,1.996245e-03
1403772878905576,1403772878780576,1.125732e-01,1.152742e-02,-8.546173e-03,2.770614e-03,5.148245e-04,4.950505e-03
1403772878968079,1403772878905576,6.114089e-02,4.123443e-03,-4.142539e-03,-3.449178e-05,6.523406e-04,3.100688e-03
1403772879030577,1403772878968079,6.307812e-02,3.697979e-03,-3.882048e-03,-4.728907e-04,6.321982e-04,2.960208e-03
1403772879155576,1403772879030577,1.353595e-01,7.081810e-03,-7.301133e-03,-1.702641e-04,-2.132263e-04,4.946616e-03
1403772879218081,1403772879155576,7.154874e-02,4.216973e-03,-4.146266e-03,4.988185e-04,-3.659792e-04,2.791066e-03
1403772879280578,1403772879218081,7.520040e-02,5.451209e-03,-4.453044e-03,5.855511e-04,-2.346005e-04,3.291753e-03
1403772879405578,1403772879280578,1.606873e-01,1.444768e-02,-8.113766e-03,1.940322e-03,4.208487e-05,7.468898e-03
1403772879468080,1403772879405578,8.426852e-02,6.769337e-03,-4.724511e-03,1.013328e-03,5.358624e-04,3.753909e-03
1403772879530579,1403772879468080,8.753814e-02,7.606779e-03,-4.545945e-03,1.561797e-03,5.974717e-04,3.523542e-03
1403772879593080,1403772879530579,9.114466e-02,5.986908e-03,-4.367207e-03,4.504428e-04,1.163725e-04,3.982961e-03
1403772879718081,1403772879593080,1.962026e-01,1.305547e-02,-8.289723e-03,6.209134e-04,-1.317305e-03,8.469831e-03
1403772879780581,1403772879718081,1.034088e-01,7.883710e-03,-4.612877e-03,1.523903e-03,-5.855156e-04,4.005148e-03
1403772879843081,1403772879780581,1.044341e-01,8.430230e-03,-5.900300e-03,1.035847e-03,2.439736e-04,4.383722e-03
1403772879968082,1403772879843081,2.193085e-01,1.546700e-02,-1.263658e-02,1.635658e-03,1.820185e-03,9.014995e-03
1403772880030583,1403772879968082,1.158031e-01,6.378304e-03,-6.284659e-03,7.134673e-04,-2.709372e-04,4.135755e-03
1403772880155582,1403772880030583,2.418208e-01,1.008670e-02,-1.338668e-02,-2.822491e-04,-1.904844e-03,7.327176e-03
1403772880218084,1403772880155582,1.270830e-01,6.823134e-03,-6.830057e-03,1.405288e-03,-5.411526e-04,3.345889e-03
1403772880343085,1403772880218084,2.634215e-01,1.481773e-02,-1.167994e-02,3.276179e-03,-7.113467e-04,7.675613e-03
1403772880405584,1403772880343085,1.352882e-01,7.750972e-03,-6.370982e-03,2.165846e-03,2.806826e-04,3.242249e-03
1403772880468086,1403772880405584,1.377261e-01,7.430532e-03,-7.433991e-03,2.571271e-03,7.856382e-04,2.595599e-03
1403772880530586,1403772880468086,1.399912e-01,6.812851e-03,-8.996092e-03,2.727669e-03,6.517293e-04,2.152682e-03
1403772880593086,1403772880530586,1.434814e-01,6.291454e-03,-9.615837e-03,1.828244e-03,6.606351e-04,2.320651e-03
1403772880655587,1403772880593086,1.453451e-01,2.802095e-03,-1.048881e-02,-8.744645e-04,8.170223e-04,2.931392e-03
1403772880718089,1403772880655587,1.483285e-01,-4.769462e-05,-1.014103e-02,-2.112178e-03,2.365399e-04,2.920941e-03
1403772880780589,1403772880718089,1.521387e-01,-2.083805e-03,-9.629989e-03,-2.036313e-03,-3.375708e-04,2.417143e-03
1403772880843090,1403772880780589,1.551127e-01,-3.334235e-03,-8.282369e-03,-3.116333e-03,-7.796538e-04,1.718474e-03
1403772880905593,1403772880843090,1.584342e-01,-2.443780e-03,-8.136362e-03,-2.022086e-03,-5.983133e-04,1.409250e-03
1403772880968093,1403772880905593,1.591568e-01,4.236836e-04,-9.569294e-03,-6.444085e-04,5.895253e-04,1.509398e-03
1403772881030595,1403772880968093,1.605668e-01,4.002292e-03,-1.037815e-02,2.462270e-03,1.764018e-03,1.352342e-03
1403772881093096,1403772881030595,1.658604e-01,6.954411e-03,-9.368184e-03,4.665871e-03,1.613888e-03,9.122275e-04
1403772881155598,1403772881093096,1.692271e-01,7.325285e-03,-8.106175e-03,4.078570e-03,7.140780e-04,6.104064e-04
1403772881218099,1403772881155598,1.730977e-01,5.517629e-03,-7.687211e-03,2.742703e-03,2.428606e-04,6.771796e-04
1403772881280600,1403772881218099,1.761867e-01,2.149015e-03,-7.715245e-03,1.158775e-03,-5.308106e-04,1.158477e-03
1403772881343101,1403772881280600,1.798107e-01,-6.400855e-04,-6.900272e-03,1.951438e-04,-7.683330e-04,1.426750e-03
1403772881405602,1403772881343101,1.827508e-01,-2.934120e-03,-6.861662e-03,-6.412598e-04,3.054997e-04,1.423198e-03
1403772881468103,1403772881405602,1.824578e-01,-2.687232e-03,-8.439020e-03,-6.893039e-04,8.104127e-04,9.040174e-04
1403772881530605,1403772881468103,1.867827e-01,-5.536988e-04,-9.951614e-03,8.742144e-04,1.953995e-04,2.798998e-04
1403772881593106,1403772881530605,1.911918e-01,1.333488e-03,-1.046127e-02,1.979008e-03,-8.263418e-04,1.024650e-04
1403772881655607,1403772881593106,1.933437e-01,2.526376e-03,-1.208000e-02,1.601538e-03,-1.356914e-03,3.816590e-04
1403772881718110,1403772881655607,1.962446e-01,7.306261e-06,-1.223917e-02,-2.023232e-04,-1.639009e-03,9.998932e-04
1403772881780612,1403772881718110,1.994295e-01,-2.848509e-03,-1.166520e-02,-1.153808e-03,-1.553641e-03,1.227500e-03
1403772881843111,1403772881780612,2.028526e-01,-5.297089e-03,-9.696545e-03,-1.957170e-03,-1.385361e-03,8.822616e-04
1403772881905614,1403772881843111,2.059442e-01,-6.543140e-03,-9.146754e-03,-2.571952e-03,-1.796775e-03,8.660395e-05
1403772881968114,1403772881905614,2.095962e-01,-4.727770e-03,-9.390184e-03,-1.642306e-03,-1.645676e-03,-1.620788e-04
1403772882030615,1403772881968114,2.100116e-01,-2.963913e-03,-1.065455e-02,-1.059920e-03,-1.094068e-03,5.299900e-05
1403772882093116,1403772882030615,2.136743e-01,-1.978163e-03,-1.018844e-02,-4.646949e-04,-7.080328e-04,5.034536e-04
1403772882155617,1403772882093116,2.160106e-01,7.292028e-04,-1.152209e-02,1.772415e-03,5.397693e-04,6.162488e-04
1403772882218118,1403772882155617,2.175669e-01,2.865324e-03,-1.288211e-02,3.506915e-03,1.701064e-03,2.159208e-04
1403772882280620,1403772882218118,2.198422e-01,4.485402e-03,-1.468227e-02,4.010820e-03,1.093427e-03,-2.836750e-04
1403772882343121,1403772882280620,2.265646e-01,4.381194e-03,-1.314556e-02,3.395147e-03,-6.905627e-04,-2.394817e-04
1403772882405623,1403772882343121,2.298062e-01,2.286931e-03,-1.300091e-02,2.829749e-03,-1.781233e-03,1.695610e-04
1403772882468124,1403772882405623,2.341139e-01,1.245226e-03,-1.330738e-02,2.296193e-03,-2.064139e-03,4.264962e-04
1403772882530624,1403772882468124,2.358750e-01,-2.311956e-03,-1.298717e-02,-3.602979e-04,-1.499388e-03,5.307460e-04
1403772882593129,1403772882530624,2.378309e-01,-3.725314e-03,-1.282551e-02,-1.078012e-03,-4.819390e-04,2.063408e-04
1403772882655629,1403772882593129,2.414647e-01,-5.998170e-03,-1.194327e-02,-1.705142e-03,4.034225e-04,9.843541e-05
1403772882718129,1403772882655629,2.433634e-01,-5.464085e-03,-1.175314e-02,-1.632371e-03,9.112256e-04,8.307419e-05
1403772882780632,1403772882718129,2.452850e-01,-5.024578e-03,-1.206636e-02,-1.690287e-03,8.688689e-04,2.899092e-04
1403772882843131,1403772882780632,2.504291e-01,-3.612955e-03,-1.146992e-02,-1.016524e-04,4.328183e-04,3.083526e-04
1403772882905633,1403772882843131,2.523538e-01,5.895611e-04,-1.457456e-02,3.109855e-03,-4.145249e-04,-9.276732e-05
1403772882968136,1403772882905633,2.561334e-01,2.309955e-03,-1.598014e-02,3.631956e-03,-5.314972e-04,-5.758137e-04
1403772883030637,1403772882968136,2.574035e-01,1.624901e-03,-1.750708e-02,2.469683e-03,4.252127e-04,-5.899477e-04
1403772883093136,1403772883030637,2.582543e-01,6.237174e-04,-1.777599e-02,1.977447e-03,1.214423e-03,-3.238350e-04
1403772883155639,1403772883093136,2.622502e-01,-1.019728e-03,-1.671419e-02,1.795250e-03,1.248082e-03,-8.494524e-05
1403772883218141,1403772883155639,2.659161e-01,-2.129665e-03,-1.498146e-02,3.243147e-04,1.130183e-03,-5.057279e-06
1403772883280642,1403772883218141,2.682633e-01,-2.987416e-03,-1.328562e-02,9.282458e-05,8.179562e-04,-5.830567e-05
1403772883343144,1403772883280642,2.738823e-01,-3.633168e-03,-1.200023e-02,-1.861842e-04,3.700905e-04,-6.189905e-05
1403772883405646,1403772883343144,2.722920e-01,-4.193514e-03,-1.313602e-02,-1.000439e-03,1.511484e-04,-1.324156e-04
1403772883468146,1403772883405646,2.769780e-01,-4.621833e-03,-1.347175e-02,-1.812809e-04,9.088826e-04,-1.665110e-04
1403772883530647,1403772883468146,2.793802e-01,-2.231136e-03,-1.415470e-02,8.558130e-04,6.787140e-04,-4.938084e-04
1403772883593147,1403772883530647,2.772520e-01,-2.004674e-03,-1.490455e-02,1.513097e-04,-5.281826e-04,-2.818512e-04
1403772883655650,1403772883593147,2.836880e-01,-9.821752e-04,-1.568563e-02,3.382126e-04,-1.086287e-03,3.877138e-05
1403772883718150,1403772883655650,2.841185e-01,-1.334594e-04,-1.766871e-02,2.053781e-03,-8.469108e-04,2.149393e-04
1403772883780651,1403772883718150,2.888793e-01,-6.428803e-04,-1.763450e-02,1.740071e-03,-8.854196e-04,2.936051e-04
1403772883843151,1403772883780651,2.902696e-01,-1.461622e-03,-1.582807e-02,1.404883e-03,-1.039153e-03,8.469657e-05
1403772883905653,1403772883843151,2.897833e-01,1.145453e-04,-1.573223e-02,1.541092e-03,-9.026853e-04,-1.280200e-04
1403772883968154,1403772883905653,2.908432e-01,-3.513860e-04,-1.477915e-02,7.867052e-04,-7.412676e-05,2.486588e-05
1403772884030654,1403772883968154,2.917418e-01,-1.390911e-03,-1.469193e-02,3.601869e-04,-2.509803e-04,5.733628e-04
1403772884093155,1403772884030654,2.956130e-01,-4.102466e-04,-1.404701e-02,1.311462e-03,-8.726275e-04,7.153409e-04
1403772884218156,1403772884093155,5.943177e-01,-2.844323e-03,-2.983878e-02,6.842706e-04,-2.789905e-03,1.049352e-03
1403772884280656,1403772884218156,2.999786e-01,-2.718538e-03,-1.814948e-02,-2.220623e-04,-1.184050e-03,1.102604e-04
1403772884405656,1403772884280656,5.992356e-01,-6.321347e-03,-3.677243e-02,-9.833543e-04,-6.638719e-05,1.151837e-04
1403772884468158,1403772884405656,3.038710e-01,-3.492881e-03,-1.744987e-02,-1.413047e-04,4.390940e-04,2.240412e-04
1403772884530657,1403772884468158,3.055302e-01,-5.785203e-04,-1.621886e-02,1.065602e-03,2.157336e-04,4.476267e-05
1403772884655658,1403772884530657,6.189627e-01,-9.818268e-04,-3.080604e-02,5.344362e-03,-6.954454e-04,-1.696496e-03
1403772884718161,1403772884655658,3.082817e-01,-1.240017e-03,-1.618513e-02,1.899772e-03,2.968525e-04,-1.420541e-03
1403772884780659,1403772884718161,3.088880e-01,-3.136385e-03,-1.629243e-02,-1.197974e-04,8.366491e-04,-1.094284e-03
1403772884905659,1403772884780659,6.234740e-01,-5.877710e-03,-3.502775e-02,1.566317e-03,-1.345301e-04,-3.222769e-04
1403772884968164,1403772884905659,3.143829e-01,-5.819808e-03,-1.679524e-02,-5.417549e-04,-1.334321e-03,-6.169609e-06
1403772885030662,1403772884968164,3.191492e-01,-6.099041e-03,-1.647270e-02,-1.318501e-03,-1.986774e-03,-4.694899e-04
1403772885093161,1403772885030662,3.185824e-01,-8.019999e-03,-1.580515e-02,-2.760043e-03,-2.871633e-03,-8.928689e-04
1403772885218174,1403772885093161,6.371435e-01,-8.904942e-03,-3.246022e-02,1.178862e-03,-1.366411e-03,-1.771076e-03
1403772885280662,1403772885218174,3.170831e-01,-2.199178e-03,-1.817656e-02,4.174986e-04,7.505164e-04,-4.697266e-04
1403772885343162,1403772885280662,3.199146e-01,-1.203804e-03,-1.841989e-02,2.373331e-03,-5.903735e-04,-7.268840e-04
1403772885405664,1403772885343162,3.155261e-01,1.366454e-03,-2.160251e-02,4.267386e-03,-3.523381e-04,-1.282182e-03
1403772885468166,1403772885405664,3.168208e-01,-3.739481e-04,-2.064782e-02,1.701061e-03,7.703613e-04,-1.472049e-03
1403772885530667,1403772885468166,3.142978e-01,-4.283360e-03,-2.126337e-02,-1.620660e-03,1.359757e-03,-1.023908e-03
1403772885593170,1403772885530667,3.133061e-01,-6.759992e-03,-1.941648e-02,-2.682125e-03,2.605333e-03,-4.768213e-04
1403772885655671,1403772885593170,3.132161e-01,-8.179842e-03,-1.725262e-02,-2.564033e-03,2.715183e-03,-1.557632e-04
1403772885718170,1403772885655671,3.133986e-01,-8.444506e-03,-1.658088e-02,-1.976331e-03,1.132517e-03,-5.818113e-04
1403772885780669,1403772885718170,3.146882e-01,-4.376114e-03,-1.661811e-02,1.043954e-04,-5.765569e-04,-1.359442e-03
1403772885843173,1403772885780669,3.144567e-01,-9.608405e-04,-1.663527e-02,3.683004e-03,-4.101541e-04,-1.653819e-03
1403772885905673,1403772885843173,3.123368e-01,6.294256e-03,-1.634367e-02,7.436624e-03,-7.420468e-04,-1.708655e-03
1403772885968171,1403772885905673,3.132963e-01,7.692559e-03,-1.543795e-02,6.972101e-03,-2.124697e-03,-1.068864e-03
1403772886030673,1403772885968171,3.133098e-01,3.259699e-03,-1.681179e-02,2.182301e-03,-1.503022e-03,-8.985784e-05
1403772886093172,1403772886030673,3.116927e-01,-4.821648e-03,-2.009564e-02,-2.475565e-03,-2.585515e-04,4.887386e-04
1403772886155673,1403772886093172,3.117426e-01,-8.878668e-03,-2.223027e-02,-3.326236e-03,9.716544e-04,3.197410e-04
1403772886218176,1403772886155673,3.107689e-01,-1.186084e-02,-2.231020e-02,-4.229406e-03,1.864404e-03,-6.572393e-05
1403772886280674,1403772886218176,3.120929e-01,-1.192918e-02,-2.021770e-02,-5.169878e-03,1.341416e-03,-5.128472e-04
1403772886343174,1403772886280674,3.119977e-01,-7.348168e-03,-1.804725e-02,-2.687770e-03,4.462402e-04,-1.030399e-03
1403772886405675,1403772886343174,3.154196e-01,-1.739426e-03,-1.610708e-02,1.468496e-03,-6.344508e-04,-1.204494e-03
1403772886468176,1403772886405675,3.151769e-01,2.498778e-03,-1.397840e-02,4.081526e-03,3.238836e-04,-1.456494e-03
1403772886530675,1403772886468176,3.144511e-01,3.535751e-03,-1.400068e-02,4.538692e-03,8.093291e-04,-1.361859e-03
1403772886593177,1403772886530675,3.145372e-01,2.236253e-03,-1.473142e-02,2.565755e-03,1.346391e-04,-7.308990e-04
1403772886655679,1403772886593177,3.181421e-01,-9.799989e-04,-1.527848e-02,1.179781e-03,-1.339677e-03,6.758255e-05
1403772886718180,1403772886655679,3.172922e-01,-3.890012e-03,-1.756951e-02,1.395891e-04,-2.451163e-03,2.998150e-04
1403772886780684,1403772886718180,3.177417e-01,-5.486269e-03,-1.826707e-02,-1.517899e-03,-3.125224e-03,4.497111e-05
1403772886843184,1403772886780684,3.168052e-01,-4.697416e-03,-2.013313e-02,-6.579465e-04,-1.940966e-03,-2.564088e-04
1403772886905685,1403772886843184,3.165650e-01,-2.756169e-03,-1.944128e-02,-4.633590e-04,-8.472145e-04,-3.739077e-04
1403772886968184,1403772886905685,3.156356e-01,-2.033712e-03,-1.897923e-02,-1.336440e-04,-6.176157e-05,-2.641163e-04
1403772887030687,1403772886968184,3.166518e-01,5.353900e-05,-1.847893e-02,1.863377e-03,4.149576e-04,-6.530819e-05
1403772887093189,1403772887030687,3.190749e-01,-2.506837e-03,-1.706982e-02,7.129904e-04,-3.598517e-04,2.695252e-04
1403772887155691,1403772887093189,3.170958e-01,-3.618982e-03,-1.675035e-02,-1.145649e-03,-4.286670e-04,2.764347e-04
1403772887218190,1403772887155691,3.173693e-01,-5.192745e-03,-1.849560e-02,-2.315346e-03,5.831108e-04,-2.265077e-06
1403772887280692,1403772887218190,3.186926e-01,-5.272573e-03,-1.902569e-02,-2.082682e-03,1.407554e-03,-2.873932e-04
1403772887343193,1403772887280692,3.191949e-01,-2.710416e-03,-1.920619e-02,9.708003e-04,6.919819e-04,-4.146459e-04
1403772887405704,1403772887343193,3.205745e-01,1.446464e-04,-1.837296e-02,1.902033e-03,-6.554324e-04,-4.816048e-04
1403772887468195,1403772887405704,3.206970e-01,2.023512e-04,-1.802513e-02,1.485922e-03,-6.993353e-04,-2.189378e-04
1403772887530697,1403772887468195,3.222643e-01,2.708538e-03,-1.767882e-02,3.256062e-03,-5.308271e-04,-4.135812e-05
1403772887593198,1403772887530697,3.228287e-01,2.720781e-03,-1.798012e-02,2.372953e-03,2.866255e-06,-1.676874e-04
1403772887655699,1403772887593198,3.205871e-01,-1.674134e-03,-1.793711e-02,-9.077823e-04,9.728358e-04,4.062250e-05
1403772887718201,1403772887655699,3.208182e-01,-3.751502e-03,-1.908572e-02,-1.059027e-03,6.215634e-04,4.600349e-04
1403772887780703,1403772887718201,3.229474e-01,-4.464520e-03,-1.938668e-02,-1.528100e-03,-2.950514e-04,6.556972e-04
1403772887843203,1403772887780703,3.260815e-01,-6.937064e-03,-1.913718e-02,-2.143567e-03,-4.858336e-04,5.770528e-04
1403772887905704,1403772887843203,3.251536e-01,-5.168685e-03,-1.892744e-02,-1.514636e-03,-6.531501e-05,7.360736e-05
1403772887968205,1403772887905704,3.253429e-01,-1.600741e-03,-1.821684e-02,2.898270e-04,2.173309e-04,-2.915764e-04
1403772888030707,1403772887968205,3.258504e-01,1.531970e-03,-1.673750e-02,1.612591e-03,-8.634125e-04,-5.349695e-04
1403772888093207,1403772888030707,3.289711e-01,2.376026e-03,-1.597893e-02,2.838758e-03,-8.088272e-04,-5.123993e-04
1403772888155709,1403772888093207,3.292828e-01,1.697913e-03,-1.792804e-02,2.434850e-03,-8.084059e-04,-9.219350e-05
1403772888218210,1403772888155709,3.295211e-01,-1.047695e-03,-1.930950e-02,8.897330e-04,-1.380282e-04,2.358050e-04
1403772888280712,1403772888218210,3.288058e-01,-2.614427e-03,-2.093254e-02,-2.901016e-04,7.508589e-04,2.256942e-04
1403772888343213,1403772888280712,3.296696e-01,-2.107337e-03,-2.049521e-02,-3.781585e-05,5.377286e-04,8.787754e-05
1403772888405715,1403772888343213,3.308476e-01,-1.889229e-03,-2.021389e-02,-1.918287e-04,-2.958956e-04,7.833280e-05
1403772888468215,1403772888405715,3.308242e-01,-1.986136e-03,-2.090606e-02,-4.455585e-05,1.035213e-04,-8.139489e-05
1403772888530717,1403772888468215,3.299415e-01,-2.625051e-03,-1.995493e-02,3.367011e-05,1.842793e-03,-8.935665e-05
1403772888593218,1403772888530717,3.311997e-01,-1.584043e-03,-1.860705e-02,2.922343e-04,2.230903e-03,-5.289701e-05
1403772888655719,1403772888593218,3.312646e-01,-1.723521e-03,-1.704383e-02,4.636778e-04,1.526183e-03,1.182346e-04
1403772888718222,1403772888655719,3.318169e-01,-2.828212e-03,-1.703245e-02,-1.297814e-03,2.633240e-04,5.865740e-04
1403772888780721,1403772888718222,3.346470e-01,-3.371034e-03,-1.781108e-02,-1.678160e-03,-1.176687e-03,7.043538e-04
1403772888843222,1403772888780721,3.357518e-01,-1.779729e-03,-1.805937e-02,1.545259e-04,-1.253640e-03,5.833588e-04
1403772888905724,1403772888843222,3.365509e-01,-1.937378e-03,-1.904863e-02,-2.084620e-04,2.727505e-04,3.235291e-04
1403772888968225,1403772888905724,3.375681e-01,-1.183956e-03,-1.943697e-02,3.492295e-05,7.407610e-04,5.777532e-04
1403772889030726,1403772888968225,3.356838e-01,-3.503644e-04,-1.907676e-02,2.968004e-04,-5.236568e-04,7.860516e-04
1403772889093230,1403772889030726,3.383018e-01,1.927183e-04,-1.759284e-02,1.469181e-04,-1.481790e-03,7.958690e-04
1403772889155729,1403772889093230,3.382263e-01,-3.358638e-04,-1.723400e-02,3.085991e-04,-2.042165e-03,8.367230e-04
1403772889218234,1403772889155729,3.404239e-01,6.764759e-04,-1.716625e-02,1.461337e-03,-1.664589e-03,7.059718e-04
1403772889280732,1403772889218234,3.386837e-01,-1.565508e-03,-1.820836e-02,-4.876187e-04,-6.351723e-04,7.542837e-04
1403772889343235,1403772889280732,3.393563e-01,-2.957161e-03,-1.956404e-02,-9.570562e-04,3.378388e-04,7.594253e-04
1403772889405736,1403772889343235,3.375757e-01,-2.373767e-03,-2.001387e-02,-3.532777e-04,1.721846e-04,9.299881e-04
1403772889468239,1403772889405736,3.384157e-01,-2.636585e-03,-2.043574e-02,-9.814379e-04,-1.359080e-03,9.399181e-04
1403772889530739,1403772889468239,3.439233e-01,-3.558522e-03,-1.776995e-02,-2.316139e-03,-2.492876e-03,8.867309e-04
1403772889593239,1403772889530739,3.406714e-01,-3.236464e-03,-1.971659e-02,-1.134584e-03,-1.111299e-03,6.872832e-04
1403772889655739,1403772889593239,3.381448e-01,-1.350728e-03,-2.238432e-02,5.276460e-04,2.581227e-03,5.099892e-04
1403772889718241,1403772889655739,3.344973e-01,8.315536e-04,-2.449232e-02,1.886301e-03,4.873973e-03,2.943369e-04
1403772889780742,1403772889718241,3.331606e-01,6.877273e-04,-2.383664e-02,1.759852e-04,4.010752e-03,6.634896e-04
1403772889843243,1403772889780742,3.379644e-01,2.298842e-03,-2.167353e-02,1.775771e-03,2.196745e-03,7.893627e-04
1403772889905747,1403772889843243,3.395692e-01,2.058506e-03,-1.977520e-02,3.067345e-03,3.957588e-04,5.173905e-04
1403772889968246,1403772889905747,3.390169e-01,-1.447633e-03,-1.812342e-02,-3.120466e-04,6.109363e-04,1.147985e-04
1403772890030750,1403772889968246,3.383205e-01,-6.587388e-03,-1.530293e-02,-4.474957e-03,2.746473e-03,1.547048e-04
1403772890093249,1403772890030750,3.393704e-01,-8.988003e-03,-1.639584e-02,-4.139418e-03,2.526399e-03,4.509508e-04
1403772890155752,1403772890093249,3.418325e-01,-8.169457e-03,-1.641871e-02,-2.797160e-03,-6.143207e-04,4.550316e-04
1403772890218251,1403772890155752,3.420702e-01,-5.452072e-03,-1.782707e-02,-1.030751e-03,-2.853038e-03,1.999782e-04
1403772890280754,1403772890218251,3.432003e-01,-5.388428e-04,-1.894314e-02,1.343452e-03,-3.007200e-03,7.977006e-06
1403772890343257,1403772890280754,3.428116e-01,-5.616948e-04,-2.004275e-02,1.544589e-03,-2.044137e-03,-3.112523e-04
1403772890405756,1403772890343257,3.386404e-01,3.237506e-03,-2.186976e-02,3.179920e-03,-4.499050e-04,-5.106214e-04
1403772890468256,1403772890405756,3.389000e-01,1.965913e-03,-2.012893e-02,2.585752e-03,-1.178305e-04,1.238973e-04
1403772890530757,1403772890468256,3.387725e-01,-6.322988e-04,-1.820919e-02,1.267149e-05,-1.354698e-03,7.611162e-04
1403772890593273,1403772890530757,3.400933e-01,-4.697948e-03,-1.758945e-02,-2.132221e-03,-2.240688e-03,7.945404e-04
1403772890718260,1403772890593273,6.803821e-01,-1.736431e-02,-3.572572e-02,-7.227353e-03,-4.332346e-03,-2.685085e-04
1403772890780762,1403772890718260,3.399306e-01,-4.324199e-03,-1.841827e-02,2.428311e-04,-1.401368e-03,-7.661407e-04
1403772890843262,1403772890780762,3.381633e-01,-3.448751e-03,-2.118065e-02,-7.294118e-04,5.749959e-06,-1.670704e-04
1403772890905764,1403772890843262,3.359150e-01,-1.315740e-03,-2.258032e-02,1.108360e-03,9.103661e-04,1.599257e-04
1403772891030765,1403772890905764,6.683943e-01,2.778830e-03,-4.774126e-02,7.107262e-03,3.319583e-03,-1.326650e-03
1403772891093266,1403772891030765,3.344348e-01,2.689824e-03,-2.095618e-02,3.358413e-03,8.958959e-04,-9.103539e-04
1403772891155767,1403772891093266,3.355132e-01,-3.628792e-04,-1.867183e-02,8.569451e-04,1.621193e-04,-1.806718e-04
1403772891280769,1403772891155767,6.789835e-01,-1.513924e-03,-3.071208e-02,2.857811e-03,-1.030663e-03,2.521954e-04
1403772891343270,1403772891280769,3.399722e-01,-3.732532e-03,-1.620700e-02,-7.081010e-04,-1.167339e-03,-2.143241e-04
1403772891405771,1403772891343270,3.418354e-01,-6.115111e-03,-1.774467e-02,-1.956101e-03,-1.081435e-03,-4.369238e-04
1403772891530775,1403772891405771,6.806783e-01,-1.047531e-02,-4.105017e-02,-1.318668e-03,-2.537176e-03,-5.589841e-04
1403772891593274,1403772891530775,3.406328e-01,-2.836210e-03,-2.157419e-02,1.145072e-03,-1.806564e-03,-4.577320e-04
1403772891655776,1403772891593274,3.410559e-01,1.343726e-04,-1.882826e-02,1.794471e-03,-2.362889e-03,-6.288669e-04
1403772891780778,1403772891655776,6.806017e-01,3.905261e-03,-3.470277e-02,5.796420e-03,-2.221942e-03,-1.290901e-03
1403772891843277,1403772891780778,3.395760e-01,-3.315472e-03,-1.920141e-02,-1.084421e-03,1.477710e-03,1.824554e-05
1403772891905780,1403772891843277,3.337525e-01,-6.982769e-03,-2.292657e-02,-4.078757e-03,2.106141e-03,7.372455e-04
1403772891968280,1403772891905780,3.360126e-01,-8.694475e-03,-2.291130e-02,-4.607441e-03,1.867346e-03,1.156978e-03
1403772892093282,1403772891968280,6.691806e-01,-8.964477e-03,-4.538923e-02,-3.143344e-03,1.431148e-03,2.056226e-03
1403772892155782,1403772892093282,3.408139e-01,-1.612692e-03,-1.667643e-02,-7.729964e-04,1.812735e-04,1.352158e-04
1403772892218285,1403772892155782,3.395745e-01,1.611288e-03,-1.672489e-02,2.013459e-03,1.401444e-03,-2.230364e-04
1403772892280787,1403772892218285,3.368802e-01,4.111550e-03,-1.754152e-02,4.062017e-03,1.641279e-03,-6.324453e-05
1403772892405788,1403772892280787,6.836153e-01,-3.162237e-03,-3.738167e-02,-2.026766e-04,-2.909827e-04,1.497886e-03
1403772892468288,1403772892405788,3.394747e-01,-6.335183e-03,-2.062970e-02,-2.732840e-03,-1.508888e-03,7.792164e-04
1403772892530789,1403772892468288,3.411234e-01,-6.659964e-03,-2.193222e-02,-1.901767e-03,-1.376972e-03,1.483265e-04
1403772892655791,1403772892530789,6.779909e-01,-1.055402e-02,-4.388553e-02,-2.261550e-03,3.010354e-03,-3.416340e-04
1403772892718292,1403772892655791,3.400938e-01,1.062867e-03,-1.997702e-02,1.868267e-03,1.738315e-03,3.642537e-06
1403772892780793,1403772892718292,3.375710e-01,3.529321e-03,-2.042485e-02,5.158161e-03,6.807906e-04,9.559291e-05
1403772892843296,1403772892780793,3.384620e-01,2.413820e-03,-1.962919e-02,2.804019e-03,5.491042e-04,-5.516421e-05
1403772892968296,1403772892843296,6.802842e-01,-7.631595e-03,-3.816417e-02,-3.529401e-03,1.077258e-03,5.682804e-04
1403772893030799,1403772892968296,3.374938e-01,-5.876391e-03,-1.909350e-02,-2.348762e-03,-1.684174e-04,6.262986e-04
1403772893093300,1403772893030799,3.414454e-01,-6.522758e-03,-1.870518e-02,-2.137991e-03,-1.159449e-03,3.110319e-04
1403772893218301,1403772893093300,6.818414e-01,-1.334550e-03,-3.590338e-02,2.207214e-03,-3.410006e-03,-7.247548e-04
1403772893280802,1403772893218301,3.414335e-01,3.016450e-03,-1.837973e-02,3.932611e-03,-2.172293e-03,-5.912407e-04
1403772893343304,1403772893280802,3.415844e-01,3.459240e-03,-1.984264e-02,2.566442e-03,-2.048308e-03,-2.780176e-04
1403772893405804,1403772893343304,3.407084e-01,1.158244e-03,-2.077704e-02,1.514552e-03,-1.360286e-03,3.156131e-04
1403772893530805,1403772893405804,6.812213e-01,-6.374599e-03,-4.417107e-02,-2.028899e-03,-6.191160e-04,1.533416e-03
1403772893593309,1403772893530805,3.378272e-01,-7.275178e-03,-2.217854e-02,-2.773783e-03,7.167325e-04,5.017859e-04
1403772893718309,1403772893593309,6.780192e-01,-8.701171e-03,-4.143575e-02,-1.278075e-03,2.536089e-03,-3.857251e-04
1403772893780809,1403772893718309,3.396771e-01,-2.482952e-03,-2.000867e-02,-4.313444e-04,2.141783e-03,-5.783991e-04
1403772893843311,1403772893780809,3.418355e-01,-1.749285e-03,-1.961005e-02,5.898745e-04,1.831472e-03,-4.384891e-04
1403772893905812,1403772893843311,3.411143e-01,-2.128352e-03,-1.919018e-02,2.186575e-04,1.082660e-03,-1.652601e-04
1403772894030813,1403772893905812,6.780683e-01,-4.857821e-03,-4.190363e-02,3.779180e-04,2.532428e-03,-3.845769e-04
1403772894093314,1403772894030813,3.416526e-01,-4.038881e-03,-1.990593e-02,-8.368025e-04,-2.337322e-05,-3.046000e-04
1403772894218315,1403772894093314,6.882653e-01,-9.167868e-03,-3.688393e-02,-2.479571e-03,-8.754887e-04,-8.944104e-04
1403772894280817,1403772894218315,3.452014e-01,-4.354137e-03,-1.935447e-02,-5.867034e-04,-5.325308e-04,-3.023447e-04
1403772894343318,1403772894280817,3.469788e-01,-4.984333e-03,-2.002875e-02,-5.881866e-04,3.780861e-04,-9.914869e-05
1403772894405820,1403772894343318,3.458163e-01,-5.201751e-03,-1.982300e-02,-1.692867e-03,2.258841e-04,-1.148179e-05
1403772894530823,1403772894405820,6.942265e-01,-6.138897e-03,-3.657659e-02,1.221167e-03,-3.996208e-03,-4.407862e-04
1403772894593323,1403772894530823,3.495876e-01,-6.048055e-04,-1.967147e-02,2.011204e-03,-1.462083e-03,-4.842437e-04
1403772894718323,1403772894593323,7.019794e-01,-3.105917e-03,-3.977710e-02,1.057526e-03,5.185371e-05,-2.506171e-04
1403772894780825,1403772894718323,3.514121e-01,-2.032340e-03,-1.965753e-02,9.670667e-04,-7.381389e-04,9.865360e-05
1403772894843326,1403772894780825,3.555493e-01,-3.897179e-03,-1.924275e-02,2.760641e-04,-1.954648e-03,-2.991791e-05
1403772894968341,1403772894843326,7.067358e-01,-3.858215e-03,-4.177970e-02,5.472185e-04,8.637730e-05,-4.962447e-04
1403772895030828,1403772894968341,3.527067e-01,-3.374668e-03,-2.238817e-02,-4.195030e-04,1.664883e-03,-7.744552e-05
1403772895093332,1403772895030828,3.505173e-01,-2.808271e-03,-2.173563e-02,-7.130183e-04,1.313890e-03,-8.256013e-05
1403772895218332,1403772895093332,7.166073e-01,-5.958633e-03,-4.020857e-02,-1.567670e-03,-1.777256e-04,1.998948e-04
1403772895280832,1403772895218332,3.584731e-01,-2.860181e-03,-1.940144e-02,-3.755574e-04,-4.833778e-04,4.084483e-04
1403772895343334,1403772895280832,3.593452e-01,-2.721717e-03,-1.838013e-02,-2.132957e-04,-1.137737e-03,4.853890e-04
1403772895405835,1403772895343334,3.618361e-01,-2.383726e-04,-1.855358e-02,1.446245e-03,-1.388255e-03,2.038484e-04
1403772895530837,1403772895405835,7.250716e-01,-5.870328e-03,-3.959124e-02,-1.713730e-03,-1.892136e-03,4.956697e-04
1403772895593341,1403772895530837,3.624555e-01,-4.261815e-03,-2.275335e-02,-1.520164e-03,2.740880e-04,5.066481e-04
1403772895655839,1403772895593341,3.622451e-01,-4.005723e-03,-2.268846e-02,-9.019844e-04,9.252424e-05,3.095883e-04
1403772895780840,1403772895655839,7.278236e-01,-1.018005e-02,-4.443830e-02,-2.765508e-03,2.286590e-03,4.496181e-04
1403772895843343,1403772895780840,3.643426e-01,-5.231642e-03,-1.964636e-02,-2.367383e-03,1.260575e-03,1.780239e-04
1403772895905845,1403772895843343,3.664656e-01,-3.226903e-03,-1.917176e-02,-2.974314e-04,6.097122e-04,1.339989e-04
1403772896030846,1403772895905845,7.388088e-01,-1.531144e-03,-3.969310e-02,3.203292e-03,2.256920e-04,2.001686e-04
1403772896093345,1403772896030846,3.707654e-01,-1.271599e-03,-2.107026e-02,6.240067e-04,-2.285030e-04,2.808500e-04
1403772896155847,1403772896093345,3.710240e-01,-1.815610e-03,-1.941379e-02,7.330781e-06,-1.360348e-03,2.171074e-04
1403772896280848,1403772896155847,7.470324e-01,-4.461866e-04,-4.166850e-02,3.076737e-03,-3.004764e-03,-2.194452e-04
1403772896343351,1403772896280848,3.697519e-01,-6.818077e-03,-2.426323e-02,-3.665441e-03,1.404742e-03,3.457265e-04
1403772896405852,1403772896343351,3.714739e-01,-5.971468e-03,-2.411376e-02,-1.779052e-03,1.632275e-03,9.101156e-05
1403772896530853,1403772896405852,7.399694e-01,-6.865913e-03,-4.787608e-02,1.020863e-03,2.104761e-03,-9.980774e-04
1403772896593353,1403772896530853,3.716886e-01,-7.813601e-04,-2.256194e-02,2.560402e-04,1.788152e-03,-3.340057e-04
1403772896655855,1403772896593353,3.732701e-01,6.609812e-04,-2.015429e-02,2.796670e-03,2.013479e-03,-3.427816e-04
1403772896718355,1403772896655855,3.756579e-01,-6.930094e-04,-1.883625e-02,1.753243e-03,4.672468e-05,-2.670553e-04
1403772896843359,1403772896718355,7.576979e-01,-6.920369e-03,-3.934479e-02,-2.341006e-03,-3.292631e-03,-2.966160e-04
1403772896905858,1403772896843359,3.756126e-01,-2.077053e-03,-2.152265e-02,1.371738e-03,-1.259771e-03,-3.939555e-04
1403772896968360,1403772896905858,3.768569e-01,-2.846248e-03,-2.170617e-02,8.284635e-04,-1.837098e-03,-8.804162e-04
1403772897093361,1403772896968360,7.555836e-01,-7.506367e-03,-4.315687e-02,-2.743557e-05,-3.714329e-03,-2.003102e-03
1403772897155861,1403772897093361,3.775932e-01,-3.319313e-03,-2.276471e-02,1.129660e-04,4.211699e-04,-3.359318e-04
1403772897280863,1403772897155861,7.561870e-01,-2.857021e-03,-4.400637e-02,2.021576e-03,-6.220120e-05,-7.406861e-04
1403772897343364,1403772897280863,3.776355e-01,-1.722380e-03,-2.212944e-02,9.437171e-04,-7.267051e-04,-6.845316e-04
1403772897405866,1403772897343364,3.761443e-01,-4.117456e-03,-2.067439e-02,-1.743513e-03,-3.520620e-04,-6.423349e-04
1403772897468367,1403772897405866,3.762735e-01,-6.374535e-03,-2.084004e-02,-3.570093e-03,3.354569e-04,-1.233173e-04
1403772897593368,1403772897468367,7.572355e-01,-1.583281e-02,-4.163986e-02,-7.047497e-03,-3.770917e-05,1.159350e-04
1403772897655871,1403772897593368,3.798451e-01,-7.851754e-03,-1.950766e-02,-3.136563e-03,-1.945411e-03,-1.776857e-04
1403772897718371,1403772897655871,3.778088e-01,-4.716468e-03,-2.099815e-02,-4.322580e-04,-1.311907e-03,-7.059490e-04
1403772897843372,1403772897718371,7.512877e-01,-2.333314e-03,-5.159468e-02,1.058622e-03,4.323386e-03,-5.391841e-04
1403772897905873,1403772897843372,3.715689e-01,1.135016e-03,-2.783728e-02,1.730344e-03,4.179574e-03,9.092167e-04
1403772897968388,1403772897905873,3.697774e-01,7.297771e-04,-2.710933e-02,1.501886e-03,3.564097e-03,1.370739e-03
1403772898093377,1403772897968388,7.521433e-01,-4.635565e-03,-4.452843e-02,9.567872e-05,5.262693e-03,2.518053e-03
1403772898155877,1403772898093377,3.734296e-01,-1.826844e-03,-1.766116e-02,7.177645e-05,1.881211e-03,6.594583e-04
1403772898218378,1403772898155877,3.777446e-01,-2.981111e-04,-1.682979e-02,2.204075e-03,1.038551e-04,5.287091e-04
1403772898343379,1403772898218378,7.592984e-01,-2.237743e-03,-3.590684e-02,1.868073e-03,-5.145260e-03,6.720115e-04
1403772898405881,1403772898343379,3.777099e-01,-7.750043e-04,-2.106951e-02,1.044429e-03,-3.648243e-03,-9.070116e-05
1403772898468384,1403772898405881,3.772079e-01,-2.215934e-03,-2.213784e-02,1.034827e-03,-3.759519e-03,-6.199366e-05
1403772898530883,1403772898468384,3.766522e-01,-8.819754e-04,-2.136528e-02,3.014861e-04,-3.008426e-03,1.565915e-04
1403772898655886,1403772898530883,7.524645e-01,-3.633335e-03,-4.292072e-02,1.262736e-03,-3.098468e-03,9.467901e-04
1403772898718386,1403772898655886,3.745496e-01,-1.124633e-03,-2.293109e-02,1.025064e-04,2.161686e-04,3.392152e-04
1403772898780886,1403772898718386,3.727062e-01,-3.277681e-03,-2.407041e-02,-1.615610e-03,7.786300e-04,7.722992e-04
1403772898843386,1403772898780886,3.715327e-01,-1.763445e-03,-2.261023e-02,2.025678e-04,8.121277e-04,9.557642e-04
1403772898968387,1403772898843386,7.400143e-01,-7.517998e-03,-4.195421e-02,-9.782847e-04,7.041476e-04,1.445500e-03
1403772899030888,1403772898968387,3.757197e-01,-3.328249e-03,-1.948426e-02,-6.554004e-04,2.468739e-04,3.842860e-04
1403772899093388,1403772899030888,3.738018e-01,-2.531786e-03,-2.073619e-02,-9.062220e-05,4.504634e-04,4.690015e-04
1403772899218391,1403772899093388,7.464353e-01,-8.039560e-03,-4.348205e-02,-3.469893e-03,-7.578024e-04,7.564576e-04
1403772899280889,1403772899218391,3.725803e-01,-5.996840e-03,-2.250881e-02,-1.932276e-03,-7.699653e-04,-1.652574e-04
1403772899343390,1403772899280889,3.745844e-01,-5.901244e-03,-2.161465e-02,-1.895558e-03,-7.140648e-04,-3.672707e-04
1403772899405892,1403772899343390,3.728251e-01,-6.442891e-03,-2.157178e-02,-2.239823e-03,-3.350457e-04,-6.133214e-05
1403772899530891,1403772899405892,7.495263e-01,-1.700491e-02,-3.920321e-02,-8.952462e-03,-1.055632e-03,3.032263e-04
1403772899593390,1403772899530891,3.751859e-01,-8.791574e-03,-1.943925e-02,-3.019776e-03,-7.619860e-04,-1.194926e-04
1403772899655892,1403772899593390,3.735413e-01,-7.220697e-03,-2.082079e-02,-2.129969e-03,-1.019407e-03,-1.808559e-04
1403772899780892,1403772899655892,7.532219e-01,-1.360923e-02,-4.704287e-02,-4.552110e-03,1.213981e-03,1.761631e-04
1403772899843392,1403772899780892,3.701541e-01,-5.820897e-04,-2.833535e-02,2.093156e-03,3.627561e-03,-1.728757e-04
1403772899905897,1403772899843392,3.692927e-01,5.364445e-04,-2.834898e-02,3.100025e-03,4.671998e-03,2.724309e-05
1403772899968394,1403772899905897,3.696838e-01,1.043466e-04,-2.523598e-02,9.462804e-04,3.846011e-03,7.006691e-04
1403772900030894,1403772899968394,3.686854e-01,-2.956790e-03,-2.284209e-02,-5.410442e-04,3.110326e-03,1.143682e-03
1403772900093395,1403772900030894,3.712318e-01,-2.944140e-03,-1.850535e-02,3.568705e-04,2.172824e-03,9.914815e-04
1403772900155899,1403772900093395,3.743075e-01,-2.382899e-03,-1.791413e-02,6.802802e-04,1.191823e-03,4.982079e-04
1403772900218401,1403772900155899,3.700088e-01,-2.414861e-03,-1.819105e-02,7.051490e-04,3.701519e-04,4.405955e-05
1403772900280899,1403772900218401,3.739900e-01,-7.461290e-04,-2.045797e-02,1.678122e-03,-1.757790e-03,-3.574434e-04
1403772900343401,1403772900280899,3.734051e-01,1.915714e-03,-2.225815e-02,3.426615e-03,-2.830933e-03,-4.179315e-04
1403772900405902,1403772900343401,3.736211e-01,2.882991e-03,-2.337738e-02,3.025094e-03,-3.011497e-03,-2.923062e-04
1403772900468406,1403772900405902,3.757149e-01,1.796429e-03,-2.206173e-02,1.574060e-03,-2.677776e-03,-1.136719e-04
1403772900530903,1403772900468406,3.723958e-01,1.318935e-03,-2.235125e-02,2.495743e-03,-1.161950e-03,-4.525317e-05
1403772900593403,1403772900530903,3.723505e-01,-4.727517e-04,-2.183937e-02,1.278228e-03,-9.731374e-04,-2.187200e-04
1403772900655906,1403772900593403,3.720756e-01,-2.713316e-03,-2.069147e-02,-3.075835e-04,-1.190964e-03,-6.135301e-05
1403772900718405,1403772900655906,3.712991e-01,-3.900491e-03,-2.013374e-02,-1.398082e-03,-1.354367e-03,2.910604e-04
1403772900780905,1403772900718405,3.743245e-01,-2.612308e-03,-1.832939e-02,-1.922610e-04,-2.642949e-03,1.089992e-04
1403772900843408,1403772900780905,3.762187e-01,2.504580e-03,-1.797595e-02,5.693755e-03,-3.072094e-03,-3.942681e-04
1403772900905907,1403772900843408,3.705044e-01,1.151314e-03,-2.308539e-02,2.597527e-03,-9.344227e-04,-2.877549e-04
1403772900968407,1403772900905907,3.676174e-01,-5.015179e-03,-2.464697e-02,-3.133477e-03,9.232453e-04,-2.316686e-04
1403772901030911,1403772900968407,3.661772e-01,-4.001825e-03,-2.618730e-02,-1.247156e-03,2.339698e-03,-1.100057e-04
1403772901093409,1403772901030911,3.679602e-01,-5.151095e-03,-2.631562e-02,-8.626234e-04,2.352018e-03,2.037735e-04
1403772901155908,1403772901093409,3.693787e-01,-6.444894e-03,-2.399851e-02,-2.099614e-03,1.317201e-03,2.298629e-04
1403772901218411,1403772901155908,3.702142e-01,-6.668460e-03,-2.087355e-02,-2.107393e-03,1.148152e-03,2.478599e-05
1403772901280911,1403772901218411,3.692124e-01,-3.557096e-03,-2.018391e-02,9.925422e-04,2.571909e-03,-7.147462e-04
1403772901343413,1403772901280911,3.691412e-01,-1.378827e-03,-1.874933e-02,1.528113e-03,1.224488e-03,-9.695638e-04
1403772901405912,1403772901343413,3.736113e-01,-3.212877e-03,-2.031475e-02,-9.506852e-04,-9.291483e-04,-6.279037e-05
1403772901468412,1403772901405912,3.750247e-01,-1.045943e-03,-2.016483e-02,2.169591e-03,-1.441487e-03,4.912367e-04
1403772901530916,1403772901468412,3.717292e-01,-9.732739e-04,-2.266387e-02,1.836833e-03,-1.735345e-03,4.587724e-04
1403772901593416,1403772901530916,3.737259e-01,-4.408071e-03,-2.288022e-02,-1.454998e-03,-9.938010e-04,2.263803e-04
1403772901655916,1403772901593416,3.727470e-01,-6.907483e-03,-2.140474e-02,-2.738015e-03,-3.515880e-04,1.625631e-04
1403772901718418,1403772901655916,3.720564e-01,-4.405167e-03,-2.096493e-02,-7.037312e-04,-3.842612e-04,1.321012e-04
1403772901780917,1403772901718418,3.751908e-01,-4.631476e-03,-1.980468e-02,2.760226e-04,-1.456836e-04,4.128124e-04
1403772901843418,1403772901780917,3.710400e-01,-5.167501e-03,-2.070895e-02,-1.273547e-03,-1.214298e-04,4.966468e-04
1403772901905918,1403772901843418,3.721296e-01,-2.389284e-03,-2.167507e-02,-6.598762e-04,-8.560008e-05,9.498295e-05
1403772901968420,1403772901905918,3.725183e-01,-4.769026e-04,-2.166004e-02,1.703505e-03,2.333125e-04,-1.063339e-04
1403772902030921,1403772901968420,3.722379e-01,3.579534e-05,-2.296809e-02,1.549417e-03,3.186615e-04,1.358221e-04
1403772902093423,1403772902030921,3.704114e-01,-2.334219e-03,-2.156992e-02,-9.758283e-04,8.785870e-04,5.571926e-04
1403772902155922,1403772902093423,3.713968e-01,-2.840781e-03,-2.263576e-02,-5.218751e-04,6.108306e-04,5.080313e-04
1403772902218423,1403772902155922,3.741743e-01,-1.185213e-03,-2.149075e-02,8.502566e-04,1.190451e-04,1.955404e-04
1403772902280924,1403772902218423,3.755268e-01,-3.724522e-03,-2.038136e-02,-6.514899e-04,-4.190566e-04,2.252993e-04
1403772902343426,1403772902280924,3.746201e-01,-5.590181e-03,-1.930566e-02,-2.627704e-03,-7.832014e-04,5.215431e-04
1403772902405927,1403772902343426,3.755596e-01,-3.681443e-03,-2.018624e-02,-1.069598e-03,-7.294734e-04,5.194142e-04
1403772902468431,1403772902405927,3.783013e-01,-2.015870e-03,-2.072019e-02,1.092825e-03,-1.222520e-03,1.826764e-04
1403772902530930,1403772902468431,3.785726e-01,-1.577841e-03,-2.096351e-02,3.811179e-04,-1.711066e-03,5.954128e-05
1403772902593432,1403772902530930,3.785745e-01,-1.852857e-03,-2.239767e-02,-4.409544e-05,-1.195565e-03,2.123815e-04
1403772902655933,1403772902593432,3.798696e-01,-4.951894e-04,-2.223479e-02,5.700029e-04,-1.089953e-03,3.416881e-04
1403772902718434,1403772902655933,3.806029e-01,-3.702188e-03,-2.066638e-02,-9.406424e-04,-1.583471e-03,2.796466e-04
1403772902780936,1403772902718434,3.805473e-01,-3.926465e-03,-2.052432e-02,-1.127732e-03,-1.647716e-03,9.794628e-05
1403772902843439,1403772902780936,3.787031e-01,-3.467026e-03,-2.209301e-02,-5.906670e-04,-6.260115e-04,-5.790305e-07
1403772902905941,1403772902843439,3.786273e-01,-5.026899e-03,-2.319432e-02,-6.232690e-04,8.816014e-04,6.435912e-05
1403772902968441,1403772902905941,3.760042e-01,-2.488078e-03,-2.443306e-02,7.898328e-04,1.869158e-03,-6.163415e-06
1403772903030941,1403772902968441,3.805519e-01,-1.168074e-03,-2.422535e-02,1.056321e-03,1.265347e-03,-4.579523e-06
1403772903093444,1403772903030941,3.791956e-01,7.480318e-05,-2.473859e-02,1.790961e-03,1.243011e-03,-1.225561e-04
1403772903155943,1403772903093444,3.771814e-01,-2.700469e-04,-2.313857e-02,1.518458e-03,2.036608e-03,1.160242e-04
1403772903218447,1403772903155943,3.787867e-01,-2.710085e-03,-2.107434e-02,3.197058e-04,1.826734e-03,3.149393e-04
1403772903280949,1403772903218447,3.819997e-01,-3.125538e-03,-1.882063e-02,6.875535e-04,3.565078e-04,2.498331e-04
1403772903343447,1403772903280949,3.834220e-01,-3.183410e-03,-2.046625e-02,-1.047438e-04,-3.063328e-04,2.875517e-04
1403772903405949,1403772903343447,3.819966e-01,-4.279672e-03,-2.176561e-02,-5.904471e-04,1.350203e-04,1.716924e-04
1403772903468449,1403772903405949,3.814051e-01,-1.812642e-03,-2.412193e-02,4.740356e-04,1.399499e-03,-7.586977e-05
1403772903530950,1403772903468449,3.820990e-01,-3.553586e-03,-2.513611e-02,-2.254762e-04,1.542785e-03,1.654588e-05
1403772903593452,1403772903530950,3.790377e-01,-4.005310e-03,-2.461348e-02,-2.407514e-04,1.299603e-03,2.362053e-05
1403772903655956,1403772903593452,3.839551e-01,-3.236881e-03,-2.153387e-02,4.059877e-05,7.205077e-04,1.323155e-04
1403772903718457,1403772903655956,3.865220e-01,-3.258430e-03,-2.027806e-02,1.179117e-03,1.053206e-03,1.613386e-08
1403772903780956,1403772903718457,3.816579e-01,-1.036823e-03,-1.967433e-02,2.093855e-03,9.335243e-04,-2.067223e-04
1403772903843459,1403772903780956,3.833907e-01,-2.289595e-03,-1.983201e-02,1.526352e-04,-2.404643e-04,2.502439e-05
1403772903905960,1403772903843459,3.837313e-01,-3.431493e-03,-1.968481e-02,-7.992785e-04,-1.704500e-03,2.276465e-04
1403772903968460,1403772903905960,3.832780e-01,-3.852582e-03,-2.206282e-02,-6.388261e-04,-2.034448e-03,4.495989e-04
1403772904030961,1403772903968460,3.842452e-01,-4.833350e-03,-2.283520e-02,-9.006465e-04,-1.948281e-03,4.324866e-04
1403772904093463,1403772904030961,3.808815e-01,-3.536538e-03,-2.420266e-02,4.589460e-04,-5.818102e-04,1.040398e-04
1403772904155965,1403772904093463,3.828542e-01,-1.134830e-03,-2.308864e-02,1.991549e-03,-4.422124e-05,-2.871289e-04
1403772904218467,1403772904155965,3.796818e-01,-2.313777e-03,-2.281486e-02,9.628580e-05,-2.491363e-04,-2.254901e-05
1403772904280968,1403772904218467,3.828860e-01,-5.098767e-03,-2.045739e-02,-2.933010e-03,-4.667591e-04,2.511732e-04
1403772904343467,1403772904280968,3.822852e-01,-5.471743e-03,-2.001533e-02,-1.848233e-03,-7.233309e-04,3.018876e-04
1403772904405969,1403772904343467,3.832255e-01,-2.711710e-03,-2.037925e-02,2.105753e-03,-9.457894e-04,-2.622083e-05
1403772904468470,1403772904405969,3.786995e-01,-1.959035e-03,-2.177412e-02,7.953992e-04,4.210446e-04,-2.631379e-04
1403772904530972,1403772904468470,3.845081e-01,-5.000079e-03,-2.211167e-02,-1.860001e-03,4.894169e-04,-1.912450e-04
1403772904593472,1403772904530972,3.767281e-01,-2.209267e-03,-2.534204e-02,7.884568e-04,1.570293e-03,-2.136948e-04
1403772904655975,1403772904593472,3.744456e-01,3.574050e-05,-2.698873e-02,1.510957e-03,2.277302e-03,-2.328199e-04
1403772904718478,1403772904655975,3.762797e-01,-2.524267e-03,-2.464010e-02,6.499429e-05,2.004342e-03,1.224680e-04
1403772904780976,1403772904718478,3.812476e-01,-3.717134e-03,-2.133571e-02,-4.915384e-04,1.233908e-03,4.490700e-04
1403772904843478,1403772904780976,3.802285e-01,-4.198557e-03,-1.894426e-02,-2.018565e-05,1.036314e-03,3.347590e-04
1403772904905979,1403772904843478,3.784242e-01,-3.356260e-03,-1.953518e-02,-4.230105e-04,3.591588e-05,-1.756092e-04
1403772904968481,1403772904905979,3.807409e-01,-4.080194e-03,-2.004160e-02,-1.002255e-03,3.039217e-04,-7.782255e-05
1403772905030982,1403772904968481,3.781061e-01,-1.433485e-03,-2.117442e-02,6.578864e-04,-7.484304e-04,-8.483754e-05
1403772905093483,1403772905030982,3.800857e-01,-5.208403e-04,-2.192933e-02,1.862594e-03,-2.278790e-03,-3.877014e-05
1403772905155984,1403772905093483,3.811407e-01,-2.218654e-03,-2.125770e-02,5.301152e-04,-2.395609e-03,-4.792898e-05
1403772905218485,1403772905155984,3.811439e-01,-3.438306e-03,-2.117306e-02,-1.009059e-03,-1.712365e-03,-1.664860e-05
1403772905280988,1403772905218485,3.799323e-01,-2.171514e-03,-2.166438e-02,1.199562e-04,-9.036954e-04,-4.660137e-05
1403772905343489,1403772905280988,3.785834e-01,-2.882466e-03,-2.193909e-02,1.180224e-04,-4.183774e-04,6.461832e-05
1403772905405991,1403772905343489,3.798367e-01,-4.026164e-03,-2.240278e-02,-1.265580e-03,-1.034034e-03,6.137701e-05
1403772905468492,1403772905405991,3.804393e-01,-4.513833e-03,-2.153620e-02,-1.138230e-03,-1.179520e-03,-6.586106e-05
1403772905530992,1403772905468492,3.775840e-01,-3.378423e-03,-2.193573e-02,8.216485e-04,-9.564584e-04,-8.904238e-05
1403772905593496,1403772905530992,3.783393e-01,-1.546965e-03,-2.208518e-02,4.017269e-04,-2.818491e-04,-1.101091e-04
1403772905655997,1403772905593496,3.796512e-01,-1.770101e-03,-2.157054e-02,5.680743e-04,-4.562905e-04,-2.838228e-05
1403772905718496,1403772905655997,3.808878e-01,-1.891886e-03,-2.028548e-02,1.073934e-03,-1.326619e-03,6.142002e-05
1403772905781000,1403772905718496,3.812857e-01,-2.503864e-03,-2.087118e-02,9.053801e-04,-2.421206e-03,5.603806e-05
1403772905843498,1403772905781000,3.814022e-01,-8.920996e-04,-2.253731e-02,1.746384e-03,-1.156008e-03,1.963105e-04
1403772905905997,1403772905843498,3.744085e-01,-2.927377e-03,-2.574718e-02,-1.254611e-03,1.483980e-03,2.544799e-04
1403772905968499,1403772905905997,3.783301e-01,-2.591348e-03,-2.711149e-02,9.826504e-05,3.212221e-03,1.505322e-04
1403772906030999,1403772905968499,3.756161e-01,-2.484118e-03,-2.707193e-02,1.113469e-03,2.831399e-03,8.555356e-05
1403772906155999,1403772906030999,7.601759e-01,-4.109645e-03,-4.738704e-02,2.161213e-03,4.671378e-03,-2.759991e-04
