source_timestamp,destination_timestamp,x,y,z,roll,pitch,yaw
1417534257094862,1417534257032371,4.983762e-05,1.199967e-05,1.391029e-05,1.311954e-05,2.540672e-06,2.537087e-06
1417534257157354,1417534257094862,3.884789e-05,-4.820512e-06,1.965287e-05,-1.501693e-05,-1.365012e-06,4.189236e-07
1417534257219843,1417534257157354,-3.480149e-05,-4.908634e-05,-3.094976e-05,-2.507533e-06,6.536448e-07,5.325149e-06
1417534257282337,1417534257219843,9.254062e-05,3.213806e-05,3.351056e-05,1.742926e-05,1.296342e-06,-3.315833e-06
1417534257344828,1417534257282337,-9.591406e-05,2.205231e-04,-6.945113e-05,-9.605477e-05,5.609973e-05,-3.029416e-05
1417534257407318,1417534257344828,6.134392e-05,5.248267e-06,3.315294e-05,7.784494e-06,8.676772e-06,-1.644477e-06
1417534257469806,1417534257407318,-4.457967e-05,5.913081e-06,-1.613639e-05,7.394699e-06,5.784815e-07,5.274956e-06
1417534257532297,1417534257469806,-8.182820e-05,-2.015642e-05,-6.650931e-05,-2.126637e-06,-1.491864e-05,-1.490810e-06
1417534257594785,1417534257532297,-2.459567e-05,-2.095089e-05,-1.756010e-05,2.540679e-06,-4.590027e-06,4.340024e-06
1417534257657276,1417534257594785,1.873309e-04,-1.494056e-05,5.856215e-05,-1.729830e-06,4.471515e-06,-3.522349e-06
1417534257719766,1417534257657276,-4.824728e-05,-2.209601e-05,-2.074354e-05,-2.902862e-05,-1.889796e-06,9.608427e-06
1417534257782253,1417534257719766,-5.315131e-05,2.791717e-05,-2.109979e-05,4.037449e-06,-7.383008e-06,-5.854392e-06
1417534257844743,1417534257782253,-1.676006e-05,-1.597725e-06,5.444139e-06,2.368122e-05,3.884300e-07,-2.906045e-06
1417534257907232,1417534257844743,-3.700304e-05,1.203701e-05,-1.801408e-05,1.659944e-06,-5.306737e-06,4.430885e-07
1417534257969723,1417534257907232,-1.624237e-05,-9.316358e-06,2.542360e-05,-1.762987e-06,4.267878e-06,3.252711e-06
1417534258032211,1417534257969723,1.006780e-05,-1.385513e-05,1.186935e-05,1.625428e-06,1.730017e-06,1.750519e-06
1417534258094701,1417534258032211,8.661738e-06,1.482190e-05,4.026983e-06,5.819055e-06,1.846094e-06,-8.767578e-08
1417534258157190,1417534258094701,1.736152e-04,-2.418910e-05,3.835295e-05,-4.745922e-06,7.313006e-06,-8.075726e-06
1417534258219680,1417534258157190,-2.396228e-05,-6.251712e-07,-2.694047e-05,4.488645e-06,-4.971457e-06,4.675328e-06
1417534258282169,1417534258219680,-4.474801e-05,2.329799e-06,-1.579686e-05,-2.006222e-06,-3.793560e-06,4.203187e-06
1417534258344659,1417534258282169,-2.573128e-05,-6.903602e-06,-5.541115e-06,-6.491080e-06,-2.231770e-06,-6.246624e-07
1417534258407148,1417534258344659,-6.171928e-05,-1.565418e-06,-7.186479e-06,7.353341e-07,3.183718e-06,-3.788186e-06
1417534258469638,1417534258407148,-2.736739e-05,1.561016e-05,-2.093462e-05,2.139231e-06,-5.935006e-06,2.769700e-06
1417534258532128,1417534258469638,-3.873593e-05,3.550140e-05,-1.655350e-05,-5.772368e-06,-5.757346e-07,-3.107093e-06
1417534258594617,1417534258532128,-1.965121e-05,4.538657e-06,1.475965e-05,7.811824e-06,1.542591e-06,-3.605674e-06
1417534258657106,1417534258594617,-2.001041e-05,3.081952e-08,-4.938544e-06,8.438612e-07,-4.060245e-06,-6.302495e-07
1417534258719596,1417534258657106,-8.701880e-06,3.149968e-06,7.919151e-06,6.229345e-06,6.200121e-06,9.928692e-07
1417534258782085,1417534258719596,1.180695e-05,6.598406e-06,1.720981e-05,1.235218e-05,6.526620e-06,2.905036e-06
1417534258844575,1417534258782085,-9.435321e-06,3.539389e-06,6.305265e-06,7.475529e-06,7.540395e-07,2.289270e-06
1417534258907065,1417534258844575,2.892569e-05,6.996092e-07,6.779228e-07,-1.076107e-05,-1.982469e-07,-2.262778e-06
1417534258969556,1417534258907065,1.123668e-04,-2.875734e-05,5.367283e-05,6.209612e-06,1.448992e-06,1.779243e-06
1417534259032044,1417534258969556,-7.235110e-05,9.272771e-07,-2.886477e-05,-1.749024e-05,-2.941900e-06,-2.548025e-06
1417534259094534,1417534259032044,4.366073e-05,-4.130089e-05,2.393509e-05,-2.011787e-06,6.266786e-06,7.919510e-06
1417534259157023,1417534259094534,7.350056e-05,3.114772e-05,7.200051e-06,9.059127e-06,-5.459334e-06,-4.990096e-06
1417534259219513,1417534259157023,5.177832e-05,-1.423255e-05,-2.582193e-06,1.760167e-05,-1.030619e-05,5.624457e-07
1417534259282002,1417534259219513,7.554278e-05,3.745103e-05,2.761926e-05,1.687005e-05,1.899009e-06,-1.273575e-06
1417534259344492,1417534259282002,-3.851411e-05,2.493105e-05,2.096750e-06,1.385513e-05,6.207832e-06,-2.933755e-06
1417534259406982,1417534259344492,-2.860063e-05,7.537380e-06,2.191885e-06,8.426968e-06,1.096179e-05,8.380701e-06
1417534259469471,1417534259406982,-1.314476e-04,-3.611289e-05,-5.091094e-05,1.351381e-05,-1.009725e-05,5.912031e-06
1417534259531962,1417534259469471,-7.643967e-05,1.442615e-05,-9.682555e-06,-2.660128e-05,-1.309596e-05,-1.064029e-05
1417534259594451,1417534259531962,9.278984e-05,-1.844969e-05,2.431508e-05,-1.274853e-06,6.330804e-07,-1.330092e-06
1417534259656940,1417534259594451,-5.828742e-06,-5.388554e-06,8.158808e-06,-4.088593e-07,1.039851e-05,5.547605e-06
1417534259719431,1417534259656940,8.363136e-05,2.446004e-05,2.554041e-05,6.846981e-06,2.467047e-06,5.269801e-06
1417534259781918,1417534259719431,-3.081379e-05,3.177722e-06,-2.921755e-05,2.188279e-05,-1.224467e-05,8.117928e-07
1417534259844408,1417534259781918,-1.653472e-04,6.761551e-05,-6.956590e-05,1.314167e-05,-8.085634e-06,1.331610e-06
1417534259906898,1417534259844408,4.678292e-05,-2.383912e-05,3.485518e-05,-8.928581e-06,7.016777e-06,6.773989e-06
1417534259969388,1417534259906898,-8.979465e-05,3.530051e-05,-9.622312e-06,-1.040651e-05,5.162029e-06,-4.599858e-07
1417534260031877,1417534259969388,-4.670344e-05,-3.445289e-06,-8.172192e-06,-1.420741e-05,2.624040e-07,-1.251025e-07
1417534260094367,1417534260031877,5.990818e-05,2.963366e-05,1.481850e-05,-2.351426e-05,-5.024994e-06,-1.150084e-05
1417534260156856,1417534260094367,1.062338e-04,-4.684328e-05,3.660650e-05,2.808680e-06,5.864360e-06,7.883021e-06
1417534260219348,1417534260156856,9.839375e-06,1.873281e-05,-1.032315e-05,1.676380e-05,-4.042797e-06,1.120329e-06
1417534260281836,1417534260219348,-4.445251e-05,-8.872557e-06,-1.126766e-05,3.184037e-06,2.546298e-06,5.748052e-06
1417534260344326,1417534260281836,8.731074e-05,2.791984e-06,5.739612e-05,1.747790e-05,1.751804e-05,-2.130167e-07
1417534260406815,1417534260344326,1.659169e-04,-7.094589e-05,7.362879e-05,3.289198e-07,1.146823e-05,9.904607e-06
1417534260469304,1417534260406815,1.118206e-04,-5.480268e-05,1.021942e-05,-5.727037e-05,-2.181451e-05,1.855223e-06
1417534260531794,1417534260469304,5.168032e-06,-5.013135e-05,1.826112e-05,-7.047076e-06,-2.740600e-06,1.081036e-06
1417534260594285,1417534260531794,1.587807e-05,-8.438833e-06,1.598137e-06,-1.421237e-05,1.286850e-05,6.158303e-06
1417534260656773,1417534260594285,-3.265017e-05,3.033645e-05,3.093331e-05,3.150842e-05,2.451716e-05,-9.988512e-06
1417534260719263,1417534260656773,-4.652443e-05,7.358056e-05,2.083909e-05,8.572113e-06,-4.293030e-06,1.055044e-07
1417534260781752,1417534260719263,8.832926e-06,-2.073940e-05,-3.266013e-05,3.963559e-05,-2.231484e-05,-1.210024e-06
1417534260844241,1417534260781752,-2.777471e-05,-2.472320e-05,-7.917640e-06,1.486641e-06,-2.452904e-06,7.534620e-06
1417534260906731,1417534260844241,4.484478e-05,-2.693146e-05,1.980094e-05,-2.814614e-05,4.682894e-06,7.560703e-07
1417534260969222,1417534260906731,1.101337e-05,6.909242e-06,5.824911e-05,-5.453393e-05,1.792157e-05,-1.508339e-05
1417534261031711,1417534260969222,-3.154999e-05,3.848084e-05,1.469981e-05,-1.615310e-05,1.546945e-05,-8.068798e-08
1417534261094202,1417534261031711,-2.043647e-05,-8.272305e-06,4.794098e-06,4.423632e-05,1.003085e-07,1.866797e-05
1417534261156692,1417534261094202,1.958035e-08,1.597508e-05,-4.738860e-05,6.130403e-05,-2.673900e-05,2.576692e-06
1417534261219179,1417534261156692,9.192181e-05,1.498426e-05,2.217966e-05,1.445050e-05,-4.441545e-06,-3.395876e-06
1417534261281669,1417534261219179,-7.687140e-05,7.517105e-06,-1.802483e-05,-3.298026e-05,5.528902e-06,-3.383092e-06
1417534261344158,1417534261281669,4.187159e-05,-1.483530e-05,4.392781e-05,-7.562430e-06,1.807370e-05,1.753409e-06
1417534261406647,1417534261344158,3.088485e-05,-6.023320e-05,1.328820e-05,-2.346531e-05,-2.650810e-06,4.617161e-07
1417534261469138,1417534261406647,-3.599420e-05,1.844732e-05,-3.661036e-05,-5.242863e-05,-2.635478e-05,-4.045742e-06
1417534261531629,1417534261469138,7.443929e-06,-1.108031e-05,3.578415e-06,2.251513e-05,2.334648e-06,3.094637e-06
1417534261594118,1417534261531629,1.790263e-05,2.754615e-05,7.412806e-06,3.875563e-05,1.697482e-05,5.476809e-06
1417534261656608,1417534261594118,2.443124e-05,-1.324462e-06,3.667372e-05,-2.748496e-05,1.232650e-05,-3.965314e-06
1417534261719099,1417534261656608,3.903778e-04,3.931220e-05,1.529068e-04,1.318103e-05,4.008708e-06,-4.794275e-06
1417534261781587,1417534261719099,-1.187744e-05,6.012841e-06,-4.059078e-05,-5.910733e-08,-1.933088e-05,-9.963146e-07
1417534261844076,1417534261781587,7.990550e-05,-1.717668e-05,3.738439e-05,-1.623681e-05,1.996840e-06,-9.393245e-07
1417534261906565,1417534261844076,-6.739271e-05,-3.993456e-05,-1.646970e-05,-1.395281e-05,1.073634e-05,1.123065e-05
1417534261969056,1417534261906565,6.184869e-05,-1.186466e-04,5.044056e-05,1.383971e-05,1.236905e-05,1.050088e-05
1417534262031547,1417534261969056,-3.291982e-05,-2.727495e-05,-1.152049e-05,-1.642788e-05,-4.464819e-06,6.062770e-06
1417534262094036,1417534262031547,-7.564230e-05,-3.612880e-05,-4.644952e-05,4.703015e-06,-9.358021e-06,5.140928e-06
1417534262156526,1417534262094036,-1.779901e-05,-1.906656e-05,-9.739849e-06,-1.659048e-05,-4.954808e-06,-2.515477e-06
1417534262219030,1417534262156526,-7.572083e-05,7.084947e-06,-8.303661e-06,8.772941e-07,5.758235e-06,-4.608634e-06
1417534262281507,1417534262219030,-1.572066e-05,-1.196800e-06,1.021920e-06,1.304750e-06,5.669657e-06,-1.873138e-06
1417534262343997,1417534262281507,-5.654683e-05,-4.855835e-06,-1.386212e-05,1.055162e-05,-5.822759e-06,-1.415513e-06
1417534262406487,1417534262343997,-1.194130e-05,-8.150820e-06,-1.769924e-05,-7.879182e-06,-1.089562e-05,6.143041e-06
1417534262531478,1417534262406487,1.208882e-05,6.965367e-06,-4.856102e-06,1.065836e-05,-1.004885e-05,-6.636949e-07
1417534262593967,1417534262531478,-4.067186e-05,-8.744525e-06,-7.774379e-06,2.909693e-08,3.158333e-06,-5.487374e-07
1417534262656457,1417534262593967,-2.612189e-05,1.670490e-05,1.972143e-06,1.950547e-05,1.361976e-06,3.201517e-06
1417534262718948,1417534262656457,8.585282e-06,-9.102378e-06,8.208570e-07,-6.674616e-06,-2.360856e-06,-2.806862e-06
1417534262781438,1417534262718948,-2.329543e-05,8.057242e-07,-1.517165e-05,5.858192e-06,-6.520098e-06,7.533427e-07
1417534262906428,1417534262781438,5.067068e-05,1.080034e-05,3.513218e-05,-2.574741e-06,5.162009e-06,2.066496e-06
1417534262968917,1417534262906428,-7.358325e-05,-1.644645e-05,-2.504190e-05,-3.351704e-06,2.758826e-06,6.282023e-06
1417534263031408,1417534262968917,6.174913e-05,-9.540285e-07,2.114657e-05,-3.210325e-06,7.025508e-07,1.161226e-06
1417534263093899,1417534263031408,-1.989129e-04,-3.108635e-05,-9.955152e-05,-5.936183e-06,-1.547191e-05,3.340392e-06
1417534263156389,1417534263093899,6.090500e-05,4.624979e-05,-4.416213e-07,-1.229369e-06,-4.592889e-07,1.580931e-06
1417534263218892,1417534263156389,4.687478e-05,-7.583408e-06,3.823227e-05,-3.730116e-06,7.742664e-06,-1.182814e-06
1417534263343868,1417534263218892,8.213516e-06,1.090924e-05,5.933543e-06,-1.728810e-05,2.746906e-06,-5.011171e-06
1417534263406359,1417534263343868,1.081573e-04,3.021260e-05,-7.562936e-06,-4.351901e-06,-3.028271e-06,-4.126924e-06
1417534263468848,1417534263406359,6.308764e-06,1.950894e-05,-1.621315e-07,1.256566e-05,-6.698854e-06,-1.612617e-06
1417534263531339,1417534263468848,-5.726928e-05,-7.284047e-06,-2.069750e-05,1.027812e-05,-9.434970e-07,-1.849649e-07
1417534263593829,1417534263531339,1.341623e-05,6.815821e-06,1.669985e-05,1.188797e-05,9.640640e-06,4.573105e-06
1417534263656319,1417534263593829,9.937409e-05,9.812855e-06,4.574064e-05,6.524952e-06,9.287849e-06,4.047926e-06
1417534263781309,1417534263656319,-2.198291e-05,-2.301070e-05,-7.738974e-06,-4.002510e-06,-1.114059e-05,-7.389161e-07
1417534263843799,1417534263781309,1.085212e-05,-4.503747e-07,-4.297992e-06,-4.141211e-06,-3.992871e-06,4.339005e-07
1417534263906289,1417534263843799,-3.988371e-05,-5.641595e-06,-2.053596e-05,-9.801943e-06,5.199549e-07,1.002228e-06
1417534263968779,1417534263906289,6.253462e-05,-3.995058e-05,3.068198e-05,8.256619e-06,5.641416e-06,6.839540e-06
1417534264031269,1417534263968779,-9.988767e-05,1.195344e-05,-5.483597e-05,1.126712e-05,-9.262547e-06,-7.813475e-06
1417534264093759,1417534264031269,6.058710e-05,-7.434548e-06,3.036384e-05,1.350632e-05,-7.486539e-07,-2.092684e-06
1417534264218749,1417534264093759,-9.290686e-06,-1.517772e-05,2.691835e-06,-7.707459e-06,1.259711e-06,9.495927e-06
1417534264281240,1417534264218749,-2.068633e-05,3.307851e-07,7.253281e-06,-1.897233e-06,5.869597e-06,-2.746761e-06
1417534264343730,1417534264281240,7.744916e-13,-6.430551e-13,4.081180e-13,-3.533285e-14,1.711825e-14,2.738716e-14
1417534264406233,1417534264343730,-2.412000e-05,-1.876986e-05,-4.829282e-06,1.436663e-06,-4.435242e-06,4.442030e-06
1417534264468710,1417534264406233,9.093602e-05,-1.613448e-05,2.296806e-05,8.675841e-06,-5.122725e-06,1.046726e-05
1417534264531201,1417534264468710,-8.584728e-05,9.760358e-06,-4.963814e-05,-6.665307e-06,-4.861134e-06,4.598755e-07
1417534264593691,1417534264531201,-2.285501e-05,-1.453934e-05,-1.064116e-05,-1.308520e-05,2.213901e-06,6.123596e-06
1417534264718681,1417534264593691,-6.458428e-06,3.307167e-07,1.789379e-06,-7.340574e-06,-1.988246e-06,-4.953777e-06
1417534264781170,1417534264718681,8.163943e-05,-1.263073e-05,3.985992e-05,2.423237e-06,6.479123e-06,1.325787e-06
1417534264843661,1417534264781170,-3.680575e-05,1.097628e-04,-5.039240e-06,1.682228e-05,-4.335447e-06,-3.935171e-06
1417534264906151,1417534264843661,2.481164e-05,-1.330684e-06,1.753074e-05,4.933071e-06,3.028832e-06,1.273128e-06
1417534264968641,1417534264906151,-9.324651e-06,-1.766597e-05,-7.038948e-06,-3.906079e-06,-2.828810e-06,2.041966e-07
1417534265031131,1417534264968641,-5.336745e-05,-1.033427e-05,-1.397196e-05,-2.920613e-07,3.544211e-06,-1.994682e-06
1417534265156121,1417534265031131,-9.667652e-05,2.035926e-05,-7.211650e-05,-2.150643e-06,-1.577681e-05,-6.295834e-07
1417534265218611,1417534265156121,7.611582e-07,-2.008659e-05,-9.299284e-06,9.266791e-06,-1.406321e-06,3.858394e-06
1417534265281101,1417534265218611,8.903941e-06,1.059911e-05,9.214535e-06,-9.719680e-06,-4.663027e-07,-4.496224e-06
1417534265343592,1417534265281101,-2.396165e-05,6.745659e-06,-3.867180e-06,4.939826e-06,2.845049e-06,-2.727855e-07
1417534265406081,1417534265343592,3.685258e-05,-3.332277e-05,2.556858e-05,-3.295408e-06,7.955827e-06,1.990101e-06
1417534265468572,1417534265406081,3.917497e-05,1.099686e-06,-2.020998e-06,-6.982937e-06,-4.015860e-06,4.412499e-06
1417534265593562,1417534265468572,1.381530e-04,-2.983724e-05,5.548268e-05,-8.851751e-06,9.428685e-06,-2.159749e-06
1417534265656052,1417534265593562,-3.834634e-06,-1.889281e-05,-1.292604e-05,-5.635772e-06,6.656257e-07,7.903603e-07
1417534265718542,1417534265656052,-4.540611e-05,3.835847e-07,-1.681671e-05,5.868389e-06,-1.053659e-07,4.330066e-06
1417534265781032,1417534265718542,-8.009666e-05,-2.521410e-05,-5.929207e-06,-3.635281e-06,1.246012e-06,7.004909e-06
1417534265843522,1417534265781032,2.655212e-05,-2.799256e-06,2.234095e-06,8.675820e-06,-2.516093e-06,2.904485e-06
1417534265906012,1417534265843522,2.018163e-05,1.041086e-05,-3.323931e-08,1.474093e-05,-4.678547e-06,3.332019e-06
1417534266031002,1417534265906012,-4.092116e-06,-6.832507e-06,-1.905968e-05,-1.356493e-05,-3.343935e-06,-3.672781e-06
1417534266093492,1417534266031002,8.328627e-05,5.219002e-05,2.457953e-05,9.549852e-06,2.298984e-07,-4.359305e-06
1417534266155983,1417534266093492,-5.909487e-05,-2.240655e-05,-2.083112e-05,-4.537516e-06,-1.387274e-06,8.195007e-06
1417534266218473,1417534266155983,-5.254423e-05,-5.590148e-06,-1.339741e-05,1.113828e-05,-4.596217e-06,-9.427389e-07
1417534266280962,1417534266218473,7.428713e-08,1.549350e-04,1.745036e-05,-4.999139e-06,2.381983e-06,-1.853617e-05
1417534266343453,1417534266280962,-2.543487e-05,4.623082e-05,-4.744623e-06,-4.137338e-06,1.960179e-07,-5.328770e-06
1417534266468443,1417534266343453,-1.018333e-05,-9.099375e-06,-2.298197e-05,3.325008e-06,-2.276724e-06,5.212601e-06
1417534266530933,1417534266468443,6.234933e-05,-1.952011e-05,3.266138e-05,-7.755145e-07,7.366587e-06,2.507598e-06
1417534266593423,1417534266530933,4.295257e-05,1.596845e-06,1.945858e-05,-8.058772e-06,2.877374e-06,4.514323e-07
1417534266655913,1417534266593423,5.858645e-05,2.679139e-05,7.797680e-06,3.661601e-05,-1.144912e-05,6.015932e-06
1417534266718403,1417534266655913,4.844032e-05,2.749915e-05,-3.946887e-05,5.380087e-05,-3.923283e-05,4.874649e-06
1417534266780893,1417534266718403,9.636919e-06,1.009526e-05,-7.545357e-05,7.344927e-05,-3.757443e-05,4.859338e-06
1417534266905883,1417534266780893,-1.495475e-04,-6.076438e-05,6.564109e-05,-7.825594e-05,7.464881e-05,-1.011820e-05
1417534266968373,1417534266905883,-2.667132e-04,-1.076113e-05,-3.583333e-05,-8.460377e-05,5.887927e-05,1.038013e-05
1417534267030863,1417534266968373,-5.387969e-05,-3.039970e-05,-5.697059e-06,-2.519099e-05,-3.878610e-06,-1.895297e-07
1417534267093354,1417534267030863,1.561521e-04,6.197830e-06,-3.403311e-05,-3.713562e-05,-7.346824e-05,-2.835842e-05
1417534267155844,1417534267093354,-8.420417e-05,1.736185e-06,-1.063082e-04,4.177065e-06,-5.836119e-05,-7.714758e-06
1417534267218348,1417534267155844,-1.240370e-05,-5.410990e-06,4.153922e-05,4.007758e-05,2.941713e-05,2.022750e-05
1417534267343324,1417534267218348,-1.766088e-04,-4.449000e-05,7.441228e-05,-6.000554e-06,9.121004e-05,2.916263e-05
1417534267405814,1417534267343324,7.622204e-05,1.989548e-05,-7.507779e-05,1.543853e-05,-8.868170e-05,-1.272385e-05
1417534267468304,1417534267405814,5.596845e-05,7.937334e-05,-1.220846e-04,1.738846e-05,-9.212411e-05,-2.191926e-05
1417534267530795,1417534267468304,-1.901854e-05,-3.251736e-05,1.122459e-06,1.108858e-05,-2.454673e-06,3.031898e-06
1417534267593285,1417534267530795,-5.428039e-05,7.262562e-05,7.775571e-05,8.154588e-05,7.653498e-05,1.080318e-05
1417534267655774,1417534267593285,4.013209e-05,6.786769e-05,7.813584e-05,6.731649e-05,6.765463e-05,1.927486e-06
1417534267718265,1417534267655774,-4.484048e-05,3.404493e-06,-4.055284e-05,2.742914e-05,-1.061088e-05,-6.809771e-06
1417534267843255,1417534267718265,-8.474015e-05,-4.864171e-05,-4.853977e-05,-6.606820e-05,-2.076086e-05,-8.752539e-06
1417534267905746,1417534267843255,-1.402892e-04,-4.499460e-05,-2.590966e-05,-1.104671e-04,1.234417e-05,-7.401845e-06
1417534267968235,1417534267905746,5.150180e-05,4.183207e-07,2.962601e-05,-5.490417e-06,3.942714e-06,4.343583e-06
1417534268030725,1417534267968235,7.162834e-05,1.588898e-05,2.258725e-05,1.350103e-05,-1.117320e-05,2.016797e-06
1417534268093215,1417534268030725,-3.395940e-05,1.191389e-05,-2.424819e-05,2.527480e-05,-1.215496e-05,-6.566427e-07
1417534268155702,1417534268093215,-1.095050e-05,-3.682622e-05,9.746946e-06,8.086754e-05,8.816509e-06,2.414445e-05
1417534268280693,1417534268155702,5.592009e-06,-2.905484e-05,1.444159e-05,-6.140445e-05,1.119539e-05,-5.288023e-06
1417534268343184,1417534268280693,3.515002e-05,-1.790200e-06,1.514187e-05,-1.844004e-05,1.283205e-06,-1.378809e-07
1417534268405671,1417534268343184,4.604204e-06,-4.496346e-06,1.866818e-05,-5.585288e-05,1.276262e-05,-3.960536e-07
1417534268468162,1417534268405671,2.970884e-05,-2.601440e-05,9.406669e-06,-1.546643e-05,-2.656611e-06,5.996897e-06
1417534268530652,1417534268468162,-2.283524e-05,4.334887e-05,-7.940988e-06,8.481094e-05,2.977330e-06,1.146646e-05
1417534268593142,1417534268530652,4.351775e-05,2.384194e-05,1.638414e-05,3.576916e-05,1.018613e-05,5.455581e-06
1417534268718130,1417534268593142,-5.835330e-05,-1.128774e-05,-6.426775e-05,1.408630e-05,-3.649217e-05,-1.087339e-05
1417534268780619,1417534268718130,1.257258e-06,6.835678e-07,1.185608e-05,-2.605234e-05,1.033180e-05,1.811496e-06
1417534268843107,1417534268780619,-1.127996e-04,3.363942e-06,-1.932184e-05,-2.877256e-05,1.633816e-05,-2.294076e-07
1417534268905597,1417534268843107,-2.983289e-05,3.795980e-06,-2.679210e-05,1.964971e-05,-9.094847e-06,-6.006342e-06
1417534268968085,1417534268905597,-1.064031e-05,6.502794e-06,-1.773357e-05,2.206778e-05,-1.255712e-05,-5.752975e-06
1417534269093075,1417534268968085,-1.734215e-05,1.242062e-06,-2.223325e-05,2.447770e-05,-1.033668e-05,1.517867e-05
1417534269155565,1417534269093075,4.259739e-05,-7.708061e-05,-1.509827e-05,-2.372175e-05,-1.319867e-05,1.523907e-06
1417534269218054,1417534269155565,2.395031e-05,6.376170e-06,3.659268e-05,-4.493522e-06,7.587089e-06,-7.164216e-06
1417534269280544,1417534269218054,3.313515e-05,1.426768e-05,-2.223926e-06,9.621202e-06,-3.989868e-08,-2.416093e-07
1417534269343034,1417534269280544,1.876244e-05,-4.553777e-06,-5.166056e-06,-1.448181e-05,-1.455769e-05,-3.282281e-06
1417534269468024,1417534269343034,3.049924e-05,1.352680e-05,1.045981e-04,-3.942493e-05,6.294175e-05,-1.326624e-05
1417534269530512,1417534269468024,1.116413e-05,-4.429329e-05,5.891423e-05,-2.480697e-05,1.701176e-05,1.137019e-05
1417534269593002,1417534269530512,-3.581985e-05,-2.065958e-05,-8.847164e-05,-8.291031e-06,-4.257647e-05,9.255171e-06
1417534269655492,1417534269593002,6.199953e-05,-1.098970e-05,-1.755195e-05,-1.802710e-05,-3.093946e-05,-5.587813e-06
1417534269780483,1417534269655492,2.506128e-04,1.313218e-04,1.701223e-04,1.373834e-04,7.042080e-05,-6.412759e-06
1417534269842972,1417534269780483,3.526692e-05,-3.666329e-06,2.540822e-05,6.619580e-06,1.063525e-05,1.524615e-05
1417534269905461,1417534269842972,-1.385157e-04,2.699846e-05,-7.596444e-05,-8.007216e-06,-2.518822e-05,4.270184e-06
1417534269967950,1417534269905461,3.776503e-05,2.857364e-05,-2.180492e-05,1.036355e-08,-2.951587e-05,-2.283223e-05
1417534270092940,1417534269967950,-1.081948e-05,-3.062126e-05,4.703368e-06,-9.993893e-05,-4.144268e-07,-1.113964e-05
1417534270155429,1417534270092940,1.301558e-05,-1.462525e-05,1.460146e-06,5.297842e-06,1.071539e-05,1.249256e-05
1417534270217919,1417534270155429,-6.762273e-05,4.098719e-05,-3.211509e-05,6.386063e-05,-1.227072e-05,1.247539e-05
1417534270280409,1417534270217919,4.013751e-05,4.489042e-06,1.757589e-05,1.871269e-05,-9.446831e-06,-1.226071e-05
1417534270405398,1417534270280409,-6.052706e-05,-3.383392e-05,3.770284e-05,-3.045083e-05,4.161164e-05,3.549093e-06
1417534270467887,1417534270405398,-3.952509e-05,-2.100708e-05,2.320015e-05,-5.332093e-05,2.381435e-05,5.830569e-06
1417534270530377,1417534270467887,5.682327e-05,-2.757857e-06,1.998712e-05,-2.964872e-07,-1.994950e-06,-5.896750e-07
1417534270592868,1417534270530377,6.771005e-05,5.494054e-05,-3.912760e-06,3.063536e-05,-2.938090e-05,-2.152307e-05
1417534270717858,1417534270592868,-2.395451e-05,1.925811e-05,-1.487787e-05,8.703998e-05,8.177267e-07,3.348051e-05
1417534270780346,1417534270717858,-5.144129e-05,-1.516347e-05,-1.589134e-06,-5.162307e-07,9.098717e-06,3.599634e-06
1417534270842836,1417534270780346,3.786598e-05,-1.206695e-05,3.346585e-06,-8.364623e-05,-1.361884e-05,-1.990652e-05
1417534270905325,1417534270842836,1.530258e-05,2.393658e-06,-1.346988e-05,-9.317056e-06,-1.191508e-05,-2.624172e-05
1417534270967817,1417534270905325,-6.614846e-05,-4.996035e-05,-2.881191e-05,-2.429870e-05,-5.856677e-06,9.537803e-06
1417534271092807,1417534270967817,-3.241072e-05,-3.579296e-05,1.957698e-05,8.850909e-05,2.095059e-05,3.884647e-05
1417534271155295,1417534271092807,-9.114136e-05,1.932121e-05,-3.736398e-05,1.634599e-05,1.475667e-06,-3.280460e-06
1417534271217788,1417534271155295,-2.318120e-05,2.116448e-05,-2.376450e-05,-2.623922e-06,-7.909771e-06,-1.427642e-05
1417534271280276,1417534271217788,1.763002e-05,-1.810520e-05,8.911930e-06,-2.413277e-05,-1.841147e-06,1.286838e-05
1417534271342763,1417534271280276,8.814984e-05,-2.510817e-05,3.945926e-05,-2.488037e-05,-1.265270e-06,1.787058e-07
1417534271467752,1417534271342763,1.663005e-05,1.111702e-06,2.978996e-05,-3.009093e-05,1.960578e-05,-2.079789e-05
1417534271530246,1417534271467752,1.344622e-05,-5.864021e-06,1.821472e-05,-1.551190e-06,1.077467e-05,1.088006e-05
1417534271592732,1417534271530246,2.758983e-06,-2.054496e-05,-4.749577e-05,6.016277e-05,-1.794584e-05,2.267234e-05
1417534271655223,1417534271592732,3.217132e-05,5.649284e-06,-1.940417e-05,-1.581364e-05,-2.033499e-05,-5.967022e-06
1417534271780215,1417534271655223,2.711642e-05,-7.772659e-06,4.528763e-05,-3.966155e-05,3.378600e-05,-1.403502e-05
1417534271842703,1417534271780215,3.063747e-05,-4.342666e-05,2.835992e-05,-4.235415e-05,4.059755e-06,1.397483e-05
1417534271905197,1417534271842703,7.270808e-05,-3.345485e-05,1.514564e-05,-3.021537e-05,-1.579286e-05,1.377593e-06
1417534271967683,1417534271905197,6.641015e-05,4.363178e-05,2.738202e-05,4.207513e-05,-4.293902e-06,-1.231355e-05
1417534272092673,1417534271967683,-3.511333e-05,-1.624463e-05,-1.748199e-05,2.483644e-06,3.680175e-06,5.899332e-06
1417534272155165,1417534272092673,7.231150e-05,1.484092e-05,4.767751e-05,3.842153e-05,6.642710e-06,5.508342e-06
1417534272217657,1417534272155165,4.223077e-06,-1.088330e-05,1.444806e-05,-2.732271e-05,4.591238e-06,-5.024676e-06
1417534272280143,1417534272217657,3.152322e-05,-2.248744e-05,1.826264e-05,-6.493555e-05,-5.193052e-06,-1.328510e-05
1417534272342635,1417534272280143,1.588012e-05,-4.565783e-06,1.889459e-05,4.507372e-05,8.237747e-07,1.401350e-05
1417534272467625,1417534272342635,1.257425e-04,1.141309e-05,1.011143e-04,1.023215e-04,8.165918e-05,9.151145e-05
1417534272530116,1417534272467625,-6.918845e-05,-2.193992e-04,6.109480e-05,-5.147940e-05,6.091962e-05,1.571416e-04
1417534272592606,1417534272530116,-1.511786e-04,-3.797813e-04,2.273535e-04,-1.530264e-04,2.665309e-04,3.260479e-04
1417534272655096,1417534272592606,2.259455e-03,4.245652e-04,-1.860481e-04,-1.049568e-04,2.173224e-04,3.049462e-04
1417534272717584,1417534272655096,2.209885e-03,4.375223e-04,-5.811060e-04,-9.998442e-05,8.765199e-05,3.072947e-04
1417534272842574,1417534272717584,8.688578e-03,1.592102e-03,-8.582811e-04,-1.032787e-05,1.391285e-04,9.515785e-04
1417534272905066,1417534272842574,5.670335e-03,1.011553e-03,-3.154236e-04,8.078627e-05,1.157571e-04,7.925085e-04
1417534272967556,1417534272905066,6.761183e-03,1.246183e-03,-7.510738e-04,1.476464e-04,9.494582e-05,9.064005e-04
1417534273030044,1417534272967556,7.927799e-03,1.608858e-03,-9.146552e-04,7.092593e-05,7.688405e-05,9.384740e-04
1417534273092548,1417534273030044,9.202853e-03,1.616618e-03,8.818290e-05,9.215579e-05,1.754303e-04,9.233606e-04
1417534273155024,1417534273092548,9.222004e-03,1.337795e-03,-6.841321e-04,6.021534e-05,1.208685e-04,1.042714e-03
1417534273280016,1417534273155024,2.117554e-02,4.164856e-03,-1.646169e-03,1.589323e-04,3.249399e-04,2.370861e-03
1417534273342505,1417534273280016,1.153008e-02,2.320570e-03,-1.411780e-03,8.533797e-05,1.234255e-04,1.371620e-03
1417534273404996,1417534273342505,1.285434e-02,2.325238e-03,-7.075356e-04,1.781861e-04,8.779293e-05,1.436975e-03
1417534273467486,1417534273404996,1.345511e-02,2.667788e-03,-8.893753e-04,1.904363e-04,8.274030e-05,1.470232e-03
1417534273529975,1417534273467486,1.460941e-02,2.580147e-03,-1.083571e-03,2.036799e-04,1.968946e-04,1.547560e-03
1417534273592466,1417534273529975,1.450614e-02,2.356821e-03,-1.175827e-03,5.527170e-05,2.376903e-04,1.677017e-03
1417534273717455,1417534273592466,3.333485e-02,5.308083e-03,-2.909773e-03,8.595959e-05,2.917561e-04,3.665427e-03
1417534273779945,1417534273717455,1.795119e-02,3.450626e-03,-1.438698e-03,5.402154e-05,1.492002e-04,1.860767e-03
1417534273842436,1417534273779945,1.931190e-02,3.052181e-03,-1.122294e-03,7.488967e-05,2.165917e-04,1.873999e-03
1417534273904924,1417534273842436,2.041313e-02,3.274545e-03,-1.166685e-03,1.098097e-04,1.805138e-04,1.901456e-03
1417534273967417,1417534273904924,2.070581e-02,3.340147e-03,-1.548744e-03,1.399115e-04,1.537617e-04,1.979445e-03
1417534274029905,1417534273967417,2.209956e-02,3.598778e-03,-1.446959e-03,1.670702e-04,1.435591e-04,2.069971e-03
1417534274154895,1417534274029905,4.577271e-02,7.254043e-03,-3.176589e-03,2.972719e-04,3.940796e-04,4.422260e-03
1417534274217387,1417534274154895,2.447482e-02,3.324347e-03,-1.855403e-03,1.740255e-05,2.496859e-04,2.276532e-03
1417534274279890,1417534274217387,2.568389e-02,3.708680e-03,-1.406121e-03,-2.294597e-05,4.507823e-04,2.281592e-03
1417534274342380,1417534274279890,2.677745e-02,3.924587e-03,-1.992953e-03,2.238487e-05,6.154339e-04,2.469131e-03
1417534274404856,1417534274342380,2.945583e-02,4.280264e-03,-2.036006e-03,1.182537e-04,7.417926e-04,2.635028e-03
1417534274467345,1417534274404856,3.309540e-02,4.758854e-03,-1.982696e-03,2.297392e-04,7.575204e-04,2.669638e-03
1417534274592336,1417534274467345,7.575200e-02,1.043181e-02,-4.492888e-03,6.407173e-04,1.309062e-03,5.341510e-03
1417534274654826,1417534274592336,4.218448e-02,4.654141e-03,-2.663427e-03,1.105871e-04,5.037515e-04,2.794068e-03
1417534274717316,1417534274654826,4.676351e-02,5.418198e-03,-1.977603e-03,9.416743e-05,5.184364e-04,2.965031e-03
1417534274779806,1417534274717316,4.886223e-02,5.767442e-03,-2.671338e-03,2.347753e-04,5.294493e-04,3.201278e-03
1417534274842298,1417534274779806,5.271660e-02,6.083181e-03,-2.506617e-03,3.583886e-04,7.132962e-04,3.341995e-03
1417534274904786,1417534274842298,5.494219e-02,6.739777e-03,-3.228963e-03,4.875764e-04,7.547517e-04,3.333633e-03
1417534275029776,1417534274904786,1.206491e-01,1.445866e-02,-6.193318e-03,1.986633e-03,1.443866e-03,6.748038e-03
1417534275092266,1417534275029776,6.487733e-02,6.926706e-03,-3.177943e-03,1.168228e-03,5.301251e-04,3.258703e-03
1417534275154757,1417534275092266,6.862211e-02,6.564305e-03,-3.017412e-03,6.707573e-04,4.152437e-04,3.141588e-03
1417534275217248,1417534275154757,7.115030e-02,6.175127e-03,-3.479572e-03,8.937738e-04,2.794363e-04,2.906877e-03
1417534275279737,1417534275217248,7.488933e-02,5.832235e-03,-3.167474e-03,9.594118e-04,2.610442e-04,2.551098e-03
1417534275342226,1417534275279737,7.827451e-02,4.961241e-03,-3.503400e-03,7.758212e-04,2.815419e-04,2.381206e-03
1417534275467217,1417534275342226,1.651581e-01,9.352557e-03,-6.827249e-03,8.026705e-04,6.946590e-04,4.932128e-03
1417534275529715,1417534275467217,8.675057e-02,3.729496e-03,-3.485472e-03,-3.796493e-04,2.905755e-04,2.713328e-03
1417534275592215,1417534275529715,8.852097e-02,3.601226e-03,-5.108592e-03,-5.324958e-04,6.258866e-05,2.467756e-03
1417534275654705,1417534275592215,9.177611e-02,2.698938e-03,-4.670430e-03,-3.413148e-04,1.342853e-04,2.060888e-03
1417534275717206,1417534275654705,9.394053e-02,3.890924e-03,-5.849725e-03,-3.205366e-04,1.554351e-04,1.694111e-03
1417534275779704,1417534275717206,9.637092e-02,2.759412e-03,-5.608440e-03,-7.302228e-04,1.547105e-04,2.027637e-03
1417534275904707,1417534275779704,2.009490e-01,7.186365e-03,-1.036798e-02,-1.523158e-03,-2.157333e-04,5.238899e-03
1417534275967191,1417534275904707,1.052407e-01,4.040626e-03,-4.777358e-03,-2.353528e-04,-3.751458e-04,2.805129e-03
1417534276029690,1417534275967191,1.078333e-01,3.620764e-03,-4.735674e-03,-5.779338e-04,-3.537184e-04,2.667119e-03
1417534276092182,1417534276029690,1.099038e-01,4.508836e-03,-6.034145e-03,-7.430711e-04,-1.849759e-04,2.695707e-03
1417534276154679,1417534276092182,1.126289e-01,4.842124e-03,-6.064436e-03,-4.050611e-04,-1.896769e-05,3.018765e-03
1417534276217179,1417534276154679,1.168914e-01,6.521007e-03,-5.584736e-03,3.880529e-05,-1.875490e-04,3.408960e-03
1417534276342168,1417534276217179,2.403974e-01,1.442624e-02,-1.087676e-02,5.467489e-04,-1.250846e-03,7.713105e-03
1417534276404669,1417534276342168,1.249822e-01,7.659631e-03,-5.708803e-03,1.937195e-04,-8.357818e-04,3.977242e-03
1417534276467166,1417534276404669,1.271384e-01,7.689235e-03,-7.849902e-03,-1.102623e-05,-4.386860e-04,4.120741e-03
1417534276529656,1417534276467166,1.289378e-01,6.538027e-03,-8.877734e-03,-6.369992e-04,2.288313e-04,4.497439e-03
1417534276592154,1417534276529656,1.296500e-01,6.152951e-03,-8.461467e-03,-1.390774e-03,4.945349e-04,4.647466e-03
1417534276654654,1417534276592154,1.331904e-01,4.666455e-03,-9.056099e-03,-1.879963e-03,2.541290e-04,4.770709e-03
1417534276717145,1417534276654654,1.359035e-01,4.243785e-03,-7.708367e-03,-1.985804e-03,2.146526e-05,4.734502e-03
1417534276779644,1417534276717145,1.384895e-01,5.110526e-03,-7.427704e-03,-1.878312e-03,-2.086740e-04,4.708685e-03
1417534276842141,1417534276779644,1.414917e-01,6.627195e-03,-6.587748e-03,-9.401730e-04,-4.715832e-05,4.972283e-03
1417534276904631,1417534276842141,1.416153e-01,8.005862e-03,-8.057569e-03,-7.312290e-04,5.781661e-04,5.668640e-03
1417534276967121,1417534276904631,1.437847e-01,9.182049e-03,-8.281834e-03,-1.543963e-03,1.782707e-03,6.184368e-03
1417534277029612,1417534276967121,1.440676e-01,8.414120e-03,-9.960034e-03,-1.177021e-03,2.039121e-03,6.358061e-03
1417534277092108,1417534277029612,1.476818e-01,1.189161e-02,-9.779784e-03,2.340208e-04,9.727937e-04,6.433223e-03
1417534277154608,1417534277092108,1.520663e-01,1.145933e-02,-8.064734e-03,2.920402e-04,-1.520373e-04,7.105035e-03
1417534277217099,1417534277154608,1.554953e-01,1.278090e-02,-7.776915e-03,-4.056270e-04,-9.469061e-04,7.800933e-03
1417534277279596,1417534277217099,1.591710e-01,1.355966e-02,-8.355840e-03,1.844485e-04,-1.250049e-03,8.367251e-03
1417534277342097,1417534277279596,1.605054e-01,1.478031e-02,-8.114642e-03,1.167879e-03,-6.748102e-04,8.647593e-03
1417534277404586,1417534277342097,1.639948e-01,1.460209e-02,-8.005565e-03,1.439562e-04,-2.162712e-04,8.750352e-03
1417534277467084,1417534277404586,1.647722e-01,1.653655e-02,-7.086841e-03,1.910376e-04,3.885434e-04,8.869195e-03
1417534277529579,1417534277467084,1.690433e-01,1.768898e-02,-7.259854e-03,4.097662e-04,5.883922e-04,9.782789e-03
1417534277592068,1417534277529579,1.715863e-01,1.763901e-02,-7.329403e-03,2.796093e-06,2.974105e-04,1.088743e-02
1417534277654556,1417534277592068,1.762944e-01,1.917332e-02,-7.126940e-03,4.626627e-04,-5.952646e-05,1.142997e-02
1417534277717054,1417534277654556,1.790917e-01,1.913812e-02,-7.973053e-03,2.339924e-04,-8.124744e-04,1.149437e-02
1417534277779545,1417534277717054,1.816457e-01,1.916129e-02,-8.883021e-03,-4.068126e-04,-1.963295e-03,1.148639e-02
1417534277842035,1417534277779545,1.860130e-01,1.731054e-02,-8.047142e-03,-1.981865e-03,-2.468603e-03,1.207680e-02
1417534277904523,1417534277842035,1.880247e-01,1.841216e-02,-8.703037e-03,-1.957081e-03,-2.426301e-03,1.293627e-02
1417534277967012,1417534277904523,1.896695e-01,2.077409e-02,-9.849291e-03,-1.279084e-03,-2.264726e-03,1.394186e-02
1417534278029502,1417534277967012,1.933050e-01,1.999581e-02,-1.009412e-02,-2.927898e-03,-2.773865e-03,1.531061e-02
1417534278091990,1417534278029502,1.973219e-01,2.200170e-02,-1.111537e-02,-3.123970e-03,-3.367977e-03,1.597618e-02
1417534278154483,1417534278091990,1.995584e-01,2.501689e-02,-1.086901e-02,-6.473204e-04,-2.400009e-03,1.608411e-02
1417534278216970,1417534278154483,1.994657e-01,2.800383e-02,-1.191504e-02,2.781301e-04,-1.615992e-03,1.593718e-02
1417534278279461,1417534278216970,2.022171e-01,3.103645e-02,-1.095145e-02,6.474654e-04,-1.033144e-03,1.652297e-02
1417534278341950,1417534278279461,2.056938e-01,3.345541e-02,-8.408630e-03,1.026268e-03,-8.418481e-04,1.759261e-02
1417534278404449,1417534278341950,2.050968e-01,3.323628e-02,-1.119245e-02,1.268716e-03,-1.111581e-03,1.838133e-02
1417534278466948,1417534278404449,2.094172e-01,3.261553e-02,-1.091853e-02,1.401196e-03,-8.769444e-04,1.833239e-02
1417534278529437,1417534278466948,2.123261e-01,3.035444e-02,-1.149288e-02,-3.458216e-04,-6.033794e-04,1.787835e-02
1417534278591928,1417534278529437,2.166150e-01,3.059703e-02,-1.102247e-02,-9.807506e-04,-6.108052e-04,1.772938e-02
1417534278654416,1417534278591928,2.197018e-01,3.104068e-02,-1.166893e-02,-4.224669e-04,-1.236478e-03,1.825620e-02
1417534278716904,1417534278654416,2.248287e-01,3.188590e-02,-9.220890e-03,-9.825033e-05,-8.884323e-04,1.920350e-02
1417534278779393,1417534278716904,2.254522e-01,3.214451e-02,-9.654231e-03,-1.085737e-04,-5.127745e-04,1.964586e-02
1417534278841884,1417534278779393,2.294926e-01,3.280429e-02,-9.140746e-03,-1.758702e-04,-4.189394e-04,1.973942e-02
1417534278904374,1417534278841884,2.311703e-01,3.319258e-02,-1.085969e-02,-1.284009e-04,-1.126045e-03,1.945367e-02
1417534278966863,1417534278904374,2.340388e-01,3.552102e-02,-1.041079e-02,9.857040e-04,-1.312077e-03,1.904164e-02
1417534279029352,1417534278966863,2.348279e-01,3.531262e-02,-1.175612e-02,8.466098e-04,-1.531464e-03,1.915572e-02
1417534279091850,1417534279029352,2.360064e-01,3.346086e-02,-1.319421e-02,2.816693e-04,-1.324378e-03,1.981502e-02
1417534279154348,1417534279091850,2.390469e-01,3.342295e-02,-1.245572e-02,2.869038e-04,-5.900342e-04,2.046112e-02
1417534279216838,1417534279154348,2.424101e-01,3.351165e-02,-1.262339e-02,-4.592928e-04,-5.391991e-04,2.070699e-02
1417534279279339,1417534279216838,2.409529e-01,3.213155e-02,-1.294399e-02,-9.633027e-04,-8.463403e-04,2.041124e-02
1417534279341832,1417534279279339,2.414683e-01,3.153005e-02,-1.322870e-02,-3.333643e-04,-1.074813e-03,2.014830e-02
1417534279404323,1417534279341832,2.414656e-01,3.081343e-02,-1.394787e-02,-1.081468e-03,-1.075118e-03,1.989067e-02
1417534279466816,1417534279404323,2.431648e-01,3.043028e-02,-1.405742e-02,-7.122503e-04,-6.937889e-04,1.967525e-02
1417534279529307,1417534279466816,2.439834e-01,3.176797e-02,-1.309710e-02,9.924694e-04,-5.151400e-05,1.935787e-02
1417534279591794,1417534279529307,2.457460e-01,3.268555e-02,-1.381175e-02,1.093467e-03,1.784229e-04,1.871213e-02
1417534279654284,1417534279591794,2.450667e-01,3.241401e-02,-1.297243e-02,1.155180e-03,4.020628e-04,1.806742e-02
1417534279716774,1417534279654284,2.445799e-01,3.109893e-02,-1.254865e-02,1.572940e-03,3.085269e-04,1.766610e-02
1417534279779266,1417534279716774,2.459465e-01,3.034297e-02,-1.300019e-02,1.511224e-03,6.539381e-05,1.739688e-02
1417534279841753,1417534279779266,2.473449e-01,2.997327e-02,-1.290356e-02,1.640165e-03,-1.136915e-04,1.697179e-02
1417534279904243,1417534279841753,2.503941e-01,2.964468e-02,-1.357459e-02,2.339680e-03,-3.430011e-04,1.655311e-02
1417534279966732,1417534279904243,2.520567e-01,2.747120e-02,-1.314769e-02,2.204115e-03,-4.396220e-04,1.585189e-02
1417534280029219,1417534279966732,2.523293e-01,2.746569e-02,-1.392860e-02,1.955283e-03,-5.008259e-04,1.473698e-02
1417534280091710,1417534280029219,2.531914e-01,2.523838e-02,-1.452612e-02,1.361073e-03,-3.883990e-04,1.402841e-02
1417534280154200,1417534280091710,2.545355e-01,2.283920e-02,-1.379881e-02,7.999252e-04,-1.025548e-04,1.342447e-02
1417534280216691,1417534280154200,2.559503e-01,2.011866e-02,-1.468203e-02,-7.152339e-05,2.191822e-04,1.290102e-02
1417534280279182,1417534280216691,2.580607e-01,1.816930e-02,-1.498308e-02,-2.975543e-04,4.067852e-04,1.228778e-02
1417534280341669,1417534280279182,2.589696e-01,1.683914e-02,-1.604889e-02,-1.111873e-03,3.060203e-04,1.156194e-02
1417534280404157,1417534280341669,2.599391e-01,1.539462e-02,-1.575156e-02,-5.177551e-04,5.433456e-04,1.065052e-02
1417534280466647,1417534280404157,2.608124e-01,1.641351e-02,-1.488288e-02,1.759210e-03,3.434885e-04,9.738210e-03
1417534280529136,1417534280466647,2.613580e-01,1.803093e-02,-1.457891e-02,3.509296e-03,4.574774e-05,9.242637e-03
1417534280591628,1417534280529136,2.643764e-01,1.719057e-02,-1.337845e-02,1.855131e-03,1.035481e-04,9.073338e-03
1417534280654116,1417534280591628,2.655739e-01,1.426206e-02,-1.379707e-02,1.634851e-04,8.915744e-04,8.541590e-03
1417534280716606,1417534280654116,2.669334e-01,1.266521e-02,-1.440778e-02,1.372501e-03,6.172332e-04,7.769496e-03
1417534280779094,1417534280716606,2.712255e-01,1.025174e-02,-1.308759e-02,4.314072e-04,-3.142849e-04,7.182455e-03
1417534280841586,1417534280779094,2.725652e-01,7.683676e-03,-1.384916e-02,-1.188607e-03,-1.072301e-03,6.917749e-03
1417534280904076,1417534280841586,2.742268e-01,7.318425e-03,-1.397860e-02,-1.539931e-03,-6.498449e-04,6.737371e-03
1417534280966572,1417534280904076,2.748691e-01,7.573077e-03,-1.594566e-02,-9.036892e-04,-4.428140e-04,6.564676e-03
1417534281029071,1417534280966572,2.761073e-01,6.445112e-03,-1.602482e-02,-9.622433e-04,-8.456897e-04,6.455728e-03
1417534281091564,1417534281029071,2.775572e-01,8.139039e-03,-1.646549e-02,3.785013e-04,-1.132111e-03,5.720787e-03
1417534281154061,1417534281091564,2.763354e-01,7.678377e-03,-1.616337e-02,1.093418e-03,-5.816069e-04,5.004210e-03
1417534281216559,1417534281154061,2.789743e-01,7.491688e-03,-1.531081e-02,4.615059e-04,-1.121763e-04,4.638779e-03
1417534281279049,1417534281216559,2.794260e-01,4.433897e-03,-1.535598e-02,-1.379486e-03,-1.148528e-03,4.871770e-03
1417534281341538,1417534281279049,2.811885e-01,4.335881e-03,-1.525171e-02,-4.536738e-04,-1.519157e-03,4.669735e-03
1417534281404028,1417534281341538,2.824680e-01,1.647395e-03,-1.388929e-02,-1.489897e-03,-1.328956e-03,4.230349e-03
1417534281466531,1417534281404028,2.811694e-01,-9.666164e-04,-1.308168e-02,-3.002249e-03,-1.691708e-03,3.545625e-03
1417534281529006,1417534281466531,2.831131e-01,-1.400027e-03,-1.404595e-02,-3.041564e-03,-1.879135e-03,3.185604e-03
1417534281591496,1417534281529006,2.824253e-01,-7.584332e-04,-1.552883e-02,-2.269034e-03,-1.134868e-03,3.437923e-03
1417534281653986,1417534281591496,2.812571e-01,2.135082e-03,-1.829032e-02,-5.947789e-04,9.253697e-05,3.694212e-03
1417534281716476,1417534281653986,2.787690e-01,4.062078e-03,-2.132160e-02,2.140901e-03,1.818868e-03,3.526820e-03
1417534281778967,1417534281716476,2.738633e-01,8.974658e-03,-2.461255e-02,6.039248e-03,4.065920e-03,2.523470e-03
1417534281841458,1417534281778967,2.720702e-01,1.191288e-02,-2.594564e-02,7.795559e-03,5.532202e-03,1.619653e-03
1417534281903947,1417534281841458,2.715069e-01,8.880196e-03,-2.409106e-02,5.226158e-03,5.045250e-03,1.275676e-03
1417534281966436,1417534281903947,2.708941e-01,4.388029e-03,-1.997074e-02,2.459400e-03,4.104612e-03,1.349900e-03
1417534282028927,1417534281966436,2.710218e-01,-5.546945e-04,-1.564231e-02,-3.781645e-05,3.376378e-03,1.680205e-03
1417534282091432,1417534282028927,2.729438e-01,-6.419960e-03,-1.073121e-02,-3.546122e-03,2.317087e-03,2.020287e-03
1417534282153917,1417534282091432,2.742365e-01,-1.218795e-02,-5.814318e-03,-7.481264e-03,1.946776e-04,2.012448e-03
1417534282216417,1417534282153917,2.739124e-01,-1.248824e-02,-5.126379e-03,-6.938753e-03,-9.050378e-04,1.517230e-03
1417534282278906,1417534282216417,2.738664e-01,-9.827980e-03,-7.238987e-03,-4.179746e-03,-1.150026e-03,8.991205e-04
1417534282341403,1417534282278906,2.715654e-01,-3.064391e-03,-1.123630e-02,9.707500e-04,-1.380219e-03,1.170216e-04
1417534282403903,1417534282341403,2.706963e-01,4.700341e-03,-1.701828e-02,5.572236e-03,-2.812766e-03,-3.388669e-04
1417534282466394,1417534282403903,2.687177e-01,7.940820e-03,-1.992198e-02,5.787758e-03,-3.829906e-03,-5.640950e-05
1417534282528890,1417534282466394,2.677131e-01,7.496677e-03,-2.206981e-02,4.842029e-03,-4.196417e-03,4.010909e-04
1417534282591390,1417534282528890,2.669407e-01,4.865468e-03,-2.165767e-02,4.396740e-03,-3.355879e-03,7.321169e-04
1417534282653881,1417534282591390,2.663410e-01,9.772866e-04,-2.156981e-02,2.467206e-03,-2.204563e-03,3.459737e-04
1417534282716373,1417534282653881,2.602295e-01,-3.723934e-03,-1.838666e-02,-3.000541e-04,-5.887166e-04,-3.671404e-05
1417534282778864,1417534282716373,2.566992e-01,-7.145814e-03,-1.556590e-02,-3.371552e-03,1.586319e-03,2.627799e-04
1417534282841354,1417534282778864,2.543393e-01,-9.003866e-03,-1.285411e-02,-4.178712e-03,2.386976e-03,6.908467e-04
1417534282903843,1417534282841354,2.537006e-01,-8.494748e-03,-1.129416e-02,-3.922457e-03,1.892319e-03,7.838011e-04
1417534282966331,1417534282903843,2.535657e-01,-7.811794e-03,-1.177209e-02,-2.349937e-03,5.000230e-04,5.373930e-04
1417534283028821,1417534282966331,2.555968e-01,-4.466848e-03,-1.289635e-02,-5.938498e-04,-8.274341e-04,1.968115e-06
1417534283091310,1417534283028821,2.543974e-01,-8.487631e-04,-1.521737e-02,7.441465e-04,-1.294966e-03,-4.243791e-04
1417534283153799,1417534283091310,2.531801e-01,3.689094e-04,-1.584024e-02,1.029092e-03,-1.227939e-03,-3.196666e-04
1417534283216289,1417534283153799,2.530768e-01,-7.321603e-04,-1.508774e-02,7.947666e-04,-1.503266e-03,-4.973420e-05
1417534283278779,1417534283216289,2.510920e-01,-2.972527e-03,-1.423206e-02,1.902420e-04,-2.021099e-03,3.675060e-06
1417534283341269,1417534283278779,2.498592e-01,-5.532778e-03,-1.405551e-02,-1.295533e-03,-1.980705e-03,-1.343074e-04
1417534283403762,1417534283341269,2.485233e-01,-7.001075e-03,-1.331663e-02,-2.127142e-03,-1.530393e-03,-3.269308e-04
1417534283466249,1417534283403762,2.478977e-01,-6.890573e-03,-1.391842e-02,-1.740729e-03,-1.407919e-03,-5.243928e-04
1417534283528739,1417534283466249,2.455337e-01,-6.634196e-03,-1.444137e-02,-1.626633e-03,-1.257059e-03,-5.717361e-04
1417534283591229,1417534283528739,2.460501e-01,-6.573386e-03,-1.465744e-02,-1.622752e-03,-8.348461e-04,-8.915201e-04
1417534283653723,1417534283591229,2.425531e-01,-4.973257e-03,-1.508893e-02,3.819676e-04,-4.607948e-04,-1.307411e-03
1417534283716209,1417534283653723,2.414484e-01,-3.823578e-03,-1.609065e-02,1.081933e-03,-4.303288e-04,-1.726850e-03
1417534283778700,1417534283716209,2.401709e-01,-4.563765e-03,-1.696280e-02,5.312872e-04,-2.190046e-04,-1.907782e-03
1417534283841189,1417534283778700,2.389990e-01,-5.041679e-03,-1.736796e-02,-2.029415e-04,8.769593e-04,-1.817471e-03
1417534283903679,1417534283841189,2.351486e-01,-5.770152e-03,-1.746182e-02,-1.992531e-04,1.865477e-03,-1.757197e-03
1417534283966178,1417534283903679,2.343075e-01,-4.939594e-03,-1.629620e-02,1.904025e-03,1.761563e-03,-2.172363e-03
1417534284028678,1417534283966178,2.340473e-01,-6.307346e-03,-1.460939e-02,5.021974e-04,7.266853e-04,-2.346108e-03
1417534284091167,1417534284028678,2.330132e-01,-8.978004e-03,-1.259603e-02,-1.899563e-03,1.262444e-04,-2.146788e-03
1417534284153666,1417534284091167,2.299535e-01,-1.042477e-02,-1.228058e-02,-3.041129e-03,7.677157e-04,-1.754456e-03
1417534284216168,1417534284153666,2.278474e-01,-1.048641e-02,-1.229676e-02,-2.775593e-03,1.210179e-03,-2.000216e-03
1417534284278657,1417534284216168,2.258796e-01,-1.152087e-02,-1.158885e-02,-1.506171e-03,2.470730e-04,-2.415343e-03
1417534284341150,1417534284278657,2.244599e-01,-9.867169e-03,-1.078619e-02,-9.515840e-04,-7.673474e-04,-3.071911e-03
1417534284403643,1417534284341150,2.211990e-01,-9.366002e-03,-1.080459e-02,-5.309040e-04,-1.071748e-03,-3.371574e-03
1417534284466131,1417534284403643,2.178953e-01,-7.213115e-03,-1.133819e-02,-1.868041e-04,-8.043347e-04,-3.405299e-03
1417534284528619,1417534284466131,2.153248e-01,-6.271537e-03,-1.315036e-02,9.049061e-04,-8.210023e-04,-3.174436e-03
1417534284591109,1417534284528619,2.114809e-01,-6.748062e-03,-1.397205e-02,9.737988e-04,-1.529180e-03,-3.037293e-03
1417534284653599,1417534284591109,2.094610e-01,-7.325179e-03,-1.457088e-02,5.654174e-04,-1.896819e-03,-3.544726e-03
1417534284716089,1417534284653599,2.065073e-01,-7.050297e-03,-1.401372e-02,1.799669e-03,-9.582221e-04,-4.344919e-03
1417534284778579,1417534284716089,2.029900e-01,-6.278843e-03,-1.335430e-02,1.376732e-03,-4.333789e-04,-4.705751e-03
1417534284841071,1417534284778579,2.009469e-01,-8.547319e-03,-1.211975e-02,1.467815e-04,-3.032515e-04,-4.530927e-03
1417534284903560,1417534284841071,1.976060e-01,-9.714362e-03,-1.161025e-02,-2.474477e-04,-5.806493e-04,-4.105962e-03
1417534284966048,1417534284903560,1.953243e-01,-1.027132e-02,-1.308576e-02,-5.094963e-04,-7.416370e-04,-3.531685e-03
1417534285028539,1417534284966048,1.936091e-01,-1.173712e-02,-1.354570e-02,-8.056959e-04,2.015233e-04,-3.801312e-03
1417534285091036,1417534285028539,1.881005e-01,-1.225080e-02,-1.398750e-02,-9.549293e-04,1.260501e-03,-4.571161e-03
1417534285153535,1417534285091036,1.894172e-01,-1.223173e-02,-1.257797e-02,-1.049167e-03,1.362338e-03,-5.178942e-03
1417534285216024,1417534285153535,1.893238e-01,-1.163388e-02,-1.033628e-02,-5.818991e-04,6.690134e-04,-5.617940e-03
1417534285278522,1417534285216024,1.870402e-01,-1.044871e-02,-1.005912e-02,6.471405e-04,-8.065073e-05,-6.100911e-03
1417534285341016,1417534285278522,1.844231e-01,-1.127571e-02,-9.957094e-03,1.012262e-03,-2.271336e-04,-6.375167e-03
1417534285403504,1417534285341016,1.834350e-01,-1.208124e-02,-1.034185e-02,4.318170e-04,-7.164653e-05,-6.778436e-03
1417534285465993,1417534285403504,1.820335e-01,-1.355715e-02,-1.058503e-02,2.985424e-04,4.972523e-05,-7.356689e-03
1417534285528490,1417534285465993,1.790070e-01,-1.505637e-02,-1.038618e-02,-4.973013e-04,1.342520e-04,-7.722569e-03
1417534285590981,1417534285528490,1.781925e-01,-1.641481e-02,-1.048795e-02,-6.581555e-04,4.761009e-05,-8.128689e-03
1417534285653471,1417534285590981,1.769156e-01,-1.628948e-02,-1.002456e-02,-3.872200e-04,1.113279e-04,-8.518261e-03
1417534285715958,1417534285653471,1.741822e-01,-1.739043e-02,-1.071375e-02,-6.451842e-04,6.102953e-04,-8.855646e-03
1417534285778456,1417534285715958,1.718049e-01,-1.845613e-02,-1.017918e-02,-1.072218e-03,1.133975e-03,-9.023073e-03
1417534285840948,1417534285778456,1.707829e-01,-1.872570e-02,-8.938821e-03,-1.171368e-03,7.795482e-04,-9.262587e-03
1417534285903437,1417534285840948,1.703145e-01,-1.839397e-02,-9.079404e-03,-1.155604e-04,-5.881190e-04,-9.800721e-03
1417534285965931,1417534285903437,1.690592e-01,-1.938809e-02,-1.012506e-02,-2.473610e-04,-9.455535e-04,-1.035716e-02
1417534286028422,1417534285965931,1.673728e-01,-1.769263e-02,-1.189472e-02,1.550278e-04,-7.044626e-05,-1.069383e-02
1417534286090908,1417534286028422,1.618748e-01,-1.685968e-02,-1.410246e-02,1.579065e-03,1.148080e-03,-1.086075e-02
1417534286153405,1417534286090908,1.606898e-01,-1.642429e-02,-1.317588e-02,2.366939e-03,1.717716e-03,-1.124402e-02
1417534286215896,1417534286153405,1.579474e-01,-1.949505e-02,-1.280595e-02,1.742601e-03,1.693047e-03,-1.192582e-02
1417534286278385,1417534286215896,1.556076e-01,-2.148283e-02,-1.014589e-02,1.105433e-03,1.650565e-03,-1.328893e-02
1417534286340872,1417534286278385,1.529340e-01,-2.421710e-02,-9.960880e-03,1.126393e-04,1.413004e-03,-1.465948e-02
1417534286403362,1417534286340872,1.520833e-01,-2.759727e-02,-8.337067e-03,-5.585584e-04,1.180115e-03,-1.539605e-02
1417534286465850,1417534286403362,1.487124e-01,-2.898035e-02,-8.263121e-03,-1.040438e-03,8.471035e-04,-1.573610e-02
1417534286528340,1417534286465850,1.438350e-01,-2.870245e-02,-7.409435e-03,-1.276520e-03,1.060255e-03,-1.600246e-02
1417534286590829,1417534286528340,1.459747e-01,-3.154279e-02,-7.062906e-03,-7.458983e-04,1.135935e-03,-1.634939e-02
1417534286653319,1417534286590829,1.407585e-01,-2.970608e-02,-6.825173e-03,4.735076e-05,8.475597e-04,-1.716148e-02
1417534286715809,1417534286653319,1.394549e-01,-3.117491e-02,-7.062492e-03,3.600553e-05,7.779031e-04,-1.800872e-02
1417534286778298,1417534286715809,1.405243e-01,-3.285548e-02,-6.466317e-03,6.648458e-04,7.506848e-04,-1.889101e-02
1417534286840788,1417534286778298,1.352204e-01,-3.109879e-02,-7.967257e-03,1.514283e-03,3.630228e-04,-1.992471e-02
1417534286903287,1417534286840788,1.352072e-01,-3.304240e-02,-7.787662e-03,1.701465e-03,-6.832797e-05,-2.073982e-02
1417534286965786,1417534286903287,1.316979e-01,-3.356691e-02,-7.328205e-03,1.297337e-03,-2.761449e-04,-2.120579e-02
1417534287028276,1417534286965786,1.339534e-01,-3.470531e-02,-5.412190e-03,2.649110e-04,-5.311143e-04,-2.110375e-02
1417534287090766,1417534287028276,1.289016e-01,-3.664838e-02,-6.075001e-03,-1.043477e-03,-8.772940e-04,-2.070290e-02
1417534287153258,1417534287090766,1.233620e-01,-3.676553e-02,-6.697239e-03,-1.374307e-03,-6.135440e-04,-2.051973e-02
1417534287215749,1417534287153258,1.238515e-01,-3.780871e-02,-7.064211e-03,-1.853071e-03,-3.221556e-06,-2.074944e-02
1417534287278239,1417534287215749,1.231161e-01,-4.027533e-02,-5.608755e-03,-2.284803e-03,-4.833511e-05,-2.112098e-02
1417534287340728,1417534287278239,1.196327e-01,-4.104257e-02,-7.486209e-03,-2.189373e-03,-8.621806e-04,-2.154501e-02
1417534287403216,1417534287340728,1.135834e-01,-3.732824e-02,-9.322693e-03,-1.722745e-03,-6.930397e-04,-2.185331e-02
1417534287465706,1417534287403216,1.117125e-01,-3.800550e-02,-9.344989e-03,-1.467554e-03,1.896017e-04,-2.174244e-02
1417534287528197,1417534287465706,1.121666e-01,-3.906057e-02,-7.336740e-03,-7.887241e-04,9.146156e-04,-2.164386e-02
1417534287590689,1417534287528197,1.092566e-01,-3.728598e-02,-6.898354e-03,1.080604e-04,1.113445e-03,-2.205143e-02
1417534287653180,1417534287590689,1.066796e-01,-3.842843e-02,-5.758784e-03,-1.655755e-04,9.957028e-04,-2.227642e-02
1417534287715667,1417534287653180,1.040060e-01,-3.833454e-02,-6.788362e-03,-1.020653e-03,2.750551e-04,-2.248432e-02
1417534287778157,1417534287715667,1.038341e-01,-4.071697e-02,-5.298825e-03,-6.466999e-04,-1.633820e-04,-2.238710e-02
1417534287840646,1417534287778157,9.952972e-02,-3.701060e-02,-4.610363e-03,1.024480e-04,-5.228702e-04,-2.266237e-02
1417534287903139,1417534287840646,9.762603e-02,-3.986417e-02,-5.171987e-03,-3.659531e-05,-6.110276e-04,-2.285071e-02
1417534287965628,1417534287903139,9.658745e-02,-4.157092e-02,-5.324260e-03,-8.878210e-05,-4.268124e-04,-2.322002e-02
1417534288028117,1417534287965628,9.597742e-02,-3.852647e-02,-5.437122e-03,-3.631544e-05,-2.184051e-04,-2.390313e-02
1417534288090607,1417534288028117,9.357096e-02,-4.037875e-02,-5.642907e-03,2.981799e-04,-4.027218e-04,-2.420939e-02
1417534288153096,1417534288090607,9.338375e-02,-3.921384e-02,-5.421092e-03,8.109606e-04,-4.948033e-04,-2.468436e-02
1417534288215587,1417534288153096,9.304204e-02,-3.921810e-02,-5.694519e-03,6.201621e-04,-2.724638e-04,-2.449091e-02
1417534288278079,1417534288215587,9.234592e-02,-4.155133e-02,-5.103052e-03,-8.601247e-04,-4.489738e-04,-2.336913e-02
1417534288340568,1417534288278079,9.301259e-02,-4.040403e-02,-4.498972e-03,-1.645515e-03,-6.712311e-04,-2.259655e-02
1417534288403058,1417534288340568,9.032484e-02,-4.119517e-02,-5.460763e-03,-1.539258e-03,-6.981873e-04,-2.241178e-02
1417534288465547,1417534288403058,9.153563e-02,-4.065646e-02,-4.787576e-03,-1.281667e-03,-5.825068e-04,-2.280153e-02
1417534288528037,1417534288465547,8.976337e-02,-4.066822e-02,-5.471653e-03,-1.362133e-03,-7.147626e-04,-2.326177e-02
1417534288590529,1417534288528037,8.818367e-02,-4.018130e-02,-5.420981e-03,-1.014540e-03,-7.051039e-04,-2.322693e-02
1417534288653018,1417534288590529,8.655827e-02,-3.927044e-02,-6.634386e-03,-6.209748e-04,-5.597116e-04,-2.269294e-02
1417534288715522,1417534288653018,8.339538e-02,-3.959393e-02,-6.527751e-03,-1.216125e-03,-3.398027e-04,-2.177814e-02
1417534288778006,1417534288715522,8.400842e-02,-3.823199e-02,-6.541811e-03,-1.632168e-03,-2.859745e-04,-2.132320e-02
1417534288840506,1417534288778006,8.565354e-02,-3.927884e-02,-5.735978e-03,-1.394342e-03,-3.672478e-04,-2.142138e-02
1417534288902995,1417534288840506,8.511058e-02,-3.729311e-02,-5.438532e-03,-6.709054e-04,-3.028594e-04,-2.179841e-02
1417534288965486,1417534288902995,8.463064e-02,-3.705906e-02,-4.879143e-03,-3.655971e-04,4.482017e-05,-2.190180e-02
1417534289027976,1417534288965486,8.524747e-02,-3.598249e-02,-4.287901e-03,2.298889e-04,4.806029e-04,-2.173982e-02
1417534289090469,1417534289027976,8.382192e-02,-3.415733e-02,-5.126033e-03,5.187746e-04,4.533013e-04,-2.151297e-02
1417534289152966,1417534289090469,8.135008e-02,-3.421352e-02,-5.720102e-03,5.228511e-04,3.972196e-04,-2.112081e-02
1417534289215465,1417534289152966,8.097853e-02,-3.480363e-02,-5.952350e-03,-7.498478e-05,4.084926e-04,-2.081324e-02
1417534289277955,1417534289215465,7.900857e-02,-3.367747e-02,-5.789016e-03,-1.143853e-04,2.495129e-04,-2.081044e-02
1417534289340454,1417534289277955,7.785132e-02,-3.507812e-02,-5.855406e-03,5.310881e-05,1.229175e-07,-2.070581e-02
1417534289402952,1417534289340454,7.783845e-02,-3.457329e-02,-5.232845e-03,-3.510031e-04,1.466731e-05,-2.053660e-02
1417534289465443,1417534289402952,7.709601e-02,-3.513584e-02,-5.010252e-03,-1.071525e-03,2.709570e-04,-2.008675e-02
1417534289527940,1417534289465443,7.636946e-02,-3.573442e-02,-4.376786e-03,-1.381048e-03,3.304319e-04,-1.963471e-02
1417534289590437,1417534289527940,7.465756e-02,-3.485707e-02,-4.680453e-03,-9.907725e-04,-2.111327e-06,-1.947025e-02
1417534289652924,1417534289590437,7.492034e-02,-3.445642e-02,-4.215762e-03,-1.436082e-03,-1.339879e-04,-1.934466e-02
1417534289715415,1417534289652924,7.440734e-02,-3.491148e-02,-4.315607e-03,-1.601201e-03,2.935584e-05,-1.922139e-02
1417534289777905,1417534289715415,7.209273e-02,-3.351410e-02,-4.574631e-03,-8.513070e-04,3.634290e-04,-1.922338e-02
1417534289840395,1417534289777905,7.167756e-02,-3.254619e-02,-5.148551e-03,-1.102968e-04,4.710827e-04,-1.912312e-02
1417534289902886,1417534289840395,7.267090e-02,-3.146461e-02,-4.410360e-03,-2.177190e-04,3.932063e-04,-1.909004e-02
1417534289965372,1417534289902886,7.093444e-02,-3.171664e-02,-4.538910e-03,-6.941746e-04,3.432272e-04,-1.877717e-02
1417534290027862,1417534289965372,7.148830e-02,-3.022161e-02,-4.228294e-03,-4.468747e-04,4.161891e-04,-1.840946e-02
1417534290090351,1417534290027862,6.924753e-02,-3.046112e-02,-4.903458e-03,-3.561630e-04,4.220864e-04,-1.807302e-02
1417534290152840,1417534290090351,6.878117e-02,-3.076180e-02,-4.885700e-03,-9.358409e-04,2.479405e-04,-1.775933e-02
1417534290215330,1417534290152840,6.601194e-02,-3.003843e-02,-5.533893e-03,-1.466253e-03,1.182270e-04,-1.741610e-02
1417534290277819,1417534290215330,6.708771e-02,-2.991116e-02,-4.792334e-03,-1.475043e-03,2.056140e-04,-1.692265e-02
1417534290340308,1417534290277819,6.600998e-02,-2.782535e-02,-5.239906e-03,-1.257365e-03,2.720610e-04,-1.642207e-02
1417534290402798,1417534290340308,6.587626e-02,-2.801900e-02,-4.643318e-03,-1.307901e-03,3.527636e-04,-1.585404e-02
1417534290465290,1417534290402798,6.556087e-02,-2.742653e-02,-4.625266e-03,-1.158092e-03,3.764599e-04,-1.546422e-02
1417534290527777,1417534290465290,6.364368e-02,-2.520678e-02,-5.116871e-03,-9.031612e-04,4.090622e-04,-1.520968e-02
1417534290590265,1417534290527777,6.389407e-02,-2.570465e-02,-4.522725e-03,-6.668174e-04,5.580920e-04,-1.470784e-02
1417534290652755,1417534290590265,6.235844e-02,-2.323557e-02,-4.616943e-03,-4.982996e-04,7.124914e-04,-1.425696e-02
1417534290715245,1417534290652755,6.301605e-02,-2.375092e-02,-5.027369e-03,-7.591298e-04,8.004436e-04,-1.342398e-02
1417534290777734,1417534290715245,6.341048e-02,-2.235019e-02,-4.450624e-03,-7.333588e-04,7.366173e-04,-1.268479e-02
1417534290840223,1417534290777734,6.191750e-02,-2.036010e-02,-4.772579e-03,-6.868382e-04,3.855242e-04,-1.199992e-02
1417534290902713,1417534290840223,6.240177e-02,-1.926318e-02,-4.787760e-03,-5.133864e-04,1.778259e-04,-1.131513e-02
1417534290965202,1417534290902713,6.211678e-02,-1.788354e-02,-4.806317e-03,-2.784389e-04,1.805575e-04,-1.065234e-02
1417534291027691,1417534290965202,6.207303e-02,-1.572118e-02,-4.138315e-03,-9.961806e-05,3.038083e-04,-9.958357e-03
1417534291090181,1417534291027691,6.255438e-02,-1.573982e-02,-4.009635e-03,-2.898673e-05,3.472624e-04,-9.252260e-03
1417534291152670,1417534291090181,6.209009e-02,-1.479836e-02,-3.783865e-03,2.734171e-05,3.629305e-04,-8.784555e-03
1417534291215159,1417534291152670,6.164306e-02,-1.389423e-02,-3.668303e-03,-7.960524e-05,3.625935e-04,-8.473036e-03
1417534291277649,1417534291215159,6.146001e-02,-1.420318e-02,-3.948990e-03,-3.184885e-04,4.180873e-04,-8.057894e-03
1417534291340138,1417534291277649,6.169255e-02,-1.402255e-02,-4.083184e-03,-6.091783e-04,4.861738e-04,-7.667480e-03
1417534291402642,1417534291340138,6.164123e-02,-1.376496e-02,-3.503195e-03,-1.061480e-03,4.079360e-04,-7.120044e-03
1417534291465117,1417534291402642,6.159699e-02,-1.302703e-02,-3.451224e-03,-1.137457e-03,2.171597e-04,-6.511572e-03
1417534291527606,1417534291465117,6.198447e-02,-1.200651e-02,-3.543017e-03,-9.335666e-04,1.622355e-04,-6.104469e-03
1417534291590096,1417534291527606,6.155580e-02,-1.061558e-02,-3.437633e-03,-4.690119e-04,3.934809e-04,-5.913797e-03
1417534291652585,1417534291590096,6.182196e-02,-9.410861e-03,-3.468736e-03,-1.715226e-05,5.968585e-04,-5.820960e-03
1417534291715075,1417534291652585,6.214224e-02,-8.430189e-03,-3.232259e-03,1.498588e-04,6.440120e-04,-5.446706e-03
1417534291777563,1417534291715075,6.214068e-02,-7.724269e-03,-3.200327e-03,1.941252e-04,5.551937e-04,-4.851837e-03
