source_timestamp,destination_timestamp,x,y,z,roll,pitch,yaw
1403537851909290,1403537851846790,4.224013e-04,-3.927298e-04,-2.658231e-04,-2.306813e-05,-1.440980e-05,1.382357e-05
1403537851971791,1403537851909290,-1.638457e-04,8.627056e-05,-2.640446e-04,-2.626045e-05,-1.765373e-05,1.164216e-06
1403537852034292,1403537851971791,1.669764e-05,-1.346919e-05,1.257787e-04,1.447276e-05,1.514534e-05,1.697021e-05
1403537852096792,1403537852034292,2.055941e-04,-3.517851e-04,-1.600104e-04,5.134716e-06,-1.165094e-05,1.201938e-05
1403537852471796,1403537852409298,8.821440e-04,-4.183570e-04,-5.426669e-04,-2.365457e-05,-2.846089e-05,1.015504e-05
1403537852596796,1403537852534297,3.867254e-05,1.873098e-04,-5.056354e-06,1.166729e-05,7.595533e-07,-9.835402e-06
1403537852659297,1403537852596796,4.181162e-04,-1.171240e-04,-9.202351e-05,-7.170326e-06,6.770744e-05,6.185935e-07
1403537852721799,1403537852659297,-4.817427e-03,4.718052e-03,8.739868e-03,4.362175e-04,7.051380e-04,-2.932895e-04
1403537852784301,1403537852721799,4.326657e-04,-1.006683e-04,1.289924e-04,3.637996e-05,-3.643967e-05,-5.722498e-06
1403537852846801,1403537852784301,3.469618e-04,-1.534063e-04,-4.024734e-05,-1.114239e-05,-1.852054e-05,3.686010e-06
1403537852909299,1403537852846801,-3.938434e-04,-3.379022e-04,2.185827e-03,-6.013426e-05,1.941761e-04,7.923016e-05
1403537852971801,1403537852909299,-3.035085e-04,1.278080e-04,-9.341335e-05,-1.912099e-06,1.237993e-05,-1.269556e-06
1403537853034303,1403537852971801,-3.306607e-05,1.377634e-04,-2.425041e-05,5.717144e-06,1.977806e-05,-8.442033e-06
1403537853096803,1403537853034303,-1.009603e-03,-5.130518e-04,8.865821e-04,-6.308019e-05,5.774069e-05,7.508126e-05
1403537853159303,1403537853096803,3.558852e-04,-1.083051e-04,8.616836e-05,1.458386e-05,-2.470441e-05,7.183286e-06
1403537853221804,1403537853159303,3.089180e-05,-2.962255e-05,9.899347e-06,-6.160179e-06,8.307398e-07,8.736037e-07
1403537853284305,1403537853221804,-1.007396e-03,-6.040342e-05,2.166989e-03,8.430842e-05,1.917111e-04,2.454264e-05
1403537853346805,1403537853284305,1.644055e-04,-1.040419e-05,3.566591e-04,1.859651e-05,2.246857e-04,1.914216e-05
1403537853409306,1403537853346805,-1.747387e-05,3.450765e-05,1.875367e-04,-5.099084e-05,2.819708e-04,3.434148e-05
1403537853471807,1403537853409306,1.532905e-03,-1.473752e-03,9.102953e-04,-8.819214e-05,3.476276e-04,1.103928e-04
1403537853534307,1403537853471807,3.817207e-03,-3.540840e-04,1.580514e-05,-7.304504e-05,4.726141e-04,6.674960e-05
1403537853596808,1403537853534307,4.042579e-04,1.300675e-04,-1.733340e-05,-1.494563e-04,4.501066e-04,1.926746e-04
1403537853659311,1403537853596808,8.295704e-03,-6.504804e-04,-1.207860e-04,-7.572769e-05,4.241649e-04,1.808013e-04
1403537853721809,1403537853659311,1.103062e-02,-4.417723e-04,-7.363873e-04,-3.960362e-05,2.294194e-04,1.509225e-04
1403537853784310,1403537853721809,1.290521e-02,-5.133359e-04,-6.355600e-04,-8.353642e-05,6.943216e-05,1.275213e-04
1403537853846811,1403537853784310,1.422533e-02,-2.318707e-04,-6.022130e-04,-4.672571e-05,3.471991e-05,5.761849e-05
1403537853909312,1403537853846811,1.463231e-02,-2.760628e-04,-1.223022e-03,3.014653e-05,-5.086155e-05,4.917233e-05
1403537853971813,1403537853909312,1.595034e-02,-3.582150e-04,-1.256710e-03,8.153537e-05,-8.390996e-05,-1.807364e-05
1403537854034316,1403537853971813,1.713014e-02,-2.395992e-04,-1.234404e-03,3.920772e-04,-4.951365e-05,-1.084663e-04
1403537854096816,1403537854034316,1.621212e-02,1.042552e-03,-1.207335e-03,6.922344e-04,-2.829489e-05,-1.035474e-04
1403537854159317,1403537854096816,1.597877e-02,1.940971e-03,-1.763118e-03,7.191353e-04,-6.449736e-05,1.545079e-05
1403537854221816,1403537854159317,1.584246e-02,2.459168e-03,-2.019251e-03,7.502088e-04,-2.282095e-04,1.810841e-04
1403537854284317,1403537854221816,1.579175e-02,2.417203e-03,-2.086965e-03,1.040047e-03,-3.659963e-04,3.877031e-04
1403537854346821,1403537854284317,1.565157e-02,2.275217e-03,-1.794571e-03,8.634375e-04,-1.611476e-04,3.680019e-04
1403537854409319,1403537854346821,1.703310e-02,7.556614e-04,-2.014427e-03,3.851622e-04,7.083050e-05,4.016427e-04
1403537854471820,1403537854409319,1.707761e-02,6.353613e-04,-1.747216e-03,-3.127705e-05,1.404058e-04,3.634600e-04
1403537854534323,1403537854471820,1.927402e-02,-2.075258e-05,-1.431441e-03,-1.050720e-04,-8.333905e-06,3.878287e-04
1403537854596821,1403537854534323,1.989647e-02,5.023671e-04,-1.257437e-03,4.575154e-05,-1.460275e-04,3.892229e-04
1403537854659324,1403537854596821,2.096231e-02,1.172278e-04,-1.778690e-03,-2.993114e-04,-1.621196e-04,5.111432e-04
1403537854721824,1403537854659324,2.197039e-02,3.785895e-04,-1.568320e-03,-3.287682e-04,-2.194776e-05,5.869437e-04
1403537854784324,1403537854721824,2.406306e-02,-2.549980e-04,-1.205637e-03,-1.174763e-04,-4.901752e-05,6.121190e-04
1403537854846826,1403537854784324,2.374564e-02,6.522289e-04,-1.732553e-03,-4.200247e-04,-2.688206e-04,4.514930e-04
1403537854909328,1403537854846826,2.628569e-02,1.232887e-04,-8.020987e-04,-4.788963e-04,-2.461605e-04,4.017140e-04
1403537854971829,1403537854909328,2.863448e-02,-1.738177e-04,-1.335758e-03,-5.421444e-04,-2.131582e-04,5.133874e-04
1403537855034327,1403537854971829,2.972987e-02,-1.681859e-04,-7.251239e-04,-5.490778e-04,-2.225929e-04,7.786321e-04
1403537855096828,1403537855034327,3.104625e-02,-1.615254e-05,-1.439051e-03,-5.921615e-04,-3.654043e-04,1.036501e-03
1403537855159330,1403537855096828,3.375250e-02,8.842117e-04,-1.445503e-03,2.345489e-04,-3.404440e-04,9.323700e-04
1403537855221830,1403537855159330,3.372200e-02,2.186930e-03,-1.789717e-03,5.261242e-04,-1.106408e-04,7.473300e-04
1403537855284331,1403537855221830,3.376465e-02,2.189611e-03,-2.649524e-03,2.119579e-04,-3.598841e-05,7.667254e-04
1403537855346832,1403537855284331,3.573533e-02,1.889502e-03,-2.048205e-03,1.991960e-04,-1.084223e-04,9.022926e-04
1403537855409333,1403537855346832,3.656401e-02,2.038916e-03,-2.168625e-03,2.407866e-04,-1.053212e-04,1.079345e-03
1403537855471833,1403537855409333,3.886391e-02,2.051244e-04,-1.813871e-03,-4.139803e-04,-5.412155e-05,1.251102e-03
1403537855534335,1403537855471833,3.892959e-02,-9.172651e-04,-1.362990e-03,-1.431880e-03,1.133942e-04,1.234350e-03
1403537855596835,1403537855534335,4.070800e-02,-1.805096e-03,-1.260813e-03,-1.462440e-03,3.818378e-04,1.048104e-03
1403537855659337,1403537855596835,4.257470e-02,-6.032062e-04,-1.419696e-03,-7.339369e-04,5.997789e-04,7.804983e-04
1403537855721853,1403537855659337,4.215752e-02,1.350799e-03,-2.582661e-03,-6.795549e-04,4.043168e-04,5.678038e-04
1403537855784338,1403537855721853,4.522819e-02,1.283568e-03,-2.536712e-03,1.359313e-04,3.418730e-04,9.588864e-04
1403537855846839,1403537855784338,4.589072e-02,2.570260e-03,-2.855077e-03,1.073134e-03,1.336522e-04,1.422718e-03
1403537855909340,1403537855846839,4.725684e-02,3.286744e-03,-3.905509e-03,6.931932e-04,2.525795e-04,1.724909e-03
1403537855971841,1403537855909340,4.889219e-02,3.328465e-03,-3.130228e-03,4.589389e-04,4.853830e-04,1.545707e-03
1403537856034343,1403537855971841,5.110010e-02,2.713765e-03,-3.411052e-03,5.443295e-04,4.745110e-04,1.117419e-03
1403537856096842,1403537856034343,5.474244e-02,1.240239e-03,-2.887433e-03,3.441262e-04,2.957463e-04,8.147369e-04
1403537856159343,1403537856096842,5.680212e-02,2.120333e-03,-3.899478e-03,1.972318e-04,-2.912604e-05,6.558144e-04
1403537856221845,1403537856159343,5.920457e-02,1.219208e-03,-3.889482e-03,-1.271061e-04,-1.801543e-04,9.384786e-04
1403537856284345,1403537856221845,5.960079e-02,3.147814e-03,-4.755317e-03,7.013416e-04,7.623753e-06,1.449284e-03
1403537856346846,1403537856284345,6.342627e-02,3.271208e-03,-5.534702e-03,1.041937e-03,1.084040e-04,1.874215e-03
1403537856409347,1403537856346846,6.673193e-02,3.175957e-03,-4.324031e-03,4.127234e-04,-1.726244e-07,1.839851e-03
1403537856471848,1403537856409347,6.904513e-02,2.258907e-03,-4.310520e-03,4.604364e-04,-2.273943e-04,1.568492e-03
1403537856534349,1403537856471848,7.218336e-02,2.560487e-03,-3.439398e-03,6.468983e-05,-3.223844e-04,9.894627e-04
1403537856596849,1403537856534349,7.539124e-02,1.248258e-03,-3.830720e-03,-9.781119e-04,-5.506735e-04,7.221481e-04
1403537856659350,1403537856596849,7.981622e-02,-7.411313e-04,-4.031889e-03,-1.854293e-03,-3.535123e-04,1.194693e-03
1403537856721853,1403537856659350,8.419937e-02,-2.632103e-03,-3.730008e-03,-1.884969e-03,-3.330112e-04,1.539716e-03
1403537856784354,1403537856721853,8.707046e-02,-2.787863e-03,-4.279702e-03,-1.185939e-03,-6.325554e-04,1.325619e-03
1403537856846852,1403537856784354,9.073349e-02,6.520746e-04,-5.274475e-03,-4.902533e-04,-1.349268e-03,6.785373e-04
1403537856909352,1403537856846852,9.349864e-02,1.802461e-03,-5.967695e-03,-2.060289e-04,-1.632426e-03,7.062185e-04
1403537856971853,1403537856909352,9.520938e-02,2.687718e-03,-7.466083e-03,7.452420e-04,-1.232872e-03,1.205867e-03
1403537857034353,1403537856971853,9.489038e-02,4.251813e-03,-7.438858e-03,1.219232e-03,-5.384764e-04,1.658184e-03
1403537857096853,1403537857034353,9.788194e-02,1.250303e-03,-6.398382e-03,1.283145e-04,2.785617e-04,1.851210e-03
1403537857159356,1403537857096853,1.006221e-01,-1.115159e-03,-4.282804e-03,-1.289609e-03,1.058858e-03,1.384278e-03
1403537857221854,1403537857159356,1.029869e-01,-2.680037e-03,-4.126926e-03,-1.763451e-03,7.911938e-04,7.642201e-04
1403537857284354,1403537857221854,1.053072e-01,-2.083051e-03,-5.583199e-03,-8.539858e-04,4.209545e-04,3.150316e-04
1403537857346857,1403537857284354,1.077758e-01,-5.265380e-04,-5.960204e-03,4.746859e-04,5.224028e-04,2.959979e-04
1403537857409355,1403537857346857,1.063669e-01,3.575398e-03,-7.631813e-03,1.456682e-03,4.208766e-05,8.079976e-04
1403537857471855,1403537857409355,1.108629e-01,6.887520e-03,-8.201690e-03,2.350589e-03,-1.098279e-03,1.755288e-03
1403537857534356,1403537857471855,1.125559e-01,6.270041e-03,-8.096215e-03,3.084991e-03,-1.595554e-03,1.782899e-03
1403537857659356,1403537857534356,2.274307e-01,4.942746e-03,-1.471289e-02,3.656894e-03,6.411618e-04,1.933286e-03
1403537857721857,1403537857659356,1.164540e-01,-1.972839e-03,-5.208435e-03,-1.785149e-03,6.620940e-04,4.904330e-04
1403537857784359,1403537857721857,1.179843e-01,-2.180238e-03,-4.157492e-03,-7.485584e-04,-2.154088e-04,7.064651e-04
1403537857909357,1403537857784359,2.431520e-01,-2.437149e-03,-8.861348e-03,-1.346670e-03,-2.872312e-03,2.108308e-03
1403537857971858,1403537857909357,1.222382e-01,5.948093e-04,-6.441202e-03,6.083219e-04,-8.384923e-04,8.695429e-04
1403537858034358,1403537857971858,1.235866e-01,2.827008e-03,-8.797976e-03,3.388503e-03,-2.939723e-04,5.304723e-04
1403537858096858,1403537858034358,1.217581e-01,5.295312e-03,-1.075332e-02,3.368125e-03,2.552824e-04,3.706706e-04
1403537858159360,1403537858096858,1.232883e-01,3.377920e-03,-1.036926e-02,1.854841e-03,8.727750e-04,7.098285e-04
1403537858221860,1403537858159360,1.223646e-01,3.002920e-03,-9.248615e-03,1.310804e-03,1.470288e-03,1.191375e-03
1403537858284362,1403537858221860,1.225512e-01,1.066196e-03,-8.772728e-03,3.199802e-04,1.465748e-03,1.509655e-03
1403537858346861,1403537858284362,1.265800e-01,-2.078191e-03,-6.397000e-03,-1.334967e-03,9.594619e-04,1.119857e-03
1403537858409362,1403537858346861,1.283038e-01,-4.805165e-03,-5.047607e-03,-1.941555e-03,5.657001e-04,4.171924e-04
1403537858471865,1403537858409362,1.291740e-01,-4.073872e-03,-6.032481e-03,-1.858828e-03,3.341217e-04,2.100724e-04
1403537858534364,1403537858471865,1.300065e-01,-1.308968e-03,-6.261261e-03,-2.200797e-04,3.154838e-04,7.768760e-04
1403537858596864,1403537858534364,1.319721e-01,6.681687e-04,-7.131733e-03,6.244960e-04,1.515908e-04,1.472037e-03
1403537858659365,1403537858596864,1.334080e-01,1.440620e-03,-7.591267e-03,1.543210e-03,-3.527317e-05,1.460421e-03
1403537858721868,1403537858659365,1.347287e-01,1.988915e-03,-8.557239e-03,2.784896e-03,-2.358146e-04,1.218419e-03
1403537858784367,1403537858721868,1.343865e-01,2.698670e-03,-9.409886e-03,2.067660e-03,-1.483209e-03,4.853666e-04
1403537858846882,1403537858784367,1.364293e-01,2.435933e-03,-8.061785e-03,-1.762167e-04,-1.250537e-03,2.510807e-04
1403537858909369,1403537858846882,1.376825e-01,1.964049e-03,-7.662372e-03,1.430377e-03,-4.687346e-04,3.822862e-04
1403537858971870,1403537858909369,1.382688e-01,1.659867e-03,-7.672769e-03,2.558540e-03,-7.246247e-04,7.291226e-04
1403537859034370,1403537858971870,1.409396e-01,-2.174805e-03,-6.469337e-03,-1.066636e-03,-5.125089e-04,1.196653e-03
1403537859096872,1403537859034370,1.416866e-01,-2.156365e-03,-6.161686e-03,-9.910197e-04,4.138505e-04,9.120719e-04
1403537859159372,1403537859096872,1.424435e-01,-1.077721e-04,-7.860210e-03,8.933941e-04,9.837498e-04,4.532546e-04
1403537859221873,1403537859159372,1.444072e-01,-6.738073e-04,-7.569840e-03,3.687902e-04,1.234979e-03,2.744688e-04
1403537859284374,1403537859221873,1.453187e-01,2.965480e-04,-8.892429e-03,9.322329e-04,5.068963e-04,3.460314e-04
1403537859346875,1403537859284374,1.486630e-01,2.059868e-03,-9.514910e-03,1.522682e-03,-4.914819e-04,6.600842e-04
1403537859409375,1403537859346875,1.519966e-01,1.155854e-03,-1.002175e-02,1.534496e-03,-1.356678e-03,1.057767e-03
1403537859471876,1403537859409375,1.528667e-01,2.528407e-03,-1.056644e-02,1.661963e-03,-1.723590e-03,8.807146e-04
1403537859534377,1403537859471876,1.530763e-01,2.554184e-04,-1.029544e-02,1.114437e-03,-1.473896e-03,7.550111e-04
1403537859596880,1403537859534377,1.562396e-01,-1.940972e-03,-1.002323e-02,5.726342e-04,-9.995648e-04,7.462836e-04
1403537859659379,1403537859596880,1.544677e-01,-9.182462e-04,-1.043367e-02,6.985717e-04,-4.410401e-04,8.062434e-04
1403537859721883,1403537859659379,1.556465e-01,1.007338e-03,-1.044941e-02,1.092507e-03,-3.005004e-04,3.788966e-04
1403537859784381,1403537859721883,1.573492e-01,4.519094e-04,-9.440689e-03,5.875583e-04,-4.594749e-04,1.439872e-04
1403537859846882,1403537859784381,1.593117e-01,2.660590e-03,-9.545346e-03,1.988059e-03,-2.750668e-04,9.503036e-05
1403537859909383,1403537859846882,1.621518e-01,1.087318e-03,-9.805235e-03,2.163105e-03,-9.084575e-05,3.646354e-04
1403537859971883,1403537859909383,1.616592e-01,2.113053e-04,-1.034315e-02,5.306728e-04,4.198198e-04,6.261823e-04
1403537860034384,1403537859971883,1.640753e-01,1.208586e-03,-1.035461e-02,1.441260e-03,5.649918e-04,5.221805e-04
1403537860096900,1403537860034384,1.657858e-01,6.099578e-04,-9.567291e-03,2.009988e-03,4.519082e-04,6.485104e-04
1403537860159385,1403537860096900,1.673736e-01,-9.869269e-04,-8.295397e-03,-1.423068e-04,6.102957e-04,8.174882e-04
1403537860221885,1403537860159385,1.682850e-01,-1.963582e-03,-8.013334e-03,-9.070176e-04,5.141404e-04,8.341710e-04
1403537860284386,1403537860221885,1.707467e-01,-9.754017e-04,-8.457241e-03,5.439244e-04,3.828016e-05,4.328526e-04
1403537860346886,1403537860284386,1.718804e-01,3.877928e-04,-8.954498e-03,1.634391e-03,-8.682682e-04,5.426726e-05
1403537860409386,1403537860346886,1.741588e-01,3.591494e-04,-9.252462e-03,6.839419e-04,-1.601265e-03,4.002311e-05
1403537860471888,1403537860409386,1.773637e-01,2.138227e-04,-9.178009e-03,5.002353e-04,-1.736528e-03,6.466247e-04
1403537860534388,1403537860471888,1.762995e-01,2.819156e-03,-1.107520e-02,2.937487e-03,-4.225534e-04,8.433308e-04
1403537860596888,1403537860534388,1.737646e-01,3.057051e-03,-1.445763e-02,3.183888e-03,1.560794e-03,6.412404e-04
1403537860659388,1403537860596888,1.743981e-01,1.017359e-03,-1.479156e-02,1.210551e-03,2.177842e-03,2.203981e-04
1403537860721888,1403537860659388,1.768378e-01,1.267966e-03,-1.424841e-02,8.255090e-04,1.253818e-03,-5.448877e-05
1403537860784388,1403537860721888,1.816978e-01,1.470006e-03,-1.134741e-02,1.950771e-03,1.590718e-04,4.196184e-04
1403537860846888,1403537860784388,1.861371e-01,2.613936e-03,-9.121689e-03,3.219099e-03,-1.607648e-03,7.678108e-04
1403537860909389,1403537860846888,1.878983e-01,4.850631e-04,-7.901133e-03,1.509935e-03,-2.107257e-03,1.056661e-03
1403537860971889,1403537860909389,1.890477e-01,-2.110017e-03,-8.021759e-03,-7.777316e-04,-1.194874e-03,1.043972e-03
1403537861034389,1403537860971889,1.861705e-01,-4.079338e-03,-1.063827e-02,-2.484986e-03,1.136755e-04,6.594716e-04
1403537861096890,1403537861034389,1.877771e-01,-5.140841e-03,-1.274808e-02,-5.842426e-04,1.756073e-03,6.796698e-05
1403537861159390,1403537861096890,1.894669e-01,-2.643033e-03,-1.271651e-02,-1.902524e-05,2.228494e-03,2.112728e-04
1403537861221891,1403537861159390,1.909370e-01,-3.009495e-03,-1.257300e-02,-2.505018e-04,1.313997e-03,3.145272e-04
1403537861284393,1403537861221891,1.959916e-01,-1.198635e-03,-1.099144e-02,9.238862e-04,5.533593e-04,5.541785e-04
1403537861346892,1403537861284393,1.971837e-01,-8.954142e-04,-9.629747e-03,3.448146e-04,1.326490e-04,8.374500e-04
1403537861409392,1403537861346892,1.985399e-01,-1.116520e-03,-8.094544e-03,-4.323680e-06,1.468963e-04,7.070165e-04
1403537861471893,1403537861409392,2.001243e-01,-6.950332e-04,-1.097653e-02,1.670875e-04,-8.583850e-04,1.622065e-04
1403537861534394,1403537861471893,2.007864e-01,-1.276867e-03,-1.381432e-02,-2.645467e-04,-8.434378e-04,2.733897e-04
1403537861596895,1403537861534394,2.002996e-01,-2.032524e-03,-1.595044e-02,-5.801732e-04,5.339772e-04,6.263116e-04
1403537861659395,1403537861596895,2.004837e-01,-1.535826e-03,-1.778575e-02,9.583166e-05,1.989294e-03,3.326960e-04
1403537861721896,1403537861659395,2.014644e-01,5.164622e-04,-1.619172e-02,1.446250e-03,3.598140e-03,-9.447663e-05
1403537861784398,1403537861721896,2.027825e-01,1.926859e-04,-1.330878e-02,3.716016e-04,3.794039e-03,2.149234e-05
1403537861846899,1403537861784398,2.060863e-01,-1.052314e-03,-1.037115e-02,-1.019263e-03,2.307054e-03,5.035370e-04
1403537861909400,1403537861846899,2.076128e-01,-4.422967e-03,-9.594329e-03,-2.129597e-03,2.547005e-04,1.132648e-03
1403537861971900,1403537861909400,2.111369e-01,-4.292572e-03,-1.037830e-02,-6.171695e-04,-1.069622e-03,9.382542e-04
1403537862034401,1403537861971900,2.143839e-01,-5.298481e-03,-1.024853e-02,-1.233920e-03,-1.139410e-03,4.929508e-04
1403537862096902,1403537862034401,2.146795e-01,-1.549588e-03,-1.049507e-02,-5.123282e-04,-3.581671e-04,2.082792e-04
1403537862159403,1403537862096902,2.145257e-01,4.426198e-05,-9.690170e-03,1.535837e-04,7.324142e-05,3.202919e-04
1403537862221903,1403537862159403,2.166086e-01,4.864476e-04,-8.976482e-03,6.590694e-04,7.051011e-04,5.567198e-04
1403537862284405,1403537862221903,2.177384e-01,5.535801e-04,-8.676071e-03,7.269662e-04,4.801809e-04,8.925834e-04
1403537862346905,1403537862284405,2.196606e-01,-1.359863e-03,-1.038227e-02,2.744569e-04,-4.541273e-04,9.516609e-04
1403537862409405,1403537862346905,2.210045e-01,-2.098197e-03,-1.266282e-02,5.946405e-05,-1.650451e-03,7.150407e-04
1403537862471907,1403537862409405,2.228392e-01,-2.428260e-03,-1.461979e-02,-2.902587e-04,-2.186360e-03,3.567743e-04
1403537862534406,1403537862471907,2.236435e-01,-1.749357e-03,-1.511286e-02,-7.483560e-04,-2.514504e-03,2.986408e-04
1403537862596906,1403537862534406,2.260693e-01,-3.065889e-03,-1.388107e-02,-1.443529e-03,-2.675443e-03,6.366722e-04
1403537862659406,1403537862596906,2.266485e-01,-2.761537e-03,-1.436842e-02,-1.490737e-03,-2.336805e-03,1.099242e-03
1403537862721907,1403537862659406,2.271074e-01,-4.410575e-03,-1.228534e-02,-1.637655e-03,-1.457643e-03,1.190561e-03
1403537862784407,1403537862721907,2.283280e-01,-4.576020e-03,-1.205100e-02,-1.856072e-03,-2.937045e-04,7.038403e-04
1403537862846909,1403537862784407,2.295561e-01,-4.282590e-03,-1.095486e-02,-1.687574e-03,2.828074e-04,1.026989e-05
1403537862909409,1403537862846909,2.308278e-01,-2.793956e-03,-1.102604e-02,-7.862449e-04,7.319090e-04,-3.136981e-04
1403537862971908,1403537862909409,2.310657e-01,-1.465522e-03,-1.169612e-02,1.260092e-03,1.238527e-03,6.699485e-05
1403537863034410,1403537862971908,2.323153e-01,3.024140e-03,-1.347640e-02,3.042014e-03,1.202791e-03,5.372064e-04
1403537863096911,1403537863034410,2.353850e-01,2.487880e-03,-1.315521e-02,2.264219e-03,1.248978e-04,8.299699e-04
1403537863159411,1403537863096911,2.364268e-01,1.878699e-03,-1.454047e-02,1.608893e-03,-1.442837e-03,5.096875e-04
1403537863221910,1403537863159411,2.380909e-01,1.029972e-03,-1.469776e-02,1.312306e-03,-1.846034e-03,3.316346e-04
1403537863284412,1403537863221910,2.416562e-01,-4.399262e-04,-1.377963e-02,-6.850376e-05,-1.716129e-03,5.255908e-04
1403537863346913,1403537863284412,2.386599e-01,-1.658905e-03,-1.392796e-02,-5.824297e-04,-9.708409e-04,7.852519e-04
1403537863409414,1403537863346913,2.423997e-01,-3.187091e-03,-1.334639e-02,-7.141748e-04,-5.333448e-05,9.726129e-04
1403537863471913,1403537863409414,2.414881e-01,-3.211334e-03,-1.312548e-02,-9.607907e-04,5.711726e-04,7.788608e-04
1403537863534414,1403537863471913,2.419724e-01,-2.330780e-03,-1.337391e-02,-9.537290e-04,5.780481e-04,6.248238e-04
1403537863596917,1403537863534414,2.439080e-01,-2.535826e-03,-1.222062e-02,-3.446487e-04,9.382556e-05,6.990729e-04
1403537863659416,1403537863596917,2.418421e-01,-4.788476e-05,-1.450372e-02,1.202570e-03,-1.827495e-04,6.811504e-04
1403537863721919,1403537863659416,2.432605e-01,1.582569e-03,-1.604436e-02,2.131027e-03,-1.282996e-04,2.938448e-04
1403537863784417,1403537863721919,2.396658e-01,2.114204e-03,-1.727085e-02,2.043441e-03,6.830537e-04,6.986774e-05
1403537863846916,1403537863784417,2.409242e-01,9.679895e-04,-1.702641e-02,1.465827e-03,1.429841e-03,2.594484e-04
1403537863909419,1403537863846916,2.408580e-01,6.455336e-05,-1.673811e-02,1.709430e-03,1.219411e-03,5.542566e-04
1403537863971918,1403537863909419,2.415110e-01,-8.882119e-04,-1.433426e-02,5.783427e-04,9.899377e-04,5.938256e-04
1403537864034420,1403537863971918,2.404654e-01,-1.818613e-03,-1.273620e-02,-1.088435e-04,9.307218e-04,4.077443e-04
1403537864096923,1403537864034420,2.415603e-01,-2.729071e-03,-1.272095e-02,-4.643374e-05,8.452023e-04,3.341911e-04
1403537864159420,1403537864096923,2.442280e-01,-2.952899e-03,-1.210548e-02,-5.539499e-04,9.323190e-04,3.672162e-04
1403537864221922,1403537864159420,2.426258e-01,-2.396739e-03,-1.250263e-02,-1.006761e-03,8.181117e-04,4.913014e-04
1403537864284422,1403537864221922,2.413365e-01,-1.647301e-03,-1.326947e-02,3.888321e-05,1.343100e-03,4.655946e-04
1403537864346923,1403537864284422,2.421769e-01,-8.460550e-04,-1.295561e-02,3.338788e-04,7.029804e-04,9.875602e-05
1403537864409424,1403537864346923,2.459196e-01,-1.481738e-03,-1.222593e-02,-5.280419e-04,-6.071698e-04,-2.907954e-05
1403537864471925,1403537864409424,2.480746e-01,-1.812877e-03,-1.371136e-02,-9.843070e-05,-1.313216e-03,-7.543375e-05
1403537864534426,1403537864471925,2.467512e-01,-9.635692e-04,-1.612123e-02,1.041373e-03,-1.060410e-03,1.047690e-04
1403537864596927,1403537864534426,2.487218e-01,-1.550182e-03,-1.592939e-02,7.610225e-04,-6.289241e-04,2.661921e-04
1403537864659427,1403537864596927,2.503834e-01,-1.827838e-03,-1.535665e-02,-4.387265e-04,-4.737789e-04,3.964239e-04
1403537864721928,1403537864659427,2.484060e-01,-9.804972e-04,-1.454024e-02,7.661173e-04,-6.031554e-04,2.615169e-04
1403537864784429,1403537864721928,2.507968e-01,3.715486e-04,-1.369270e-02,2.406016e-03,-3.062438e-04,-1.895966e-05
1403537864846930,1403537864784429,2.510661e-01,-8.700996e-04,-1.295249e-02,6.481566e-04,-4.186903e-04,1.327926e-04
1403537864909445,1403537864846930,2.504040e-01,-6.414309e-04,-1.385784e-02,4.086397e-04,2.165503e-05,1.832769e-04
1403537864971932,1403537864909445,2.537978e-01,-6.316126e-04,-1.305829e-02,1.250577e-03,-3.988628e-04,2.675984e-04
1403537865034432,1403537864971932,2.539314e-01,-1.892747e-03,-1.317308e-02,7.260846e-04,-5.374184e-04,3.990036e-04
1403537865096933,1403537865034432,2.542913e-01,-3.453501e-03,-1.404370e-02,-1.244497e-03,-6.661237e-04,5.333048e-04
1403537865159434,1403537865096933,2.557568e-01,-3.496075e-03,-1.378429e-02,-1.271519e-03,-4.402528e-04,5.241661e-04
1403537865221937,1403537865159434,2.555129e-01,-3.135386e-03,-1.553715e-02,-6.418064e-04,-6.159904e-04,3.234186e-04
1403537865284436,1403537865221937,2.580296e-01,-4.071079e-03,-1.610164e-02,-9.086349e-04,-1.831404e-04,2.030267e-04
1403537865346937,1403537865284436,2.572974e-01,-3.890383e-03,-1.560408e-02,-7.536503e-04,1.510896e-05,2.347717e-04
1403537865409439,1403537865346937,2.596799e-01,-1.547923e-03,-1.420225e-02,4.416526e-04,1.055600e-04,-4.288726e-05
1403537865471938,1403537865409439,2.578639e-01,-5.084545e-04,-1.561088e-02,1.043851e-03,5.353027e-05,-2.315159e-04
1403537865534439,1403537865471938,2.600696e-01,-2.478057e-04,-1.513803e-02,5.344378e-04,-3.377281e-05,-1.534283e-04
1403537865596940,1403537865534439,2.605364e-01,9.040082e-04,-1.422680e-02,1.907795e-03,-4.884903e-04,-8.138378e-06
1403537865659441,1403537865596940,2.610780e-01,1.602086e-03,-1.463589e-02,1.635654e-03,-4.613927e-04,1.571612e-04
1403537865721942,1403537865659441,2.631349e-01,7.116779e-04,-1.398089e-02,1.238989e-03,2.282050e-04,2.931124e-04
1403537865784443,1403537865721942,2.634350e-01,-1.643798e-03,-1.514694e-02,1.337279e-04,3.838553e-04,3.481803e-04
1403537865846944,1403537865784443,2.647986e-01,-1.991044e-03,-1.476434e-02,-9.569148e-05,6.594635e-04,7.075415e-05
1403537865909445,1403537865846944,2.646486e-01,-2.353677e-03,-1.643131e-02,1.913092e-04,3.757307e-04,1.279623e-04
1403537865971947,1403537865909445,2.651638e-01,-1.847499e-03,-1.578784e-02,2.322711e-04,-2.555316e-04,1.867646e-04
1403537866034446,1403537865971947,2.665452e-01,-3.247178e-03,-1.534291e-02,-1.173711e-04,-5.890526e-04,3.841603e-04
1403537866096947,1403537866034446,2.687986e-01,-1.287384e-03,-1.436410e-02,7.941081e-05,-1.747175e-03,4.542842e-04
1403537866159448,1403537866096947,2.712454e-01,-1.549985e-03,-1.182812e-02,6.523609e-05,-2.921015e-03,3.775303e-04
1403537866221949,1403537866159448,2.740533e-01,-2.038568e-03,-1.204048e-02,2.328027e-04,-2.562360e-03,7.848867e-05
1403537866284449,1403537866221949,2.731407e-01,-9.261635e-04,-1.308874e-02,3.078464e-04,-5.335878e-04,-2.652138e-04
1403537866346951,1403537866284449,2.719742e-01,-2.413586e-03,-1.563274e-02,-1.910700e-04,9.757881e-04,-1.386879e-04
1403537866409453,1403537866346951,2.700344e-01,-2.007341e-03,-1.776011e-02,3.071435e-04,7.655937e-04,2.768110e-05
1403537866471952,1403537866409453,2.738085e-01,-4.951339e-04,-1.749003e-02,7.411111e-04,-6.741290e-04,2.637492e-04
1403537866534453,1403537866471952,2.714178e-01,-7.446008e-04,-2.069913e-02,1.344108e-03,-6.598640e-04,3.772080e-04
1403537866596954,1403537866534453,2.704911e-01,-2.908583e-04,-2.179309e-02,7.139961e-04,7.169485e-04,2.056459e-04
1403537866659455,1403537866596954,2.721991e-01,-1.507422e-03,-2.112605e-02,-2.109583e-04,1.060762e-03,1.253809e-04
1403537866721956,1403537866659455,2.726300e-01,-1.362465e-03,-1.878790e-02,4.013844e-04,1.767459e-03,-1.366759e-04
1403537866784457,1403537866721956,2.746022e-01,-1.316039e-03,-1.606640e-02,4.583637e-04,2.747020e-03,-1.725504e-04
1403537866846959,1403537866784457,2.748413e-01,-1.295578e-03,-1.397580e-02,1.401732e-03,3.088303e-03,1.152426e-04
1403537866909457,1403537866846959,2.763503e-01,-1.421213e-03,-1.289948e-02,6.045512e-04,1.787720e-03,3.830118e-04
1403537866971958,1403537866909457,2.799128e-01,-1.419756e-03,-1.313397e-02,6.239200e-07,4.719777e-04,4.986734e-04
1403537867034458,1403537866971958,2.792666e-01,-2.155671e-03,-1.480062e-02,-2.388724e-04,4.137601e-04,4.988883e-04
1403537867096959,1403537867034458,2.775405e-01,-6.078225e-04,-1.603567e-02,6.989226e-04,6.975465e-04,3.397016e-05
1403537867159458,1403537867096959,2.810691e-01,2.226796e-04,-1.635936e-02,2.494210e-03,-1.106126e-03,3.082748e-05
1403537867221960,1403537867159458,2.818011e-01,1.780794e-03,-1.727562e-02,1.798441e-03,-1.995149e-03,2.036049e-04
1403537867284459,1403537867221960,2.806954e-01,7.749314e-04,-1.903761e-02,5.925172e-04,-9.589889e-04,5.615042e-04
1403537867346960,1403537867284459,2.813586e-01,-1.470028e-04,-1.861595e-02,-7.444785e-05,3.125316e-04,9.156892e-04
1403537867409460,1403537867346960,2.795644e-01,-3.642276e-03,-1.820744e-02,-1.319700e-03,8.895708e-04,1.048449e-03
1403537867471961,1403537867409460,2.812353e-01,-2.497107e-03,-1.668092e-02,-6.881080e-04,9.389404e-04,7.187742e-04
1403537867534461,1403537867471961,2.836442e-01,-2.736537e-03,-1.518529e-02,-1.097739e-03,3.515595e-04,5.271759e-04
1403537867596962,1403537867534461,2.837390e-01,-1.098143e-03,-1.451277e-02,-3.625068e-04,-5.829085e-04,2.771393e-04
1403537867659462,1403537867596962,2.861983e-01,-1.682390e-03,-1.389158e-02,-8.334777e-04,-1.558225e-03,4.104734e-04
1403537867721961,1403537867659462,2.875942e-01,-3.090451e-04,-1.420575e-02,3.413127e-04,-1.212687e-03,2.979599e-04
1403537867784466,1403537867721961,2.867214e-01,6.258196e-04,-1.553972e-02,1.297171e-03,-6.895239e-04,1.282393e-04
1403537867846963,1403537867784466,2.891253e-01,1.440316e-03,-1.435222e-02,1.005077e-03,-1.374509e-03,1.977301e-04
1403537867909463,1403537867846963,2.872523e-01,5.343032e-04,-1.603477e-02,1.012710e-04,-1.795279e-03,5.996875e-04
1403537867971964,1403537867909463,2.886191e-01,-7.940184e-04,-1.769495e-02,-6.801271e-05,-1.232635e-03,9.405289e-04
1403537868034465,1403537867971964,2.908107e-01,-6.169832e-04,-1.749316e-02,7.470524e-04,-1.212834e-03,1.039184e-03
1403537868096966,1403537868034465,2.887972e-01,5.024599e-04,-1.751565e-02,4.531268e-04,-1.467564e-03,7.499288e-04
1403537868159468,1403537868096966,2.865953e-01,-8.123298e-04,-1.953781e-02,2.350602e-04,-6.083492e-04,4.060274e-04
1403537868221966,1403537868159468,2.861666e-01,-2.427152e-03,-1.674570e-02,-6.171077e-04,-2.179090e-04,7.051806e-04
1403537868284466,1403537868221966,2.861614e-01,-7.386186e-04,-1.753792e-02,-7.743053e-04,2.139325e-04,9.152831e-04
1403537868346969,1403537868284466,2.847159e-01,1.196364e-03,-1.618213e-02,1.197339e-03,2.295891e-04,9.394620e-04
1403537868409468,1403537868346969,2.869966e-01,1.720682e-04,-1.641648e-02,-2.065447e-04,2.426721e-04,9.154618e-04
1403537868471970,1403537868409468,2.832780e-01,-3.031853e-03,-1.582237e-02,-1.742874e-03,-1.501154e-04,6.083081e-04
1403537868534467,1403537868471970,2.856670e-01,-1.085189e-03,-1.496510e-02,5.120930e-05,-6.891951e-04,2.385445e-04
1403537868596968,1403537868534467,2.848103e-01,-2.051970e-03,-1.651783e-02,-1.295564e-04,-1.123774e-03,2.444209e-04
1403537868659469,1403537868596968,2.841257e-01,-1.396967e-03,-1.766793e-02,-5.487613e-04,-2.347984e-04,1.753375e-04
1403537868721970,1403537868659469,2.814246e-01,-1.845370e-04,-1.874072e-02,1.040490e-04,5.195959e-04,3.871994e-04
1403537868784470,1403537868721970,2.818613e-01,1.698104e-03,-1.808421e-02,9.294544e-04,3.848586e-06,6.407150e-04
1403537868846971,1403537868784470,2.806131e-01,3.867145e-04,-1.754582e-02,2.827375e-04,-1.375565e-04,6.576469e-04
1403537868909472,1403537868846971,2.813290e-01,1.953297e-03,-1.806478e-02,2.330151e-03,-5.720157e-05,2.143507e-04
1403537868971973,1403537868909472,2.785102e-01,3.201500e-03,-1.730735e-02,3.210004e-03,7.963131e-05,-1.600053e-04
1403537869034474,1403537868971973,2.774456e-01,-1.688760e-04,-1.709416e-02,-4.016091e-04,2.278074e-04,1.062954e-04
1403537869096974,1403537869034474,2.781889e-01,-1.056700e-03,-1.595931e-02,1.674123e-04,3.269632e-04,5.751565e-04
1403537869159476,1403537869096974,2.745632e-01,-5.674532e-04,-1.726429e-02,8.352412e-04,1.041567e-03,8.043222e-04
1403537869221976,1403537869159476,2.767942e-01,-3.204285e-03,-1.608997e-02,-1.465726e-03,9.820358e-04,9.637565e-04
1403537869284479,1403537869221976,2.767073e-01,-3.103985e-03,-1.601775e-02,-1.345336e-03,-1.328247e-05,6.915352e-04
1403537869346977,1403537869284479,2.782360e-01,-1.157592e-03,-1.631403e-02,4.823044e-04,-7.448643e-04,2.592194e-04
1403537869409479,1403537869346977,2.752777e-01,8.279420e-04,-1.674343e-02,2.075306e-03,-4.693402e-04,-1.309663e-04
1403537869471979,1403537869409479,2.756518e-01,1.364509e-03,-1.632807e-02,1.756279e-03,-6.816020e-04,-2.954224e-05
1403537869534480,1403537869471979,2.752052e-01,2.440348e-03,-1.591108e-02,2.031062e-03,-1.508708e-03,1.385947e-04
1403537869596982,1403537869534480,2.754714e-01,1.093650e-03,-1.545481e-02,1.229413e-03,-1.095176e-03,2.248897e-04
1403537869659482,1403537869596982,2.744032e-01,-3.973157e-04,-1.568887e-02,2.096182e-04,-5.164154e-04,3.762101e-04
1403537869721983,1403537869659482,2.744024e-01,-1.294778e-03,-1.543458e-02,-2.848711e-04,2.587663e-04,4.746697e-04
1403537869784483,1403537869721983,2.773134e-01,-3.826724e-03,-1.670584e-02,-1.527143e-03,7.015667e-04,4.884925e-04
1403537869846984,1403537869784483,2.702757e-01,-4.045697e-03,-1.789965e-02,-1.651529e-03,6.665017e-04,2.927328e-04
1403537869909500,1403537869846984,2.735462e-01,-2.630954e-03,-1.695138e-02,-5.274428e-04,3.399312e-04,-1.138435e-04
1403537869971989,1403537869909500,2.714373e-01,-1.921584e-04,-1.654358e-02,1.393259e-03,-6.720523e-04,-2.035810e-04
1403537870034487,1403537869971989,2.695803e-01,1.031231e-03,-1.670584e-02,1.784830e-03,-4.770578e-04,-2.549636e-04
1403537870097001,1403537870034487,2.701171e-01,3.254623e-04,-1.685811e-02,6.713743e-04,6.663579e-04,-6.290696e-05
1403537870159489,1403537870097001,2.681836e-01,7.261254e-04,-1.675502e-02,9.112337e-04,1.786569e-03,1.642284e-04
1403537870221990,1403537870159489,2.692580e-01,8.553039e-04,-1.585370e-02,7.917300e-04,1.194037e-03,3.335706e-04
1403537870284490,1403537870221990,2.712115e-01,1.118670e-04,-1.421784e-02,8.708779e-04,5.756531e-04,2.592043e-04
1403537870346991,1403537870284490,2.690929e-01,-2.466386e-03,-1.478953e-02,-7.255481e-04,1.870130e-04,8.567395e-05
1403537870409492,1403537870346991,2.683595e-01,-2.570595e-03,-1.556824e-02,-1.577387e-03,-3.354319e-04,-1.660902e-04
1403537870472008,1403537870409492,2.685933e-01,-2.865562e-03,-1.553392e-02,-1.200965e-03,-8.923700e-04,-9.365646e-06
1403537870534493,1403537870472008,2.689826e-01,-3.563632e-03,-1.555053e-02,-8.337336e-04,-8.982697e-04,1.033351e-04
1403537870596995,1403537870534493,2.640189e-01,-2.544661e-03,-1.632963e-02,-2.890347e-04,1.004461e-04,-9.003581e-05
1403537870659495,1403537870596995,2.641665e-01,-2.238002e-03,-1.605117e-02,4.543586e-05,9.335485e-04,-1.159580e-04
1403537870721996,1403537870659495,2.653603e-01,-2.231860e-03,-1.537769e-02,9.658667e-04,-1.288976e-04,6.611995e-05
1403537870784497,1403537870721996,2.660761e-01,2.338329e-04,-1.474873e-02,1.038888e-03,-9.684452e-04,-2.454509e-05
1403537870846998,1403537870784497,2.648998e-01,-2.413932e-03,-1.484944e-02,-1.261843e-03,-9.147209e-04,1.069293e-04
1403537870909499,1403537870846998,2.624904e-01,-3.627568e-03,-1.549163e-02,-2.000509e-03,2.136815e-04,1.553783e-04
1403537870972000,1403537870909499,2.617444e-01,-4.558665e-03,-1.617848e-02,-1.434219e-03,2.980524e-04,1.690592e-04
1403537871034500,1403537870972000,2.607615e-01,-3.194925e-03,-1.635338e-02,-1.130800e-03,1.346555e-04,2.687782e-04
1403537871097000,1403537871034500,2.618427e-01,-2.800020e-03,-1.495657e-02,-9.538018e-04,-5.326620e-04,2.554171e-04
1403537871159502,1403537871097000,2.614054e-01,-7.710060e-04,-1.418871e-02,6.373640e-04,-6.337332e-04,3.181293e-04
1403537871222001,1403537871159502,2.616339e-01,1.726643e-03,-1.459894e-02,1.902376e-03,-2.961783e-04,3.514444e-04
1403537871284501,1403537871222001,2.620678e-01,1.870050e-03,-1.444168e-02,2.011665e-03,-7.039766e-04,3.301504e-04
1403537871347006,1403537871284501,2.618612e-01,9.399052e-04,-1.436590e-02,1.172570e-03,-1.334353e-03,-1.698062e-04
1403537871409501,1403537871347006,2.636871e-01,4.167552e-04,-1.215715e-02,1.161567e-03,-2.724726e-03,-3.781872e-04
1403537871472003,1403537871409501,2.630067e-01,-3.704829e-04,-1.266809e-02,7.592391e-04,-2.534412e-03,1.944939e-04
1403537871534506,1403537871472003,2.598973e-01,-2.196295e-03,-1.597168e-02,-1.237625e-03,-1.052257e-03,1.076765e-03
1403537871597003,1403537871534506,2.556640e-01,-4.020948e-03,-2.096171e-02,-2.130171e-03,2.326312e-03,1.251110e-03
1403537871659503,1403537871597003,2.536283e-01,-3.669429e-03,-2.382304e-02,-9.980739e-04,4.196717e-03,6.027644e-04
1403537871722006,1403537871659503,2.546897e-01,-3.850054e-03,-2.232588e-02,-1.405456e-03,4.040322e-03,1.262505e-04
1403537871784505,1403537871722006,2.552501e-01,-1.805517e-03,-1.984120e-02,-4.319645e-04,2.913937e-03,-1.146488e-04
1403537871847005,1403537871784505,2.583753e-01,1.562741e-03,-1.663483e-02,2.408789e-03,1.103065e-03,-1.887902e-04
1403537871909507,1403537871847005,2.620885e-01,3.813098e-03,-1.411137e-02,3.665904e-03,-2.844129e-04,-4.929062e-05
1403537871972005,1403537871909507,2.619160e-01,3.100570e-03,-1.288567e-02,2.424887e-03,-2.187802e-04,3.629408e-04
1403537872034507,1403537871972005,2.613450e-01,-8.500787e-04,-1.193265e-02,-4.285933e-04,1.610020e-03,9.035561e-04
1403537872097007,1403537872034507,2.604574e-01,-4.883732e-03,-1.089465e-02,-2.975593e-03,3.963099e-03,9.338475e-04
1403537872159505,1403537872097007,2.589947e-01,-6.625779e-03,-1.141262e-02,-3.067499e-03,3.528926e-03,2.088074e-04
1403537872222008,1403537872159505,2.618367e-01,-5.734765e-03,-1.156505e-02,-2.351933e-03,4.425453e-05,-2.491428e-04
1403537872284507,1403537872222008,2.635424e-01,-5.512255e-03,-1.597923e-02,-2.357683e-03,-2.518900e-03,-1.153304e-04
1403537872347009,1403537872284507,2.635333e-01,-3.934970e-03,-1.828550e-02,-1.768533e-03,-2.926536e-03,1.157149e-04
1403537872409509,1403537872347009,2.641118e-01,-8.747419e-04,-1.938065e-02,3.557601e-04,-2.749701e-03,1.924906e-04
1403537872472010,1403537872409509,2.642934e-01,7.589639e-04,-1.848896e-02,2.071620e-03,-1.611682e-03,6.722241e-05
1403537872534511,1403537872472010,2.623989e-01,2.311636e-03,-1.705135e-02,2.599583e-03,-1.946973e-04,-2.953032e-04
1403537872597012,1403537872534511,2.616064e-01,2.356203e-03,-1.405257e-02,2.210402e-03,6.753738e-04,-3.741822e-04
1403537872659513,1403537872597012,2.625105e-01,9.215817e-04,-1.166240e-02,6.447678e-04,3.586521e-04,1.101028e-04
1403537872722014,1403537872659513,2.644113e-01,-3.369283e-03,-1.176545e-02,-1.678200e-03,-2.129611e-04,7.465292e-04
1403537872784514,1403537872722014,2.684909e-01,-6.017125e-03,-1.203067e-02,-1.950420e-03,-1.442731e-03,1.002548e-03
1403537872847015,1403537872784514,2.649040e-01,-7.871516e-03,-1.383565e-02,-3.295578e-03,-1.552442e-03,6.494171e-04
1403537872909517,1403537872847015,2.652180e-01,-7.569504e-03,-1.489128e-02,-3.505608e-03,-1.602388e-03,1.091329e-04
1403537872972017,1403537872909517,2.690060e-01,-7.161056e-03,-1.490646e-02,-3.011030e-03,-2.434537e-03,1.237793e-04
1403537873034518,1403537872972017,2.693886e-01,-9.973688e-04,-1.556364e-02,1.613353e-04,-2.281451e-03,-2.361137e-04
1403537873097019,1403537873034518,2.648148e-01,-9.312244e-04,-1.799628e-02,1.417511e-03,-7.691682e-04,-3.950157e-04
1403537873159520,1403537873097019,2.616298e-01,7.904574e-04,-1.987020e-02,1.583776e-03,6.605022e-04,-4.799061e-04
1403537873222023,1403537873159520,2.607579e-01,1.351226e-03,-1.960832e-02,1.761972e-03,1.707015e-03,-4.953203e-04
1403537873284522,1403537873222023,2.628798e-01,1.702716e-03,-1.693653e-02,2.501508e-03,1.813912e-03,-2.856675e-04
1403537873347024,1403537873284522,2.648082e-01,-1.233791e-03,-1.489254e-02,4.270265e-04,1.946340e-04,2.099980e-05
1403537873409525,1403537873347024,2.667501e-01,-2.322156e-03,-1.295561e-02,1.482222e-04,-8.277826e-04,-1.108355e-04
1403537873472024,1403537873409525,2.653184e-01,-1.454210e-03,-1.407332e-02,9.124183e-04,-2.812518e-04,-2.019162e-04
1403537873534525,1403537873472024,2.664126e-01,-1.562460e-03,-1.436507e-02,8.195114e-04,4.421021e-04,-1.889688e-04
1403537873597026,1403537873534525,2.671684e-01,-2.179742e-03,-1.494557e-02,-3.584542e-04,9.815189e-04,-1.750838e-04
1403537873659526,1403537873597026,2.675572e-01,8.332690e-05,-1.558097e-02,2.256727e-03,9.038499e-04,-5.675873e-04
1403537873722029,1403537873659526,2.687943e-01,1.284318e-03,-1.475151e-02,3.171805e-03,-6.775144e-04,-7.182583e-04
1403537873784529,1403537873722029,2.719862e-01,-1.757822e-03,-1.487056e-02,-1.231794e-04,-1.495447e-03,-2.924414e-04
1403537873847032,1403537873784529,2.699710e-01,-3.755093e-03,-1.735782e-02,-1.886176e-03,-1.766455e-03,5.035107e-05
1403537873909531,1403537873847032,2.688771e-01,-3.283738e-03,-1.789407e-02,-5.588515e-05,-1.227728e-03,-1.581195e-04
1403537873972033,1403537873909531,2.704070e-01,-4.083126e-03,-1.651250e-02,-4.425811e-04,-8.553973e-04,-5.479109e-04
1403537874034532,1403537873972033,2.712193e-01,-4.994328e-03,-1.426586e-02,-1.040513e-03,1.704608e-04,-7.559326e-04
1403537874097032,1403537874034532,2.725658e-01,-1.662269e-04,-1.404943e-02,2.691841e-03,-5.314280e-04,-1.243018e-03
1403537874159534,1403537874097032,2.719248e-01,1.918761e-03,-1.476720e-02,3.964134e-03,-9.384317e-04,-1.203248e-03
1403537874222033,1403537874159534,2.731182e-01,4.182792e-03,-1.389704e-02,4.308066e-03,-1.888084e-03,-7.828838e-04
1403537874284533,1403537874222033,2.732893e-01,3.931169e-03,-1.452189e-02,3.896308e-03,-1.357230e-03,-4.344044e-04
1403537874347035,1403537874284533,2.712885e-01,8.601242e-04,-1.641978e-02,2.618541e-03,1.499826e-04,-3.727051e-04
1403537874409534,1403537874347035,2.711984e-01,-3.734314e-03,-1.803244e-02,-1.351805e-03,5.947320e-04,-2.416728e-04
1403537874472034,1403537874409534,2.725593e-01,-8.634687e-03,-1.841041e-02,-4.559705e-03,3.336662e-04,3.428773e-06
1403537874534535,1403537874472034,2.713748e-01,-9.855800e-03,-1.888198e-02,-3.956092e-03,4.035644e-04,-1.228045e-04
1403537874597037,1403537874534535,2.712020e-01,-8.960944e-03,-1.890713e-02,-2.376177e-03,1.160391e-03,-3.243404e-04
1403537874659537,1403537874597037,2.722002e-01,-6.205460e-03,-1.833684e-02,-1.993919e-03,1.299973e-03,-4.477322e-04
1403537874722037,1403537874659537,2.719201e-01,-2.301942e-03,-1.604694e-02,6.361767e-04,9.752481e-04,-5.913468e-04
1403537874784538,1403537874722037,2.740171e-01,2.693579e-03,-1.463291e-02,2.673018e-03,4.317812e-04,-8.093978e-04
1403537874847038,1403537874784538,2.751066e-01,4.863523e-03,-1.286619e-02,4.728417e-03,9.979441e-04,-9.789488e-04
1403537874909540,1403537874847038,2.739748e-01,5.001162e-03,-1.440233e-02,4.793829e-03,9.192596e-04,-9.000688e-04
1403537874972042,1403537874909540,2.747563e-01,4.360342e-03,-1.484725e-02,4.172119e-03,3.696885e-04,-4.956178e-04
1403537875034543,1403537874972042,2.760114e-01,7.964793e-05,-1.564101e-02,3.799281e-04,-3.685418e-04,1.306179e-04
1403537875097042,1403537875034543,2.769238e-01,-6.337087e-03,-1.691861e-02,-3.374078e-03,-7.373895e-04,6.347043e-04
1403537875159543,1403537875097042,2.763279e-01,-8.415215e-03,-1.780100e-02,-3.768724e-03,-7.075445e-04,6.412441e-04
1403537875222046,1403537875159543,2.762710e-01,-9.619798e-03,-1.875421e-02,-4.337685e-03,-4.694557e-04,3.345857e-04
1403537875284545,1403537875222046,2.745481e-01,-7.719703e-03,-1.985280e-02,-3.227561e-03,4.736478e-04,-1.260391e-04
1403537875347046,1403537875284545,2.756151e-01,-4.121999e-03,-1.936744e-02,-1.067946e-03,1.517631e-03,-2.041411e-04
1403537875409549,1403537875347046,2.768640e-01,3.039122e-04,-1.743358e-02,1.265361e-03,1.548382e-03,-2.826078e-04
1403537875472049,1403537875409549,2.792377e-01,4.082104e-03,-1.510339e-02,4.350212e-03,9.550490e-04,-2.518556e-04
1403537875534548,1403537875472049,2.781084e-01,5.426480e-03,-1.575773e-02,4.434630e-03,5.806977e-04,-1.889640e-04
1403537875597050,1403537875534548,2.793203e-01,3.525806e-03,-1.520565e-02,2.213954e-03,8.989769e-04,-1.840637e-04
1403537875659550,1403537875597050,2.779592e-01,-1.307955e-03,-1.605920e-02,-5.547199e-04,6.447678e-04,2.226712e-04
1403537875722051,1403537875659550,2.812806e-01,-4.672423e-03,-1.545859e-02,-2.524519e-03,4.960716e-04,6.145381e-04
1403537875784552,1403537875722051,2.794503e-01,-7.578350e-03,-1.593772e-02,-3.269117e-03,3.097575e-04,6.072876e-04
1403537875847055,1403537875784552,2.808873e-01,-7.248257e-03,-1.705705e-02,-2.719496e-03,-4.067253e-04,1.850937e-04
1403537875909553,1403537875847055,2.805006e-01,-4.789957e-03,-1.731996e-02,-1.332618e-03,-1.113611e-03,-2.749958e-04
1403537875972054,1403537875909553,2.834692e-01,-3.083069e-03,-1.690415e-02,-7.742164e-04,-1.476939e-03,-2.471806e-04
1403537876034555,1403537875972054,2.841282e-01,-9.960510e-04,-1.550036e-02,1.059860e-03,-1.421527e-03,-1.893233e-04
1403537876097056,1403537876034555,2.850088e-01,3.173521e-03,-1.504650e-02,3.985033e-03,-1.246474e-03,-4.204584e-04
1403537876159556,1403537876097056,2.839199e-01,3.467810e-03,-1.648014e-02,3.210074e-03,-1.433863e-03,-3.275705e-04
1403537876222061,1403537876159556,2.848309e-01,2.112327e-03,-1.546729e-02,2.486655e-03,-1.585097e-03,6.781478e-06
1403537876284559,1403537876222061,2.855625e-01,-5.436696e-04,-1.689694e-02,1.051339e-03,-1.235200e-03,2.032310e-04
1403537876347059,1403537876284559,2.856055e-01,-4.265177e-03,-1.763018e-02,-1.659714e-03,-9.222046e-04,2.357905e-04
1403537876409560,1403537876347059,2.854281e-01,-6.901100e-03,-1.805799e-02,-3.063106e-03,-7.996371e-04,2.069695e-04
1403537876472061,1403537876409560,2.856725e-01,-8.486599e-03,-1.935107e-02,-3.407787e-03,-1.612831e-04,5.985215e-05
1403537876534564,1403537876472061,2.854478e-01,-6.757033e-03,-1.945522e-02,-2.510053e-03,3.694816e-04,-1.212278e-04
1403537876597063,1403537876534564,2.844992e-01,-5.186593e-03,-1.867744e-02,-1.511090e-03,8.531083e-04,-1.848938e-04
1403537876659563,1403537876597063,2.847993e-01,-1.772920e-03,-1.743555e-02,4.724747e-04,9.349267e-04,-3.475566e-04
1403537876722067,1403537876659563,2.841594e-01,5.153843e-04,-1.732019e-02,1.423873e-03,9.080803e-04,-5.054667e-04
1403537876784567,1403537876722067,2.851781e-01,8.969780e-04,-1.692000e-02,1.825016e-03,1.135498e-03,-5.798805e-04
1403537876847067,1403537876784567,2.874539e-01,4.066226e-05,-1.606321e-02,1.823635e-03,1.188313e-03,-3.340979e-04
1403537876909568,1403537876847067,2.855221e-01,-1.016598e-03,-1.774399e-02,3.103779e-04,1.150950e-03,6.258002e-05
1403537876972068,1403537876909568,2.862368e-01,-2.234764e-03,-1.796431e-02,-2.685544e-04,1.772356e-03,4.207631e-04
1403537877034571,1403537876972068,2.860063e-01,-4.207029e-03,-1.855519e-02,-1.338491e-03,1.645339e-03,6.412435e-04
1403537877097071,1403537877034571,2.870957e-01,-5.826518e-03,-1.748161e-02,-2.448993e-03,2.797987e-04,3.590534e-04
1403537877159570,1403537877097071,2.886234e-01,-5.472570e-03,-1.668889e-02,-2.205656e-03,-7.996303e-04,-2.392653e-05
1403537877222071,1403537877159570,2.881645e-01,-5.542981e-03,-1.614575e-02,-1.825865e-03,-9.524184e-04,-1.484660e-04
1403537877284574,1403537877222071,2.882952e-01,-2.583622e-03,-1.604314e-02,7.446524e-05,-7.192302e-04,-6.039791e-05
1403537877347073,1403537877284574,2.878255e-01,-8.949207e-04,-1.600279e-02,8.608539e-04,-2.527065e-04,3.196074e-04
1403537877409574,1403537877347073,2.865653e-01,-6.408010e-05,-1.733014e-02,1.129847e-03,8.304471e-04,5.099690e-04
1403537877472077,1403537877409574,2.879007e-01,4.571250e-04,-1.681567e-02,7.646485e-04,4.596972e-04,4.010812e-04
1403537877534576,1403537877472077,2.897001e-01,-5.990128e-04,-1.629728e-02,8.592628e-04,-9.561688e-04,2.183697e-04
1403537877597077,1403537877534576,2.891061e-01,-1.071516e-03,-1.717777e-02,3.618659e-04,-1.922968e-03,-8.563128e-06
1403537877659577,1403537877597077,2.896496e-01,-1.477492e-03,-1.747807e-02,4.673974e-04,-1.831043e-03,1.609211e-04
1403537877722080,1403537877659577,2.904167e-01,-5.845902e-04,-1.774015e-02,5.735226e-04,-9.339327e-04,4.412508e-04
1403537877784578,1403537877722080,2.872885e-01,-1.627965e-03,-1.839937e-02,-4.548684e-04,1.861292e-05,7.180173e-04
1403537877909579,1403537877784578,5.783017e-01,-5.262087e-03,-3.316754e-02,-6.224682e-04,5.586514e-04,8.346890e-04
1403537877972080,1403537877909579,2.896752e-01,-2.358559e-04,-1.623993e-02,1.930268e-03,-9.446051e-04,-1.951093e-04
1403537878034580,1403537877972080,2.897553e-01,4.652273e-04,-1.710156e-02,1.360245e-03,-1.565659e-03,5.985511e-05
1403537878097080,1403537878034580,2.891496e-01,3.823586e-04,-1.726565e-02,7.548214e-04,-9.055098e-04,3.187214e-04
1403537878222082,1403537878097080,5.752710e-01,-2.207961e-03,-3.945122e-02,3.599487e-04,1.375922e-03,9.144560e-04
1403537878284583,1403537878222082,2.882300e-01,-2.756702e-03,-1.900219e-02,-1.092725e-03,9.417868e-04,4.252815e-04
1403537878347081,1403537878284583,2.900719e-01,-3.807695e-03,-1.743074e-02,-1.528424e-03,2.530313e-04,2.327845e-04
1403537878472081,1403537878347081,5.822065e-01,-6.003866e-03,-3.329717e-02,-1.184721e-03,-6.750552e-04,-3.907007e-05
1403537878534582,1403537878472081,2.905234e-01,-1.285022e-03,-1.611994e-02,1.169330e-03,-2.525490e-04,1.065272e-04
1403537878597082,1403537878534582,2.899723e-01,-5.410080e-04,-1.535640e-02,4.259256e-04,-8.599720e-04,1.663142e-04
1403537878659583,1403537878597082,2.942622e-01,-8.440832e-04,-1.468233e-02,4.257603e-04,-7.615906e-04,2.335482e-04
1403537878784583,1403537878659583,5.827311e-01,-4.498885e-04,-3.326752e-02,-2.695434e-05,-2.273877e-03,6.562942e-04
1403537878847083,1403537878784583,2.897704e-01,-3.414437e-03,-1.805496e-02,-1.489638e-03,-1.237937e-03,3.125214e-04
1403537878909584,1403537878847083,2.896219e-01,-4.875162e-03,-1.931286e-02,-2.294751e-03,-3.366928e-04,3.347572e-04
1403537879034584,1403537878909584,5.882894e-01,-1.200283e-02,-4.012041e-02,-5.642955e-03,2.131400e-04,9.381130e-04
1403537879097084,1403537879034584,2.856241e-01,-2.334823e-03,-2.018284e-02,4.172508e-04,1.261534e-04,1.138577e-04
1403537879159585,1403537879097084,2.887339e-01,-1.554823e-03,-1.861963e-02,1.221725e-04,1.241511e-03,7.737350e-05
1403537879222085,1403537879159585,2.866751e-01,-7.623852e-04,-1.734140e-02,-3.039902e-04,1.517801e-03,3.209681e-06
1403537879284586,1403537879222085,2.890188e-01,-4.050330e-04,-1.539016e-02,3.543692e-04,7.509857e-04,4.943910e-05
1403537879347087,1403537879284586,2.892444e-01,-1.530747e-03,-1.529165e-02,7.815758e-05,4.650052e-04,2.090484e-04
1403537879409587,1403537879347087,2.878345e-01,-1.500330e-03,-1.570399e-02,5.235356e-05,5.113417e-04,2.204999e-04
1403537879472087,1403537879409587,2.904909e-01,-1.643921e-03,-1.749416e-02,3.283591e-04,9.094346e-06,3.639198e-04
1403537879534588,1403537879472087,2.880319e-01,-6.382836e-04,-1.693999e-02,-1.716882e-04,-1.390914e-04,5.159400e-04
1403537879597088,1403537879534588,2.882977e-01,-1.271991e-03,-1.872485e-02,-1.409732e-04,1.401325e-04,6.640030e-04
1403537879659589,1403537879597088,2.871765e-01,3.906467e-05,-1.755979e-02,8.572071e-04,-5.138159e-04,2.681471e-04
1403537879722089,1403537879659589,2.866813e-01,-1.020993e-04,-1.680528e-02,8.553466e-06,-8.558340e-04,-3.385713e-05
1403537879784589,1403537879722089,2.846625e-01,-1.942215e-03,-1.956549e-02,-2.570576e-04,-7.466563e-06,-4.027227e-05
1403537879847090,1403537879784589,2.843128e-01,-4.158239e-03,-1.790252e-02,-1.492857e-03,3.195051e-04,3.828821e-04
1403537879909590,1403537879847090,2.823124e-01,-4.628221e-03,-1.770017e-02,-2.618193e-03,6.135385e-04,5.384614e-04
1403537879972090,1403537879909590,2.838989e-01,-3.311328e-03,-1.742318e-02,-3.357041e-04,9.583404e-04,4.640309e-04
1403537880034591,1403537879972090,2.865459e-01,-1.542367e-03,-1.716547e-02,1.595461e-03,6.220627e-04,-1.790857e-05
1403537880097094,1403537880034591,2.914345e-01,1.917141e-03,-1.653244e-02,3.519801e-04,3.637964e-04,-5.033568e-04
1403537880159594,1403537880097094,2.920023e-01,2.539718e-03,-1.710534e-02,1.307661e-03,1.884097e-04,-6.528330e-04
1403537880222094,1403537880159594,2.906895e-01,2.568027e-03,-2.228972e-02,2.979745e-03,8.074430e-04,-5.886571e-04
1403537880284595,1403537880222094,2.885245e-01,7.118839e-04,-1.770634e-02,1.091638e-03,1.706205e-03,2.940594e-05
1403537880347096,1403537880284595,2.895286e-01,-3.128574e-03,-1.673575e-02,-1.539746e-03,1.588298e-04,5.518085e-04
1403537880409596,1403537880347096,2.929277e-01,-1.725320e-03,-1.557637e-02,-6.552216e-04,-1.226003e-03,3.999141e-04
1403537880472095,1403537880409596,2.914204e-01,-3.463107e-03,-1.486061e-02,-2.976090e-04,-9.452107e-04,2.501011e-04
1403537880534597,1403537880472095,2.915273e-01,-4.615510e-03,-1.462025e-02,-1.660013e-03,-8.146506e-04,-1.260029e-04
1403537880597097,1403537880534597,2.923617e-01,-2.457495e-03,-1.610083e-02,-1.965868e-04,2.362838e-04,-6.728840e-04
1403537880659598,1403537880597097,2.919776e-01,-9.390485e-05,-1.785195e-02,2.236197e-03,6.637846e-04,-4.670501e-04
1403537880722097,1403537880659598,2.952911e-01,1.410157e-03,-1.717329e-02,2.294003e-03,1.417655e-04,-1.134551e-04
1403537880784600,1403537880722097,2.963302e-01,1.257712e-03,-1.620490e-02,9.911127e-04,-1.344019e-03,1.210303e-04
1403537880847100,1403537880784600,2.968064e-01,-1.202118e-04,-1.669235e-02,1.251040e-03,-2.002562e-03,2.653974e-05
1403537880909603,1403537880847100,2.964750e-01,-8.167470e-04,-1.837457e-02,9.411962e-04,-1.102159e-03,-1.622946e-04
1403537880972102,1403537880909603,2.948977e-01,-3.289285e-03,-1.821280e-02,-3.663075e-04,5.485739e-04,-2.399564e-04
1403537881034605,1403537880972102,2.953604e-01,-2.521653e-03,-1.732242e-02,1.005420e-05,8.432909e-04,-4.633947e-04
1403537881097103,1403537881034605,3.005284e-01,-2.040264e-03,-1.538327e-02,7.676658e-04,2.783662e-04,-2.989439e-04
1403537881159604,1403537881097103,2.980223e-01,-2.178269e-03,-1.680006e-02,2.890884e-04,-1.852473e-04,-6.804072e-06
1403537881222105,1403537881159604,3.017003e-01,4.513079e-04,-1.607215e-02,2.019462e-03,-1.082222e-03,-1.969752e-04
1403537881284606,1403537881222105,3.016752e-01,-1.967157e-04,-1.616042e-02,1.249559e-03,-1.990567e-03,-3.300175e-04
1403537881347106,1403537881284606,2.999864e-01,-2.866904e-03,-1.611437e-02,-1.257242e-03,-1.623327e-03,-2.838653e-04
1403537881409608,1403537881347106,3.005346e-01,-3.718798e-03,-1.672796e-02,-1.995346e-03,-4.016689e-04,-3.574172e-04
1403537881472109,1403537881409608,3.016673e-01,-4.848116e-03,-1.780797e-02,-9.811246e-04,-1.548862e-04,-4.149235e-04
1403537881534609,1403537881472109,3.031811e-01,-6.144847e-03,-1.712751e-02,-1.655320e-03,-8.969768e-04,-2.744356e-04
1403537881597110,1403537881534609,3.013158e-01,-6.729826e-03,-1.754680e-02,-3.042199e-03,-1.125993e-03,-1.652716e-04
1403537881659611,1403537881597110,3.026974e-01,-5.974024e-03,-1.749719e-02,-2.577523e-03,-9.344406e-04,-2.432298e-04
1403537881722112,1403537881659611,3.011981e-01,-5.336003e-03,-1.970810e-02,-2.002200e-03,-1.356819e-04,-4.500618e-04
1403537881784613,1403537881722112,3.015011e-01,-2.527972e-03,-2.101605e-02,9.303440e-04,1.531714e-03,-9.238226e-04
1403537881847114,1403537881784613,3.009376e-01,-1.161274e-03,-2.105325e-02,1.410173e-03,2.787035e-03,-1.007017e-03
1403537881909615,1403537881847114,3.005048e-01,-2.058504e-04,-2.016836e-02,1.395234e-03,3.216759e-03,-5.438728e-04
1403537881972115,1403537881909615,3.009516e-01,-2.380479e-03,-2.039945e-02,4.752938e-04,2.731874e-03,1.703085e-04
1403537882034616,1403537881972115,3.024373e-01,-2.500898e-03,-1.959259e-02,6.973587e-04,2.590021e-03,1.102058e-04
1403537882097118,1403537882034616,3.017264e-01,-2.376644e-03,-1.840039e-02,1.001345e-03,2.371942e-03,-1.522022e-04
1403537882159617,1403537882097118,3.038608e-01,-4.303849e-03,-1.642351e-02,-5.997269e-04,1.736473e-03,-3.962189e-04
1403537882222119,1403537882159617,3.027876e-01,-3.151114e-03,-1.603558e-02,-4.492112e-04,1.701057e-03,-3.293229e-04
1403537882284619,1403537882222119,3.033132e-01,-3.841829e-03,-1.617137e-02,-7.468737e-04,1.122637e-03,-8.758646e-05
1403537882347120,1403537882284619,3.033592e-01,-1.564819e-03,-1.745943e-02,1.744245e-03,-1.605468e-04,-1.318518e-04
1403537882409621,1403537882347120,3.058739e-01,-2.658788e-03,-1.619311e-02,7.125675e-04,-1.609541e-03,-1.643589e-04
1403537882472122,1403537882409621,3.069756e-01,-2.693767e-03,-1.627443e-02,-1.395213e-04,-2.349054e-03,-4.595577e-04
1403537882534623,1403537882472122,3.075175e-01,-1.458240e-03,-1.595748e-02,1.771349e-03,-2.976095e-03,-4.620165e-04
1403537882597125,1403537882534623,3.074100e-01,-1.381431e-03,-1.607514e-02,1.096519e-03,-3.409527e-03,-4.318218e-04
1403537882659625,1403537882597125,3.061075e-01,-2.161178e-03,-1.715973e-02,4.004921e-04,-3.100027e-03,-4.734689e-04
1403537882722126,1403537882659625,3.057729e-01,-2.700359e-03,-1.770875e-02,5.458904e-04,-2.100069e-03,-4.293779e-04
1403537882784626,1403537882722126,3.050396e-01,-3.122706e-03,-1.812629e-02,-3.903541e-04,-1.586173e-03,-1.620529e-04
1403537882847126,1403537882784626,3.061368e-01,-4.163093e-03,-1.825947e-02,-1.333719e-03,-1.686100e-03,-2.324893e-05
1403537882909629,1403537882847126,3.044447e-01,-1.802044e-03,-1.992022e-02,1.007331e-03,-1.292610e-03,-2.774844e-04
1403537882972129,1403537882909629,3.041311e-01,-1.324188e-03,-2.058156e-02,5.421727e-04,-5.428549e-05,-4.117995e-04
1403537883034630,1403537882972129,3.013291e-01,-2.137712e-03,-2.216810e-02,-2.375743e-05,8.751558e-04,-2.748040e-04
1403537883097129,1403537883034630,3.055764e-01,-1.751334e-04,-2.001095e-02,1.743004e-03,1.273377e-03,-1.088394e-04
1403537883159634,1403537883097129,3.052602e-01,-2.033094e-03,-1.887920e-02,-4.855545e-04,1.477030e-03,4.090034e-04
1403537883222131,1403537883159634,3.027743e-01,-3.694731e-03,-1.721663e-02,-1.982250e-03,1.366943e-03,6.668453e-04
1403537883284630,1403537883222131,3.064628e-01,-2.944787e-03,-1.608502e-02,-1.098823e-03,6.961923e-04,6.232557e-04
1403537883347134,1403537883284630,3.073220e-01,-3.005206e-03,-1.558515e-02,-3.623997e-04,3.589704e-04,4.247359e-04
1403537883409631,1403537883347134,3.057906e-01,-3.588752e-03,-1.635042e-02,-9.916503e-04,2.928556e-04,3.770841e-04
1403537883472131,1403537883409631,3.080759e-01,-1.724685e-03,-1.634557e-02,7.272017e-04,-4.218935e-04,1.369911e-04
1403537883534632,1403537883472131,3.059824e-01,2.304491e-04,-1.779737e-02,1.038325e-03,-1.049905e-03,1.827789e-04
1403537883597133,1403537883534632,3.077435e-01,-2.497208e-03,-1.783299e-02,-7.068207e-04,-9.745863e-04,5.509158e-04
1403537883659633,1403537883597133,3.079778e-01,-3.219697e-03,-1.816517e-02,-1.878813e-03,-1.088201e-03,4.883853e-04
1403537883722135,1403537883659633,3.067837e-01,-4.721927e-03,-1.862509e-02,-1.799592e-03,-1.819794e-03,5.227079e-04
1403537883784636,1403537883722135,3.081233e-01,-5.058390e-03,-1.848998e-02,-1.644545e-03,-1.137322e-03,2.683291e-04
1403537883847137,1403537883784636,3.070190e-01,-6.328657e-03,-1.832567e-02,-2.617673e-03,-3.501374e-04,3.474270e-04
1403537883909640,1403537883847137,3.087836e-01,-8.408940e-03,-1.781455e-02,-4.665893e-03,-1.889976e-05,2.009517e-04
1403537883972140,1403537883909640,3.083530e-01,-6.910248e-03,-1.765841e-02,-3.879320e-03,-5.950804e-04,1.508493e-04
1403537884034639,1403537883972140,3.094677e-01,-3.784528e-03,-1.677942e-02,-6.204916e-04,-9.285309e-04,-1.166706e-05
1403537884097140,1403537884034639,3.087928e-01,-1.520672e-03,-1.711361e-02,2.429863e-04,-8.768240e-04,-7.173616e-05
1403537884159642,1403537884097140,3.073408e-01,-8.453345e-04,-1.915807e-02,2.506278e-05,2.140549e-05,1.316098e-04
1403537884222142,1403537884159642,3.063555e-01,-3.405877e-03,-2.064377e-02,-1.892176e-03,1.434203e-03,4.374577e-04
1403537884284645,1403537884222142,3.031404e-01,-1.984132e-03,-2.290502e-02,-2.976137e-05,3.593782e-03,2.219511e-04
1403537884347145,1403537884284645,3.039871e-01,-1.317684e-03,-2.451570e-02,1.390367e-03,4.297855e-03,1.109874e-04
1403537884409644,1403537884347145,3.050025e-01,-1.382048e-03,-2.236234e-02,2.715844e-04,3.524010e-03,3.756431e-04
1403537884472146,1403537884409644,3.036048e-01,-2.293520e-03,-2.055931e-02,-1.157756e-03,2.022376e-03,6.679260e-04
1403537884534647,1403537884472146,3.078302e-01,-1.409378e-03,-1.811916e-02,7.807158e-04,1.708373e-03,6.413023e-04
1403537884597147,1403537884534647,3.070386e-01,-1.218195e-04,-1.544748e-02,1.865778e-03,1.848436e-03,3.594688e-04
1403537884659648,1403537884597147,3.076946e-01,-1.309258e-03,-1.542081e-02,6.648417e-04,1.796158e-03,8.000812e-05
1403537884722149,1403537884659648,3.073825e-01,-7.792307e-04,-1.618984e-02,9.346327e-04,1.391030e-03,2.319293e-05
1403537884784650,1403537884722149,3.074410e-01,-1.820040e-03,-1.713138e-02,-3.612972e-04,8.518362e-04,4.279948e-04
1403537884847151,1403537884784650,3.085872e-01,-7.472887e-04,-1.769946e-02,1.115206e-03,-1.412774e-03,6.770980e-04
1403537884909651,1403537884847151,3.100166e-01,-2.384152e-04,-1.847821e-02,9.829238e-04,-3.133110e-03,4.991468e-04
1403537884972152,1403537884909651,3.126791e-01,-2.217880e-03,-1.808741e-02,7.852261e-04,-3.548314e-03,-5.419482e-06
1403537885034656,1403537884972152,3.098316e-01,4.302810e-04,-1.773464e-02,9.402240e-04,-3.113193e-03,-5.011759e-04
1403537885097157,1403537885034656,3.071512e-01,1.735292e-03,-1.867514e-02,2.521539e-03,-1.662353e-03,-4.147890e-04
1403537885159655,1403537885097157,3.059256e-01,2.106737e-03,-1.808124e-02,1.889303e-03,-7.315439e-05,-1.659255e-04
1403537885222156,1403537885159655,3.026723e-01,8.330887e-04,-1.757784e-02,1.038312e-03,-5.957247e-05,1.656902e-04
