timestamp,ins_status,latitude,longitude,altitude,northing,easting,down,utm_zone,velocity_north,velocity_east,velocity_down,roll,pitch,yaw
1403774724242380,INS_SOLUTION_GOOD,51.765477,-1.258721,110.498172,5736388.774541,620159.095060,-110.498172,30U,-0.010579,-0.008852,-0.063039,-0.085541,-0.006990,1.089724
1403774724264482,INS_SOLUTION_GOOD,51.765477,-1.258721,110.499434,5736388.774314,620159.094858,-110.499434,30U,-0.010392,-0.008765,-0.063232,-0.085536,-0.006993,1.089721
1403774724282238,INS_SOLUTION_GOOD,51.765477,-1.258721,110.500699,5736388.774088,620159.094726,-110.500699,30U,-0.010312,-0.008941,-0.063350,-0.085534,-0.006996,1.089727
1403774724302130,INS_SOLUTION_GOOD,51.765477,-1.258721,110.501964,5736388.773861,620159.094524,-110.501964,30U,-0.010353,-0.009133,-0.063215,-0.085528,-0.006998,1.089725
1403774724322243,INS_SOLUTION_GOOD,51.765477,-1.258721,110.503228,5736388.773635,620159.094391,-110.503228,30U,-0.010375,-0.009309,-0.063187,-0.085521,-0.007000,1.089729
1403774724342375,INS_SOLUTION_GOOD,51.765477,-1.258721,110.504490,5736388.773519,620159.094187,-110.504490,30U,-0.010215,-0.009420,-0.063063,-0.085513,-0.007002,1.089723
1403774724372380,INS_SOLUTION_GOOD,51.765477,-1.258721,110.505751,5736388.773291,620159.093985,-110.505751,30U,-0.010014,-0.009527,-0.062981,-0.085504,-0.006999,1.089726
1403774724382003,INS_SOLUTION_GOOD,51.765477,-1.258721,110.507010,5736388.773064,620159.093783,-110.507010,30U,-0.009837,-0.009703,-0.062973,-0.085501,-0.006997,1.089722
1403774724404131,INS_SOLUTION_GOOD,51.765477,-1.258721,110.508272,5736388.772838,620159.093651,-110.508272,30U,-0.009653,-0.010068,-0.063191,-0.085499,-0.006994,1.089725
1403774724422229,INS_SOLUTION_GOOD,51.765477,-1.258721,110.509535,5736388.772611,620159.093449,-110.509535,30U,-0.009496,-0.010326,-0.063079,-0.085501,-0.006991,1.089721
1403774724442514,INS_SOLUTION_GOOD,51.765477,-1.258721,110.510799,5736388.772495,620159.093245,-110.510799,30U,-0.009065,-0.010415,-0.063350,-0.085508,-0.006987,1.089726
1403774724464303,INS_SOLUTION_GOOD,51.765477,-1.258721,110.512069,5736388.772267,620159.093043,-110.512069,30U,-0.008776,-0.010300,-0.063655,-0.085512,-0.006985,1.089723
1403774724482395,INS_SOLUTION_GOOD,51.765477,-1.258721,110.513343,5736388.772151,620159.092839,-110.513343,30U,-0.008394,-0.010148,-0.063792,-0.085522,-0.006979,1.089726
1403774724502259,INS_SOLUTION_GOOD,51.765477,-1.258721,110.514621,5736388.771924,620159.092637,-110.514621,30U,-0.008372,-0.010196,-0.063937,-0.085529,-0.006976,1.089726
1403774724522177,INS_SOLUTION_GOOD,51.765477,-1.258721,110.515902,5736388.771808,620159.092433,-110.515902,30U,-0.008292,-0.010148,-0.064160,-0.085532,-0.006975,1.089730
1403774724542182,INS_SOLUTION_GOOD,51.765477,-1.258721,110.455657,5736388.788638,620159.102939,-110.455657,30U,-0.007084,-0.008919,-0.060112,-0.085545,-0.006982,1.089783
1403774724570536,INS_SOLUTION_GOOD,51.765477,-1.258721,110.456861,5736388.788411,620159.102737,-110.456861,30U,-0.007380,-0.009123,-0.060245,-0.085549,-0.006983,1.089782
1403774724582559,INS_SOLUTION_GOOD,51.765477,-1.258721,110.458065,5736388.788294,620159.102533,-110.458065,30U,-0.007473,-0.009261,-0.060194,-0.085554,-0.006983,1.089780
1403774724602101,INS_SOLUTION_GOOD,51.765477,-1.258721,110.459270,5736388.788180,620159.102398,-110.459270,30U,-0.007858,-0.009347,-0.060283,-0.085557,-0.006987,1.089780
1403774724622130,INS_SOLUTION_GOOD,51.765477,-1.258721,110.460474,5736388.787953,620159.102196,-110.460474,30U,-0.008085,-0.009312,-0.060139,-0.085555,-0.006992,1.089780
1403774724642385,INS_SOLUTION_GOOD,51.765477,-1.258721,110.461676,5736388.787836,620159.101992,-110.461676,30U,-0.008078,-0.009355,-0.060220,-0.085556,-0.006993,1.089779
1403774724664476,INS_SOLUTION_GOOD,51.765477,-1.258721,110.462878,5736388.787611,620159.101859,-110.462878,30U,-0.008114,-0.009289,-0.060137,-0.085553,-0.006994,1.089782
1403774724682135,INS_SOLUTION_GOOD,51.765477,-1.258721,110.464082,5736388.787494,620159.101655,-110.464082,30U,-0.008264,-0.009509,-0.060293,-0.085549,-0.006991,1.089779
1403774724701886,INS_SOLUTION_GOOD,51.765477,-1.258721,110.465288,5736388.787267,620159.101453,-110.465288,30U,-0.008317,-0.009525,-0.060382,-0.085544,-0.006991,1.089781
1403774724722136,INS_SOLUTION_GOOD,51.765477,-1.258721,110.466498,5736388.787151,620159.101249,-110.466498,30U,-0.008253,-0.009370,-0.060560,-0.085537,-0.006988,1.089782
1403774724742173,INS_SOLUTION_GOOD,51.765477,-1.258721,110.467709,5736388.786925,620159.101116,-110.467709,30U,-0.008424,-0.009573,-0.060704,-0.085533,-0.006985,1.089783
1403774724770437,INS_SOLUTION_GOOD,51.765477,-1.258721,110.468925,5736388.786809,620159.100912,-110.468925,30U,-0.008329,-0.009599,-0.060873,-0.085530,-0.006983,1.089780
1403774724785047,INS_SOLUTION_GOOD,51.765477,-1.258721,110.470143,5736388.786582,620159.100710,-110.470143,30U,-0.008108,-0.009605,-0.061024,-0.085527,-0.006978,1.089783
1403774724802188,INS_SOLUTION_GOOD,51.765477,-1.258721,110.471364,5736388.786466,620159.100506,-110.471364,30U,-0.008128,-0.009631,-0.061101,-0.085523,-0.006977,1.089782
1403774724822309,INS_SOLUTION_GOOD,51.765477,-1.258721,110.472587,5736388.786238,620159.100304,-110.472587,30U,-0.008060,-0.009723,-0.061175,-0.085521,-0.006976,1.089783
1403774724842284,INS_SOLUTION_GOOD,51.765477,-1.258721,110.473809,5736388.786124,620159.100169,-110.473809,30U,-0.008118,-0.009606,-0.061052,-0.085519,-0.006973,1.089779
1403774724864942,INS_SOLUTION_GOOD,51.765477,-1.258721,110.475030,5736388.786008,620159.099964,-110.475030,30U,-0.008051,-0.009553,-0.061048,-0.085517,-0.006974,1.089783
1403774724882140,INS_SOLUTION_GOOD,51.765477,-1.258721,110.476252,5736388.785780,620159.099762,-110.476252,30U,-0.007919,-0.009381,-0.061190,-0.085516,-0.006973,1.089780
1403774724901928,INS_SOLUTION_GOOD,51.765477,-1.258721,110.477477,5736388.785664,620159.099558,-110.477477,30U,-0.007965,-0.009145,-0.061289,-0.085517,-0.006974,1.089786
1403774724921938,INS_SOLUTION_GOOD,51.765477,-1.258721,110.478702,5736388.785438,620159.099425,-110.478702,30U,-0.007997,-0.008940,-0.061283,-0.085523,-0.006976,1.089784
1403774724941931,INS_SOLUTION_GOOD,51.765477,-1.258721,110.479927,5736388.785322,620159.099221,-110.479927,30U,-0.007840,-0.009125,-0.061300,-0.085530,-0.006977,1.089788
1403774724971262,INS_SOLUTION_GOOD,51.765477,-1.258721,110.481153,5736388.785097,620159.099088,-110.481153,30U,-0.007672,-0.009060,-0.061332,-0.085535,-0.006980,1.089782
1403774724982449,INS_SOLUTION_GOOD,51.765477,-1.258721,110.482378,5736388.784980,620159.098884,-110.482378,30U,-0.007462,-0.009219,-0.061429,-0.085540,-0.006983,1.089788
1403774725002146,INS_SOLUTION_GOOD,51.765477,-1.258721,110.483607,5736388.784864,620159.098680,-110.483607,30U,-0.007393,-0.009242,-0.061498,-0.085543,-0.006986,1.089781
1403774725021988,INS_SOLUTION_GOOD,51.765477,-1.258721,110.484838,5736388.784639,620159.098547,-110.484838,30U,-0.007428,-0.009148,-0.061617,-0.085542,-0.006986,1.089787
1403774725042320,INS_SOLUTION_GOOD,51.765477,-1.258721,110.486072,5736388.784522,620159.098343,-110.486072,30U,-0.007648,-0.008908,-0.061860,-0.085539,-0.006986,1.089784
1403774725064194,INS_SOLUTION_GOOD,51.765477,-1.258721,110.487309,5736388.784406,620159.098138,-110.487309,30U,-0.007825,-0.008844,-0.061927,-0.085536,-0.006983,1.089786
1403774725082296,INS_SOLUTION_GOOD,51.765477,-1.258721,110.488549,5736388.784181,620159.098006,-110.488549,30U,-0.007934,-0.008935,-0.061997,-0.085541,-0.006983,1.089782
1403774725102049,INS_SOLUTION_GOOD,51.765477,-1.258721,110.489789,5736388.784064,620159.097801,-110.489789,30U,-0.008216,-0.008839,-0.062050,-0.085545,-0.006980,1.089785
1403774725122198,INS_SOLUTION_GOOD,51.765477,-1.258721,110.491034,5736388.783839,620159.097669,-110.491034,30U,-0.008387,-0.008739,-0.062370,-0.085549,-0.006980,1.089775
1403774725142319,INS_SOLUTION_GOOD,51.765477,-1.258721,110.492285,5736388.783723,620159.097464,-110.492285,30U,-0.008478,-0.008885,-0.062775,-0.085553,-0.006976,1.089781
1403774725170703,INS_SOLUTION_GOOD,51.765477,-1.258721,110.493539,5736388.783497,620159.097332,-110.493539,30U,-0.008435,-0.008978,-0.062723,-0.085552,-0.006975,1.089777
1403774725182505,INS_SOLUTION_GOOD,51.765477,-1.258721,110.494792,5736388.783381,620159.097127,-110.494792,30U,-0.008369,-0.009156,-0.062501,-0.085549,-0.006974,1.089784
1403774725202147,INS_SOLUTION_GOOD,51.765477,-1.258721,110.496042,5736388.783153,620159.096925,-110.496042,30U,-0.008419,-0.009253,-0.062404,-0.085539,-0.006976,1.089780
1403774725222155,INS_SOLUTION_GOOD,51.765477,-1.258721,110.497288,5736388.783039,620159.096790,-110.497288,30U,-0.008423,-0.009352,-0.062254,-0.085528,-0.006976,1.089784
1403774725242579,INS_SOLUTION_GOOD,51.765477,-1.258721,110.498535,5736388.782811,620159.096588,-110.498535,30U,-0.008689,-0.009309,-0.062436,-0.085522,-0.006974,1.089780
1403774725264546,INS_SOLUTION_GOOD,51.765477,-1.258721,110.499785,5736388.782695,620159.096384,-110.499785,30U,-0.008639,-0.009293,-0.062672,-0.085521,-0.006971,1.089783
1403774725282093,INS_SOLUTION_GOOD,51.765477,-1.258721,110.501042,5736388.782468,620159.096182,-110.501042,30U,-0.008449,-0.009322,-0.063040,-0.085525,-0.006970,1.089778
1403774725302202,INS_SOLUTION_GOOD,51.765477,-1.258721,110.502305,5736388.782353,620159.096047,-110.502305,30U,-0.008408,-0.009208,-0.063232,-0.085527,-0.006967,1.089785
1403774725322204,INS_SOLUTION_GOOD,51.765477,-1.258721,110.503572,5736388.782126,620159.095845,-110.503572,30U,-0.008242,-0.009400,-0.063480,-0.085531,-0.006968,1.089779
1403774725342309,INS_SOLUTION_GOOD,51.765477,-1.258721,110.504844,5736388.782010,620159.095641,-110.504844,30U,-0.007933,-0.009304,-0.063718,-0.085536,-0.006964,1.089783
1403774725372214,INS_SOLUTION_GOOD,51.765477,-1.258721,110.506120,5736388.781784,620159.095508,-110.506120,30U,-0.007804,-0.009335,-0.063899,-0.085536,-0.006968,1.089779
1403774725384582,INS_SOLUTION_GOOD,51.765477,-1.258721,110.507401,5736388.781668,620159.095304,-110.507401,30U,-0.007575,-0.009566,-0.064267,-0.085534,-0.006969,1.089781
1403774725402327,INS_SOLUTION_GOOD,51.765477,-1.258721,110.508690,5736388.781441,620159.095102,-110.508690,30U,-0.007635,-0.009442,-0.064532,-0.085531,-0.006971,1.089776
1403774725422218,INS_SOLUTION_GOOD,51.765477,-1.258721,110.509984,5736388.781325,620159.094898,-110.509984,30U,-0.007652,-0.009155,-0.064805,-0.085529,-0.006974,1.089778
1403774725442462,INS_SOLUTION_GOOD,51.765477,-1.258721,110.511281,5736388.781210,620159.094763,-110.511281,30U,-0.007769,-0.009049,-0.064893,-0.085530,-0.006978,1.089774
1403774725464413,INS_SOLUTION_GOOD,51.765477,-1.258721,110.512579,5736388.780983,620159.094561,-110.512579,30U,-0.007812,-0.009094,-0.064922,-0.085531,-0.006980,1.089777
1403774725482213,INS_SOLUTION_GOOD,51.765477,-1.258721,110.513876,5736388.780868,620159.094426,-110.513876,30U,-0.008059,-0.009107,-0.064757,-0.085533,-0.006983,1.089772
1403774725501961,INS_SOLUTION_GOOD,51.765477,-1.258721,110.515167,5736388.780641,620159.094224,-110.515167,30U,-0.008199,-0.009117,-0.064346,-0.085539,-0.006982,1.089774
1403774725522206,INS_SOLUTION_GOOD,51.765477,-1.258721,110.516455,5736388.780525,620159.094020,-110.516455,30U,-0.008452,-0.009168,-0.064349,-0.085540,-0.006982,1.089766
1403774725542086,INS_SOLUTION_GOOD,51.765477,-1.258721,110.463355,5736388.797487,620159.105420,-110.463355,30U,-0.007337,-0.008312,-0.060314,-0.085549,-0.006986,1.089817
1403774725570699,INS_SOLUTION_GOOD,51.765477,-1.258721,110.464560,5736388.797373,620159.105285,-110.464560,30U,-0.007497,-0.008362,-0.060237,-0.085550,-0.006986,1.089814
1403774725582345,INS_SOLUTION_GOOD,51.765477,-1.258721,110.465768,5736388.797147,620159.105152,-110.465768,30U,-0.007495,-0.008525,-0.060549,-0.085548,-0.006983,1.089815
1403774725602132,INS_SOLUTION_GOOD,51.765477,-1.258721,110.466981,5736388.797031,620159.104948,-110.466981,30U,-0.007448,-0.008696,-0.060852,-0.085547,-0.006981,1.089814
1403774725622113,INS_SOLUTION_GOOD,51.765477,-1.258721,110.468204,5736388.796917,620159.104813,-110.468204,30U,-0.007394,-0.008840,-0.061334,-0.085546,-0.006979,1.089818
1403774725642536,INS_SOLUTION_GOOD,51.765477,-1.258721,110.469433,5736388.796689,620159.104611,-110.469433,30U,-0.007294,-0.008768,-0.061572,-0.085546,-0.006978,1.089817
1403774725664418,INS_SOLUTION_GOOD,51.765477,-1.258721,110.470668,5736388.796573,620159.104407,-110.470668,30U,-0.006948,-0.008668,-0.061797,-0.085548,-0.006977,1.089819
1403774725682129,INS_SOLUTION_GOOD,51.765477,-1.258721,110.471906,5736388.796459,620159.104271,-110.471906,30U,-0.006870,-0.008564,-0.061933,-0.085549,-0.006980,1.089818
1403774725702170,INS_SOLUTION_GOOD,51.765477,-1.258721,110.473144,5736388.796344,620159.104136,-110.473144,30U,-0.006926,-0.008397,-0.061827,-0.085549,-0.006979,1.089819
1403774725722048,INS_SOLUTION_GOOD,51.765477,-1.258721,110.474377,5736388.796117,620159.103934,-110.474377,30U,-0.007023,-0.008311,-0.061589,-0.085549,-0.006980,1.089817
1403774725742541,INS_SOLUTION_GOOD,51.765477,-1.258721,110.475608,5736388.796002,620159.103799,-110.475608,30U,-0.007220,-0.008245,-0.061449,-0.085547,-0.006981,1.089818
1403774725770549,INS_SOLUTION_GOOD,51.765477,-1.258721,110.476838,5736388.795886,620159.103595,-110.476838,30U,-0.007257,-0.008079,-0.061443,-0.085548,-0.006983,1.089815
1403774725782264,INS_SOLUTION_GOOD,51.765477,-1.258721,110.478064,5736388.795772,620159.103459,-110.478064,30U,-0.007270,-0.008228,-0.061173,-0.085551,-0.006983,1.089816
1403774725802175,INS_SOLUTION_GOOD,51.765477,-1.258721,110.479286,5736388.795546,620159.103327,-110.479286,30U,-0.007279,-0.008340,-0.061099,-0.085552,-0.006983,1.089813
1403774725822046,INS_SOLUTION_GOOD,51.765477,-1.258721,110.480510,5736388.795430,620159.103122,-110.480510,30U,-0.007307,-0.008357,-0.061240,-0.085550,-0.006986,1.089815
1403774725842300,INS_SOLUTION_GOOD,51.765477,-1.258721,110.481738,5736388.795315,620159.102987,-110.481738,30U,-0.007371,-0.008531,-0.061441,-0.085552,-0.006988,1.089815
1403774725864485,INS_SOLUTION_GOOD,51.765477,-1.258721,110.482967,5736388.795088,620159.102785,-110.482967,30U,-0.007320,-0.008637,-0.061608,-0.085551,-0.006989,1.089816
1403774725882156,INS_SOLUTION_GOOD,51.765477,-1.258721,110.484201,5736388.794973,620159.102650,-110.484201,30U,-0.007171,-0.008668,-0.061738,-0.085548,-0.006988,1.089815
1403774725901919,INS_SOLUTION_GOOD,51.765477,-1.258721,110.485438,5736388.794857,620159.102445,-110.485438,30U,-0.007051,-0.008532,-0.061988,-0.085547,-0.006987,1.089820
1403774725922301,INS_SOLUTION_GOOD,51.765477,-1.258721,110.486678,5736388.794631,620159.102313,-110.486678,30U,-0.006861,-0.008532,-0.061987,-0.085547,-0.006986,1.089818
1403774725942173,INS_SOLUTION_GOOD,51.765477,-1.258721,110.487919,5736388.794515,620159.102108,-110.487919,30U,-0.006806,-0.008370,-0.062090,-0.085548,-0.006984,1.089818
1403774725970776,INS_SOLUTION_GOOD,51.765477,-1.258721,110.489164,5736388.794401,620159.101973,-110.489164,30U,-0.007063,-0.008331,-0.062325,-0.085546,-0.006983,1.089814
1403774725982421,INS_SOLUTION_GOOD,51.765477,-1.258721,110.490412,5736388.794286,620159.101838,-110.490412,30U,-0.007097,-0.008418,-0.062365,-0.085549,-0.006981,1.089818
1403774726002518,INS_SOLUTION_GOOD,51.765477,-1.258721,110.491661,5736388.794059,620159.101636,-110.491661,30U,-0.007190,-0.008332,-0.062552,-0.085551,-0.006978,1.089815
1403774726022171,INS_SOLUTION_GOOD,51.765477,-1.258721,110.492916,5736388.793944,620159.101501,-110.492916,30U,-0.007052,-0.008443,-0.062774,-0.085550,-0.006976,1.089816
1403774726042304,INS_SOLUTION_GOOD,51.765477,-1.258721,110.494172,5736388.793828,620159.101296,-110.494172,30U,-0.006977,-0.008431,-0.062971,-0.085547,-0.006979,1.089812
1403774726064554,INS_SOLUTION_GOOD,51.765477,-1.258721,110.495432,5736388.793714,620159.101161,-110.495432,30U,-0.006901,-0.008412,-0.062979,-0.085540,-0.006978,1.089812
1403774726082277,INS_SOLUTION_GOOD,51.765477,-1.258721,110.496691,5736388.793486,620159.100959,-110.496691,30U,-0.006811,-0.008473,-0.062863,-0.085533,-0.006980,1.089810
1403774726102056,INS_SOLUTION_GOOD,51.765477,-1.258721,110.497948,5736388.793372,620159.100824,-110.497948,30U,-0.006652,-0.008528,-0.062665,-0.085531,-0.006977,1.089811
1403774726122051,INS_SOLUTION_GOOD,51.765477,-1.258721,110.499204,5736388.793256,620159.100620,-110.499204,30U,-0.006618,-0.008631,-0.062931,-0.085527,-0.006980,1.089811
1403774726142052,INS_SOLUTION_GOOD,51.765477,-1.258721,110.500463,5736388.793141,620159.100484,-110.500463,30U,-0.006748,-0.008879,-0.062862,-0.085530,-0.006980,1.089813
1403774726171519,INS_SOLUTION_GOOD,51.765477,-1.258721,110.501722,5736388.793025,620159.100280,-110.501722,30U,-0.006758,-0.008919,-0.063056,-0.085535,-0.006982,1.089812
1403774726182310,INS_SOLUTION_GOOD,51.765477,-1.258721,110.502983,5736388.792799,620159.100147,-110.502983,30U,-0.006880,-0.009147,-0.063097,-0.085537,-0.006983,1.089814
1403774726202303,INS_SOLUTION_GOOD,51.765477,-1.258721,110.504248,5736388.792683,620159.099943,-110.504248,30U,-0.006876,-0.009300,-0.063320,-0.085538,-0.006984,1.089813
1403774726222181,INS_SOLUTION_GOOD,51.765477,-1.258721,110.505515,5736388.792567,620159.099738,-110.505515,30U,-0.006888,-0.009463,-0.063226,-0.085538,-0.006984,1.089816
1403774726243062,INS_SOLUTION_GOOD,51.765477,-1.258721,110.506780,5736388.792451,620159.099534,-110.506780,30U,-0.006976,-0.009693,-0.063256,-0.085539,-0.006982,1.089818
1403774726264556,INS_SOLUTION_GOOD,51.765477,-1.258721,110.508047,5736388.792225,620159.099401,-110.508047,30U,-0.006935,-0.009738,-0.063396,-0.085538,-0.006982,1.089820
1403774726282149,INS_SOLUTION_GOOD,51.765477,-1.258721,110.509314,5736388.792109,620159.099197,-110.509314,30U,-0.007036,-0.009625,-0.063305,-0.085538,-0.006982,1.089819
1403774726302062,INS_SOLUTION_GOOD,51.765477,-1.258721,110.510579,5736388.791993,620159.098993,-110.510579,30U,-0.007041,-0.009575,-0.063168,-0.085538,-0.006983,1.089820
1403774726322057,INS_SOLUTION_GOOD,51.765477,-1.258721,110.511844,5736388.791877,620159.098788,-110.511844,30U,-0.007012,-0.009640,-0.063295,-0.085543,-0.006981,1.089815
1403774726342194,INS_SOLUTION_GOOD,51.765477,-1.258721,110.513109,5736388.791651,620159.098656,-110.513109,30U,-0.007039,-0.009653,-0.063193,-0.085549,-0.006983,1.089815
1403774726372466,INS_SOLUTION_GOOD,51.765477,-1.258721,110.514373,5736388.791535,620159.098451,-110.514373,30U,-0.007107,-0.009521,-0.063072,-0.085552,-0.006982,1.089812
1403774726382307,INS_SOLUTION_GOOD,51.765477,-1.258721,110.515634,5736388.791419,620159.098247,-110.515634,30U,-0.007077,-0.009682,-0.062986,-0.085553,-0.006984,1.089816
1403774726402781,INS_SOLUTION_GOOD,51.765477,-1.258721,110.516894,5736388.791303,620159.098043,-110.516894,30U,-0.007005,-0.009676,-0.063042,-0.085553,-0.006984,1.089816
1403774726422186,INS_SOLUTION_GOOD,51.765477,-1.258721,110.518154,5736388.791075,620159.097841,-110.518154,30U,-0.007010,-0.009584,-0.062916,-0.085550,-0.006985,1.089819
1403774726442439,INS_SOLUTION_GOOD,51.765477,-1.258721,110.519413,5736388.790961,620159.097706,-110.519413,30U,-0.006906,-0.009635,-0.063001,-0.085546,-0.006987,1.089819
1403774726464316,INS_SOLUTION_GOOD,51.765477,-1.258721,110.520674,5736388.790845,620159.097501,-110.520674,30U,-0.007072,-0.009573,-0.063073,-0.085544,-0.006987,1.089822
1403774726482407,INS_SOLUTION_GOOD,51.765477,-1.258721,110.521939,5736388.790617,620159.097300,-110.521939,30U,-0.007151,-0.009603,-0.063397,-0.085542,-0.006987,1.089822
1403774726502315,INS_SOLUTION_GOOD,51.765477,-1.258721,110.523211,5736388.790501,620159.097095,-110.523211,30U,-0.007160,-0.009587,-0.063617,-0.085543,-0.006988,1.089824
1403774726522316,INS_SOLUTION_GOOD,51.765477,-1.258721,110.524488,5736388.790385,620159.096891,-110.524488,30U,-0.007380,-0.009584,-0.063949,-0.085541,-0.006989,1.089822
1403774726542319,INS_SOLUTION_GOOD,51.765477,-1.258721,110.458585,5736388.791603,620159.105975,-110.458585,30U,-0.007565,-0.008887,-0.059050,-0.085543,-0.006993,1.089835
1403774726570532,INS_SOLUTION_GOOD,51.765477,-1.258721,110.459765,5736388.791487,620159.105771,-110.459765,30U,-0.007717,-0.008954,-0.058938,-0.085543,-0.006993,1.089834
1403774726582188,INS_SOLUTION_GOOD,51.765477,-1.258721,110.460944,5736388.791371,620159.105566,-110.460944,30U,-0.007647,-0.009081,-0.058848,-0.085541,-0.006993,1.089833
1403774726602443,INS_SOLUTION_GOOD,51.765477,-1.258721,110.462123,5736388.791145,620159.105434,-110.462123,30U,-0.007568,-0.008961,-0.059028,-0.085537,-0.006990,1.089830
1403774726622037,INS_SOLUTION_GOOD,51.765477,-1.258721,110.463303,5736388.791029,620159.105229,-110.463303,30U,-0.007489,-0.009162,-0.058920,-0.085535,-0.006989,1.089830
1403774726642318,INS_SOLUTION_GOOD,51.765477,-1.258721,110.464482,5736388.790913,620159.105025,-110.464482,30U,-0.007567,-0.009135,-0.058929,-0.085533,-0.006987,1.089825
1403774726664439,INS_SOLUTION_GOOD,51.765477,-1.258721,110.465663,5736388.790687,620159.104892,-110.465663,30U,-0.007584,-0.009216,-0.059024,-0.085532,-0.006988,1.089828
1403774726682198,INS_SOLUTION_GOOD,51.765477,-1.258721,110.466843,5736388.790571,620159.104688,-110.466843,30U,-0.007724,-0.009254,-0.058968,-0.085531,-0.006987,1.089823
1403774726702072,INS_SOLUTION_GOOD,51.765477,-1.258721,110.468022,5736388.790344,620159.104486,-110.468022,30U,-0.007735,-0.009369,-0.058916,-0.085533,-0.006988,1.089825
1403774726722194,INS_SOLUTION_GOOD,51.765477,-1.258721,110.469201,5736388.790229,620159.104351,-110.469201,30U,-0.007747,-0.009566,-0.058907,-0.085535,-0.006989,1.089823
1403774726742506,INS_SOLUTION_GOOD,51.765477,-1.258721,110.470379,5736388.790113,620159.104147,-110.470379,30U,-0.007746,-0.009669,-0.058831,-0.085535,-0.006988,1.089824
1403774726771573,INS_SOLUTION_GOOD,51.765477,-1.258721,110.471556,5736388.789886,620159.103945,-110.471556,30U,-0.007729,-0.009624,-0.058825,-0.085535,-0.006991,1.089820
1403774726782372,INS_SOLUTION_GOOD,51.765477,-1.258721,110.472735,5736388.789770,620159.103741,-110.472735,30U,-0.007819,-0.009442,-0.058958,-0.085533,-0.006993,1.089826
1403774726802336,INS_SOLUTION_GOOD,51.765477,-1.258721,110.473914,5736388.789544,620159.103608,-110.473914,30U,-0.007867,-0.009571,-0.058939,-0.085533,-0.006994,1.089824
1403774726822271,INS_SOLUTION_GOOD,51.765477,-1.258721,110.475095,5736388.789428,620159.103404,-110.475095,30U,-0.008032,-0.009469,-0.059196,-0.085534,-0.006994,1.089829
1403774726842227,INS_SOLUTION_GOOD,51.765477,-1.258721,110.476282,5736388.789312,620159.103199,-110.476282,30U,-0.007971,-0.009656,-0.059415,-0.085535,-0.006994,1.089829
1403774726864966,INS_SOLUTION_GOOD,51.765477,-1.258721,110.477473,5736388.789084,620159.102998,-110.477473,30U,-0.008026,-0.009626,-0.059550,-0.085533,-0.006995,1.089831
1403774726882227,INS_SOLUTION_GOOD,51.765477,-1.258721,110.478664,5736388.788968,620159.102793,-110.478664,30U,-0.008089,-0.009395,-0.059522,-0.085530,-0.006994,1.089827
1403774726902158,INS_SOLUTION_GOOD,51.765477,-1.258721,110.479856,5736388.788742,620159.102660,-110.479856,30U,-0.008181,-0.009370,-0.059643,-0.085529,-0.006994,1.089828
1403774726921953,INS_SOLUTION_GOOD,51.765477,-1.258721,110.481050,5736388.788626,620159.102456,-110.481050,30U,-0.008303,-0.009371,-0.059713,-0.085527,-0.006992,1.089824
1403774726942094,INS_SOLUTION_GOOD,51.765477,-1.258721,110.482247,5736388.788399,620159.102254,-110.482247,30U,-0.008429,-0.009156,-0.059760,-0.085525,-0.006992,1.089829
1403774726971168,INS_SOLUTION_GOOD,51.765477,-1.258721,110.483441,5736388.788284,620159.102119,-110.483441,30U,-0.008209,-0.009040,-0.059774,-0.085524,-0.006991,1.089827
1403774726982046,INS_SOLUTION_GOOD,51.765477,-1.258721,110.484640,5736388.788057,620159.101917,-110.484640,30U,-0.008356,-0.009133,-0.060040,-0.085524,-0.006993,1.089829
1403774727002326,INS_SOLUTION_GOOD,51.765477,-1.258721,110.485842,5736388.787941,620159.101713,-110.485842,30U,-0.008544,-0.009242,-0.060085,-0.085525,-0.006996,1.089826
1403774727021950,INS_SOLUTION_GOOD,51.765477,-1.258721,110.487042,5736388.787715,620159.101580,-110.487042,30U,-0.008701,-0.009213,-0.059948,-0.085524,-0.006997,1.089828
1403774727042866,INS_SOLUTION_GOOD,51.765477,-1.258721,110.488243,5736388.787599,620159.101376,-110.488243,30U,-0.008582,-0.009307,-0.060202,-0.085524,-0.006996,1.089823
1403774727064110,INS_SOLUTION_GOOD,51.765477,-1.258721,110.489446,5736388.787372,620159.101174,-110.489446,30U,-0.008554,-0.009242,-0.060123,-0.085525,-0.006997,1.089827
1403774727082113,INS_SOLUTION_GOOD,51.765477,-1.258721,110.490650,5736388.787257,620159.101039,-110.490650,30U,-0.008502,-0.009359,-0.060185,-0.085527,-0.006997,1.089825
1403774727102107,INS_SOLUTION_GOOD,51.765477,-1.258721,110.491856,5736388.787030,620159.100837,-110.491856,30U,-0.008587,-0.009403,-0.060240,-0.085527,-0.006997,1.089828
1403774727122109,INS_SOLUTION_GOOD,51.765477,-1.258721,110.493063,5736388.786803,620159.100636,-110.493063,30U,-0.008387,-0.009644,-0.060384,-0.085530,-0.007000,1.089824
1403774727142390,INS_SOLUTION_GOOD,51.765477,-1.258721,110.494268,5736388.786686,620159.100431,-110.494268,30U,-0.008515,-0.009537,-0.060296,-0.085532,-0.007002,1.089833
1403774727171026,INS_SOLUTION_GOOD,51.765477,-1.258721,110.495473,5736388.786461,620159.100299,-110.495473,30U,-0.008547,-0.009561,-0.060191,-0.085535,-0.007002,1.089829
1403774727182243,INS_SOLUTION_GOOD,51.765477,-1.258721,110.496678,5736388.786345,620159.100094,-110.496678,30U,-0.008550,-0.009529,-0.060372,-0.085534,-0.007001,1.089836
1403774727201995,INS_SOLUTION_GOOD,51.765477,-1.258721,110.497884,5736388.786117,620159.099892,-110.497884,30U,-0.008558,-0.009535,-0.060262,-0.085531,-0.007000,1.089833
1403774727222100,INS_SOLUTION_GOOD,51.765477,-1.258721,110.499090,5736388.786001,620159.099688,-110.499090,30U,-0.008865,-0.009882,-0.060165,-0.085528,-0.006997,1.089838
1403774727242140,INS_SOLUTION_GOOD,51.765477,-1.258721,110.500291,5736388.785774,620159.099486,-110.500291,30U,-0.009057,-0.009858,-0.059995,-0.085524,-0.006996,1.089833
1403774727265005,INS_SOLUTION_GOOD,51.765477,-1.258721,110.501492,5736388.785659,620159.099351,-110.501492,30U,-0.009222,-0.009922,-0.060105,-0.085522,-0.006992,1.089841
1403774727282352,INS_SOLUTION_GOOD,51.765477,-1.258721,110.502696,5736388.785432,620159.099149,-110.502696,30U,-0.009281,-0.009861,-0.060228,-0.085522,-0.006990,1.089839
1403774727302103,INS_SOLUTION_GOOD,51.765477,-1.258721,110.503903,5736388.785204,620159.098948,-110.503903,30U,-0.009381,-0.009711,-0.060547,-0.085523,-0.006986,1.089844
1403774727321893,INS_SOLUTION_GOOD,51.765477,-1.258721,110.505118,5736388.784977,620159.098746,-110.505118,30U,-0.009103,-0.009935,-0.060852,-0.085524,-0.006985,1.089840
1403774727342005,INS_SOLUTION_GOOD,51.765477,-1.258721,110.506335,5736388.784861,620159.098542,-110.506335,30U,-0.008955,-0.010051,-0.060929,-0.085524,-0.006980,1.089846
1403774727372141,INS_SOLUTION_GOOD,51.765477,-1.258721,110.507556,5736388.784634,620159.098340,-110.507556,30U,-0.008930,-0.009918,-0.061220,-0.085524,-0.006979,1.089839
1403774727382126,INS_SOLUTION_GOOD,51.765477,-1.258721,110.508781,5736388.784517,620159.098136,-110.508781,30U,-0.009064,-0.009722,-0.061239,-0.085522,-0.006977,1.089840
1403774727402222,INS_SOLUTION_GOOD,51.765477,-1.258721,110.510005,5736388.784292,620159.098003,-110.510005,30U,-0.009307,-0.009504,-0.061233,-0.085516,-0.006978,1.089836
1403774727422250,INS_SOLUTION_GOOD,51.765477,-1.258721,110.511231,5736388.784064,620159.097801,-110.511231,30U,-0.009301,-0.009243,-0.061290,-0.085510,-0.006979,1.089844
1403774727442234,INS_SOLUTION_GOOD,51.765477,-1.258721,110.512456,5736388.783948,620159.097597,-110.512456,30U,-0.009239,-0.009031,-0.061238,-0.085506,-0.006983,1.089838
1403774727464018,INS_SOLUTION_GOOD,51.765477,-1.258721,110.513683,5736388.783723,620159.097464,-110.513683,30U,-0.009352,-0.008884,-0.061403,-0.085504,-0.006985,1.089844
1403774727482358,INS_SOLUTION_GOOD,51.765477,-1.258721,110.514911,5736388.783495,620159.097263,-110.514911,30U,-0.009540,-0.008719,-0.061557,-0.085504,-0.006989,1.089835
1403774727502148,INS_SOLUTION_GOOD,51.765477,-1.258721,110.516141,5736388.783381,620159.097127,-110.516141,30U,-0.009472,-0.008675,-0.061526,-0.085506,-0.006990,1.089838
1403774727522147,INS_SOLUTION_GOOD,51.765477,-1.258721,110.517372,5736388.783153,620159.096925,-110.517372,30U,-0.009424,-0.008723,-0.061591,-0.085506,-0.006995,1.089829
1403774727541943,INS_SOLUTION_GOOD,51.765477,-1.258721,110.449598,5736388.791491,620159.110604,-110.449598,30U,-0.008601,-0.007733,-0.056786,-0.085510,-0.007004,1.089869
1403774727570477,INS_SOLUTION_GOOD,51.765477,-1.258721,110.450733,5736388.791264,620159.110402,-110.450733,30U,-0.008523,-0.008273,-0.056666,-0.085510,-0.007009,1.089863
1403774727582097,INS_SOLUTION_GOOD,51.765477,-1.258721,110.451865,5736388.791150,620159.110267,-110.451865,30U,-0.008630,-0.008468,-0.056688,-0.085510,-0.007010,1.089872
1403774727601938,INS_SOLUTION_GOOD,51.765477,-1.258721,110.453001,5736388.790922,620159.110065,-110.453001,30U,-0.008518,-0.008675,-0.056891,-0.085513,-0.007011,1.089868
1403774727622082,INS_SOLUTION_GOOD,51.765477,-1.258721,110.454136,5736388.790808,620159.109929,-110.454136,30U,-0.008366,-0.008895,-0.056738,-0.085517,-0.007012,1.089876
1403774727642025,INS_SOLUTION_GOOD,51.765477,-1.258721,110.455273,5736388.790580,620159.109728,-110.455273,30U,-0.008392,-0.009018,-0.056864,-0.085522,-0.007012,1.089871
1403774727664519,INS_SOLUTION_GOOD,51.765477,-1.258721,110.456407,5736388.790466,620159.109592,-110.456407,30U,-0.008481,-0.008918,-0.056718,-0.085528,-0.007009,1.089876
1403774727682235,INS_SOLUTION_GOOD,51.765477,-1.258721,110.457542,5736388.790238,620159.109391,-110.457542,30U,-0.008323,-0.008939,-0.056777,-0.085533,-0.007007,1.089874
1403774727702151,INS_SOLUTION_GOOD,51.765477,-1.258721,110.458677,5736388.790124,620159.109255,-110.458677,30U,-0.008524,-0.008970,-0.056659,-0.085537,-0.007002,1.089878
1403774727722122,INS_SOLUTION_GOOD,51.765477,-1.258721,110.459810,5736388.789897,620159.109054,-110.459810,30U,-0.008544,-0.009020,-0.056837,-0.085539,-0.006999,1.089874
1403774727742141,INS_SOLUTION_GOOD,51.765477,-1.258721,110.460948,5736388.789780,620159.108849,-110.460948,30U,-0.008602,-0.009094,-0.057018,-0.085541,-0.006999,1.089876
1403774727771223,INS_SOLUTION_GOOD,51.765477,-1.258721,110.462088,5736388.789555,620159.108717,-110.462088,30U,-0.008615,-0.008886,-0.056935,-0.085538,-0.006999,1.089871
1403774727782134,INS_SOLUTION_GOOD,51.765477,-1.258721,110.463226,5736388.789327,620159.108515,-110.463226,30U,-0.008329,-0.008610,-0.056989,-0.085534,-0.007002,1.089873
1403774727802134,INS_SOLUTION_GOOD,51.765477,-1.258721,110.464366,5736388.789213,620159.108380,-110.464366,30U,-0.008177,-0.008878,-0.056901,-0.085528,-0.007003,1.089870
1403774727822027,INS_SOLUTION_GOOD,51.765477,-1.258721,110.465505,5736388.789097,620159.108175,-110.465505,30U,-0.007983,-0.008480,-0.057064,-0.085526,-0.007013,1.089872
1403774727842151,INS_SOLUTION_GOOD,51.765477,-1.258721,110.466646,5736388.788871,620159.108043,-110.466646,30U,-0.008108,-0.008579,-0.057166,-0.085526,-0.007014,1.089869
1403774727864995,INS_SOLUTION_GOOD,51.765477,-1.258721,110.467790,5736388.788755,620159.107838,-110.467790,30U,-0.007600,-0.008755,-0.057338,-0.085522,-0.007011,1.089868
1403774727882393,INS_SOLUTION_GOOD,51.765477,-1.258721,110.468941,5736388.788529,620159.107706,-110.468941,30U,-0.007574,-0.008606,-0.057555,-0.085521,-0.007026,1.089870
1403774727902162,INS_SOLUTION_GOOD,51.765477,-1.258721,110.470090,5736388.788413,620159.107501,-110.470090,30U,-0.007386,-0.008918,-0.057654,-0.085529,-0.007012,1.089874
1403774727922000,INS_SOLUTION_GOOD,51.765477,-1.258721,110.471245,5736388.788297,620159.107297,-110.471245,30U,-0.007216,-0.008992,-0.057797,-0.085531,-0.007014,1.089876
1403774727942088,INS_SOLUTION_GOOD,51.765477,-1.258721,110.472403,5736388.788071,620159.107164,-110.472403,30U,-0.007095,-0.009003,-0.058087,-0.085535,-0.007018,1.089881
1403774727971399,INS_SOLUTION_GOOD,51.765477,-1.258721,110.473565,5736388.787955,620159.106960,-110.473565,30U,-0.007247,-0.009258,-0.058339,-0.085541,-0.007006,1.089882
1403774727981987,INS_SOLUTION_GOOD,51.765477,-1.258721,110.474727,5736388.787840,620159.106824,-110.474727,30U,-0.007535,-0.009410,-0.057957,-0.085542,-0.007012,1.089882
1403774728002257,INS_SOLUTION_GOOD,51.765477,-1.258721,110.475890,5736388.787613,620159.106623,-110.475890,30U,-0.007649,-0.009264,-0.058120,-0.085542,-0.007011,1.089881
1403774728022131,INS_SOLUTION_GOOD,51.765477,-1.258721,110.477049,5736388.787497,620159.106418,-110.477049,30U,-0.007830,-0.009094,-0.057966,-0.085543,-0.006999,1.089879
1403774728042015,INS_SOLUTION_GOOD,51.765477,-1.258721,110.478206,5736388.787382,620159.106283,-110.478206,30U,-0.008071,-0.008733,-0.057544,-0.085538,-0.007004,1.089882
1403774728064792,INS_SOLUTION_GOOD,51.765477,-1.258721,110.479358,5736388.787155,620159.106081,-110.479358,30U,-0.008212,-0.008565,-0.057723,-0.085541,-0.006995,1.089878
1403774728082403,INS_SOLUTION_GOOD,51.765477,-1.258721,110.480510,5736388.787041,620159.105946,-110.480510,30U,-0.008141,-0.008220,-0.057636,-0.085540,-0.006994,1.089878
1403774728102124,INS_SOLUTION_GOOD,51.765477,-1.258721,110.481663,5736388.786813,620159.105744,-110.481663,30U,-0.007888,-0.008124,-0.057812,-0.085542,-0.006996,1.089875
1403774728121990,INS_SOLUTION_GOOD,51.765477,-1.258721,110.482821,5736388.786699,620159.105609,-110.482821,30U,-0.007452,-0.008098,-0.058035,-0.085543,-0.006993,1.089876
1403774728142222,INS_SOLUTION_GOOD,51.765477,-1.258721,110.483982,5736388.786584,620159.105474,-110.483982,30U,-0.007136,-0.008237,-0.058095,-0.085542,-0.006998,1.089874
1403774728171055,INS_SOLUTION_GOOD,51.765477,-1.258721,110.485149,5736388.786357,620159.105272,-110.485149,30U,-0.007153,-0.008167,-0.058573,-0.085538,-0.007001,1.089878
1403774728182292,INS_SOLUTION_GOOD,51.765477,-1.258721,110.486323,5736388.786242,620159.105137,-110.486323,30U,-0.007143,-0.008404,-0.058971,-0.085538,-0.007008,1.089880
1403774728202279,INS_SOLUTION_GOOD,51.765477,-1.258721,110.487505,5736388.786126,620159.104932,-110.487505,30U,-0.007024,-0.008558,-0.059157,-0.085537,-0.007015,1.089890
1403774728222289,INS_SOLUTION_GOOD,51.765477,-1.258721,110.488689,5736388.785901,620159.104800,-110.488689,30U,-0.007156,-0.008782,-0.059280,-0.085537,-0.007018,1.089888
1403774728242618,INS_SOLUTION_GOOD,51.765477,-1.258721,110.489875,5736388.785784,620159.104595,-110.489875,30U,-0.007247,-0.008774,-0.059342,-0.085539,-0.007019,1.089894
1403774728264774,INS_SOLUTION_GOOD,51.765477,-1.258721,110.491062,5736388.785670,620159.104460,-110.491062,30U,-0.007319,-0.008672,-0.059399,-0.085543,-0.007021,1.089888
1403774728282361,INS_SOLUTION_GOOD,51.765477,-1.258721,110.492250,5736388.785443,620159.104258,-110.492250,30U,-0.007562,-0.008849,-0.059414,-0.085544,-0.007017,1.089889
1403774728302290,INS_SOLUTION_GOOD,51.765477,-1.258721,110.493433,5736388.785328,620159.104123,-110.493433,30U,-0.007779,-0.008847,-0.059062,-0.085548,-0.007013,1.089881
1403774728322228,INS_SOLUTION_GOOD,51.765477,-1.258721,110.494614,5736388.785212,620159.103918,-110.494614,30U,-0.007830,-0.008948,-0.058991,-0.085549,-0.007007,1.089882
1403774728342109,INS_SOLUTION_GOOD,51.765477,-1.258721,110.495795,5736388.784985,620159.103717,-110.495795,30U,-0.007896,-0.008982,-0.059013,-0.085549,-0.007003,1.089871
1403774728372422,INS_SOLUTION_GOOD,51.765477,-1.258721,110.496973,5736388.784870,620159.103581,-110.496973,30U,-0.008048,-0.009017,-0.058921,-0.085547,-0.006999,1.089871
1403774728382158,INS_SOLUTION_GOOD,51.765477,-1.258721,110.498149,5736388.784643,620159.103380,-110.498149,30U,-0.008192,-0.008947,-0.058857,-0.085545,-0.006997,1.089863
1403774728402171,INS_SOLUTION_GOOD,51.765477,-1.258721,110.499327,5736388.784528,620159.103244,-110.499327,30U,-0.008126,-0.008701,-0.058834,-0.085545,-0.006995,1.089870
1403774728422151,INS_SOLUTION_GOOD,51.765477,-1.258721,110.500501,5736388.784301,620159.103043,-110.500501,30U,-0.008091,-0.008501,-0.058717,-0.085546,-0.006996,1.089869
1403774728442795,INS_SOLUTION_GOOD,51.765477,-1.258721,110.501676,5736388.784186,620159.102907,-110.501676,30U,-0.008078,-0.008399,-0.058766,-0.085547,-0.006999,1.089878
1403774728464524,INS_SOLUTION_GOOD,51.765477,-1.258721,110.502852,5736388.784070,620159.102703,-110.502852,30U,-0.007827,-0.008555,-0.058841,-0.085547,-0.007003,1.089875
1403774728482172,INS_SOLUTION_GOOD,51.765477,-1.258721,110.504030,5736388.783844,620159.102570,-110.504030,30U,-0.007925,-0.008504,-0.059076,-0.085545,-0.007005,1.089883
1403774728502127,INS_SOLUTION_GOOD,51.765477,-1.258721,110.505214,5736388.783728,620159.102366,-110.505214,30U,-0.007941,-0.008391,-0.059277,-0.085541,-0.007010,1.089883
1403774728522430,INS_SOLUTION_GOOD,51.765477,-1.258721,110.506400,5736388.783503,620159.102233,-110.506400,30U,-0.007881,-0.008411,-0.059322,-0.085539,-0.007010,1.089889
1403774728542414,INS_SOLUTION_GOOD,51.765477,-1.258721,110.443614,5736388.792719,620159.115407,-110.443614,30U,-0.007894,-0.007081,-0.054833,-0.085539,-0.007020,1.089904
1403774728571779,INS_SOLUTION_GOOD,51.765477,-1.258721,110.444713,5736388.792604,620159.115272,-110.444713,30U,-0.008172,-0.007307,-0.054839,-0.085538,-0.007021,1.089911
1403774728582245,INS_SOLUTION_GOOD,51.765477,-1.258721,110.445810,5736388.792379,620159.115139,-110.445810,30U,-0.008291,-0.007535,-0.054874,-0.085536,-0.007022,1.089904
1403774728602267,INS_SOLUTION_GOOD,51.765477,-1.258721,110.446908,5736388.792264,620159.115004,-110.446908,30U,-0.008381,-0.007580,-0.054924,-0.085538,-0.007023,1.089903
1403774728622174,INS_SOLUTION_GOOD,51.765477,-1.258721,110.448007,5736388.792038,620159.114871,-110.448007,30U,-0.008426,-0.007847,-0.055043,-0.085538,-0.007024,1.089896
1403774728642684,INS_SOLUTION_GOOD,51.765477,-1.258721,110.449109,5736388.791922,620159.114667,-110.449109,30U,-0.008352,-0.007994,-0.055129,-0.085538,-0.007023,1.089896
1403774728664348,INS_SOLUTION_GOOD,51.765477,-1.258721,110.450212,5736388.791696,620159.114534,-110.450212,30U,-0.008286,-0.007999,-0.055130,-0.085538,-0.007021,1.089895
1403774728682153,INS_SOLUTION_GOOD,51.765477,-1.258721,110.451314,5736388.791582,620159.114399,-110.451314,30U,-0.008096,-0.008129,-0.055097,-0.085539,-0.007017,1.089898
1403774728702040,INS_SOLUTION_GOOD,51.765477,-1.258721,110.452416,5736388.791466,620159.114194,-110.452416,30U,-0.007718,-0.008083,-0.055053,-0.085539,-0.007015,1.089896
1403774728722055,INS_SOLUTION_GOOD,51.765477,-1.258721,110.453517,5736388.791240,620159.114062,-110.453517,30U,-0.007503,-0.007984,-0.054926,-0.085542,-0.007014,1.089900
1403774728742054,INS_SOLUTION_GOOD,51.765477,-1.258721,110.454618,5736388.791126,620159.113926,-110.454618,30U,-0.007479,-0.008005,-0.055239,-0.085542,-0.007009,1.089901
1403774728771024,INS_SOLUTION_GOOD,51.765477,-1.258721,110.455721,5736388.790900,620159.113794,-110.455721,30U,-0.007377,-0.007871,-0.055218,-0.085541,-0.007012,1.089903
1403774728782402,INS_SOLUTION_GOOD,51.765477,-1.258721,110.456825,5736388.790784,620159.113589,-110.456825,30U,-0.007438,-0.007810,-0.055180,-0.085545,-0.007012,1.089908
1403774728802183,INS_SOLUTION_GOOD,51.765477,-1.258721,110.457932,5736388.790669,620159.113454,-110.457932,30U,-0.007395,-0.007795,-0.055541,-0.085544,-0.007013,1.089907
1403774728822151,INS_SOLUTION_GOOD,51.765477,-1.258721,110.459046,5736388.790444,620159.113321,-110.459046,30U,-0.007445,-0.007631,-0.055678,-0.085546,-0.007016,1.089906
1403774728842688,INS_SOLUTION_GOOD,51.765477,-1.258721,110.460160,5736388.790329,620159.113186,-110.460160,30U,-0.007521,-0.007389,-0.055902,-0.085547,-0.007017,1.089902
1403774728864934,INS_SOLUTION_GOOD,51.765477,-1.258721,110.461277,5736388.790213,620159.112981,-110.461277,30U,-0.007589,-0.007359,-0.056021,-0.085550,-0.007018,1.089905
1403774728882265,INS_SOLUTION_GOOD,51.765477,-1.258721,110.462397,5736388.789987,620159.112849,-110.462397,30U,-0.007531,-0.007346,-0.056029,-0.085550,-0.007027,1.089899
1403774728902180,INS_SOLUTION_GOOD,51.765477,-1.258721,110.463518,5736388.789873,620159.112713,-110.463518,30U,-0.007449,-0.007303,-0.056251,-0.085551,-0.007028,1.089901
1403774728922150,INS_SOLUTION_GOOD,51.765477,-1.258721,110.464642,5736388.789758,620159.112578,-110.464642,30U,-0.007709,-0.007137,-0.056164,-0.085552,-0.007033,1.089897
1403774728941971,INS_SOLUTION_GOOD,51.765477,-1.258721,110.465768,5736388.789532,620159.112445,-110.465768,30U,-0.007715,-0.007296,-0.056358,-0.085551,-0.007033,1.089903
1403774728971315,INS_SOLUTION_GOOD,51.765477,-1.258721,110.466891,5736388.789418,620159.112310,-110.466891,30U,-0.007670,-0.007344,-0.055958,-0.085549,-0.007031,1.089898
1403774728982190,INS_SOLUTION_GOOD,51.765477,-1.258721,110.468011,5736388.789303,620159.112175,-110.468011,30U,-0.007831,-0.007534,-0.055955,-0.085544,-0.007032,1.089904
1403774729002439,INS_SOLUTION_GOOD,51.765477,-1.258721,110.469126,5736388.789078,620159.112042,-110.469126,30U,-0.007912,-0.007557,-0.055645,-0.085541,-0.007032,1.089899
1403774729022265,INS_SOLUTION_GOOD,51.765477,-1.258721,110.470235,5736388.788962,620159.111838,-110.470235,30U,-0.008023,-0.007730,-0.055307,-0.085540,-0.007029,1.089904
1403774729042759,INS_SOLUTION_GOOD,51.765477,-1.258721,110.471341,5736388.788736,620159.111705,-110.471341,30U,-0.008130,-0.007662,-0.055231,-0.085542,-0.007025,1.089899
1403774729065316,INS_SOLUTION_GOOD,51.765477,-1.258721,110.472440,5736388.788621,620159.111570,-110.472440,30U,-0.008359,-0.007554,-0.054750,-0.085539,-0.007021,1.089903
1403774729082248,INS_SOLUTION_GOOD,51.765477,-1.258721,110.473536,5736388.788396,620159.111437,-110.473536,30U,-0.008548,-0.007490,-0.054825,-0.085538,-0.007019,1.089896
1403774729102057,INS_SOLUTION_GOOD,51.765477,-1.258721,110.474634,5736388.788281,620159.111302,-110.474634,30U,-0.008583,-0.007378,-0.054981,-0.085534,-0.007018,1.089901
1403774729122056,INS_SOLUTION_GOOD,51.765477,-1.258721,110.475736,5736388.788055,620159.111169,-110.475736,30U,-0.008395,-0.007176,-0.055266,-0.085532,-0.007015,1.089894
1403774729142191,INS_SOLUTION_GOOD,51.765477,-1.258721,110.476846,5736388.787939,620159.110965,-110.476846,30U,-0.008367,-0.007136,-0.055774,-0.085531,-0.007017,1.089897
1403774729171420,INS_SOLUTION_GOOD,51.765477,-1.258721,110.477962,5736388.787714,620159.110832,-110.477962,30U,-0.008217,-0.007428,-0.055844,-0.085533,-0.007019,1.089895
1403774729182184,INS_SOLUTION_GOOD,51.765477,-1.258721,110.479079,5736388.787599,620159.110696,-110.479079,30U,-0.007989,-0.007532,-0.055736,-0.085535,-0.007017,1.089898
1403774729202267,INS_SOLUTION_GOOD,51.765477,-1.258721,110.480194,5736388.787373,620159.110564,-110.480194,30U,-0.007999,-0.007792,-0.055743,-0.085533,-0.007017,1.089898
1403774729222015,INS_SOLUTION_GOOD,51.765477,-1.258721,110.481304,5736388.787259,620159.110428,-110.481304,30U,-0.007871,-0.007920,-0.055304,-0.085530,-0.007016,1.089904
1403774729242565,INS_SOLUTION_GOOD,51.765477,-1.258721,110.482407,5736388.787032,620159.110227,-110.482407,30U,-0.007977,-0.007899,-0.054936,-0.085530,-0.007010,1.089907
1403774729265038,INS_SOLUTION_GOOD,51.765477,-1.258721,110.483501,5736388.786917,620159.110091,-110.483501,30U,-0.008172,-0.007449,-0.054577,-0.085528,-0.007004,1.089912
1403774729282327,INS_SOLUTION_GOOD,51.765477,-1.258721,110.484591,5736388.786803,620159.109956,-110.484591,30U,-0.008356,-0.006697,-0.054525,-0.085526,-0.006995,1.089917
1403774729302184,INS_SOLUTION_GOOD,51.765477,-1.258721,110.485680,5736388.786577,620159.109823,-110.485680,30U,-0.008608,-0.006315,-0.054349,-0.085526,-0.006991,1.089918
1403774729322163,INS_SOLUTION_GOOD,51.765477,-1.258721,110.486769,5736388.786351,620159.109691,-110.486769,30U,-0.008626,-0.006010,-0.054538,-0.085527,-0.006989,1.089915
1403774729342341,INS_SOLUTION_GOOD,51.765477,-1.258721,110.487861,5736388.786238,620159.109624,-110.487861,30U,-0.008842,-0.005755,-0.054802,-0.085525,-0.006989,1.089910
1403774729372301,INS_SOLUTION_GOOD,51.765477,-1.258721,110.488964,5736388.786013,620159.109492,-110.488964,30U,-0.008759,-0.005607,-0.055479,-0.085521,-0.006997,1.089906
1403774729382290,INS_SOLUTION_GOOD,51.765477,-1.258721,110.490078,5736388.785898,620159.109356,-110.490078,30U,-0.008531,-0.005535,-0.055898,-0.085517,-0.007007,1.089898
1403774729402117,INS_SOLUTION_GOOD,51.765477,-1.258721,110.491203,5736388.785674,620159.109293,-110.491203,30U,-0.008035,-0.005657,-0.056505,-0.085509,-0.007017,1.089898
1403774729422148,INS_SOLUTION_GOOD,51.765477,-1.258721,110.492338,5736388.785560,620159.109157,-110.492338,30U,-0.007529,-0.005972,-0.056913,-0.085507,-0.007034,1.089890
1403774729442824,INS_SOLUTION_GOOD,51.765477,-1.258721,110.493480,5736388.785445,620159.109022,-110.493480,30U,-0.007057,-0.006257,-0.057201,-0.085506,-0.007045,1.089894
1403774729464955,INS_SOLUTION_GOOD,51.765477,-1.258721,110.494618,5736388.785221,620159.108958,-110.494618,30U,-0.006650,-0.006605,-0.056690,-0.085510,-0.007054,1.089890
1403774729482321,INS_SOLUTION_GOOD,51.765477,-1.258720,110.180633,5736388.845969,620159.159978,-110.180633,30U,-0.001222,-0.004699,-0.020505,-0.085570,-0.007073,1.090303
1403774729502420,INS_SOLUTION_GOOD,51.765477,-1.258720,110.181036,5736388.845856,620159.159912,-110.181036,30U,-0.001243,-0.005006,-0.019891,-0.085585,-0.007069,1.090306
1403774729522227,INS_SOLUTION_GOOD,51.765477,-1.258720,110.181170,5736388.849900,620159.161542,-110.181170,30U,-0.001116,-0.004955,-0.019229,-0.085614,-0.007064,1.090508
1403774729542683,INS_SOLUTION_GOOD,51.765477,-1.258720,110.181293,5736388.853835,620159.163243,-110.181293,30U,-0.000984,-0.004837,-0.018994,-0.085646,-0.007053,1.090699
1403774729571832,INS_SOLUTION_GOOD,51.765477,-1.258720,110.181675,5736388.853721,620159.163107,-110.181675,30U,-0.001284,-0.004819,-0.019056,-0.085660,-0.007041,1.090708
1403774729582290,INS_SOLUTION_GOOD,51.765477,-1.258720,110.182056,5736388.853719,620159.163038,-110.182056,30U,-0.001445,-0.004834,-0.018993,-0.085672,-0.007029,1.090701
1403774729602180,INS_SOLUTION_GOOD,51.765477,-1.258720,110.182438,5736388.853716,620159.162900,-110.182438,30U,-0.001830,-0.004601,-0.019281,-0.085678,-0.007016,1.090703
1403774729622019,INS_SOLUTION_GOOD,51.765477,-1.258720,110.182829,5736388.853603,620159.162834,-110.182829,30U,-0.002330,-0.004117,-0.019733,-0.085681,-0.007012,1.090699
1403774729642729,INS_SOLUTION_GOOD,51.765477,-1.258720,110.183225,5736388.853602,620159.162765,-110.183225,30U,-0.002443,-0.003425,-0.019944,-0.085682,-0.007006,1.090698
1403774729664538,INS_SOLUTION_GOOD,51.765477,-1.258720,110.183630,5736388.853600,620159.162696,-110.183630,30U,-0.002452,-0.002983,-0.020473,-0.085678,-0.007008,1.090689
1403774729682158,INS_SOLUTION_GOOD,51.765477,-1.258720,110.184045,5736388.853487,620159.162630,-110.184045,30U,-0.002526,-0.002436,-0.021037,-0.085673,-0.007013,1.090688
1403774729702083,INS_SOLUTION_GOOD,51.765477,-1.258720,110.184472,5736388.853487,620159.162630,-110.184472,30U,-0.002513,-0.001986,-0.021657,-0.085665,-0.007016,1.090682
1403774729722195,INS_SOLUTION_GOOD,51.765477,-1.258720,110.184908,5736388.853374,620159.162563,-110.184908,30U,-0.002440,-0.001773,-0.021928,-0.085650,-0.007027,1.090680
1403774729742337,INS_SOLUTION_GOOD,51.765477,-1.258720,110.185350,5736388.853374,620159.162563,-110.185350,30U,-0.002216,-0.001879,-0.022184,-0.085634,-0.007036,1.090683
1403774729771038,INS_SOLUTION_GOOD,51.765477,-1.258720,110.185790,5736388.853261,620159.162497,-110.185790,30U,-0.001991,-0.002202,-0.021849,-0.085616,-0.007044,1.090684
1403774729782426,INS_SOLUTION_GOOD,51.765477,-1.258720,110.186223,5736388.853260,620159.162428,-110.186223,30U,-0.001724,-0.002817,-0.021449,-0.085600,-0.007054,1.090694
1403774729802190,INS_SOLUTION_GOOD,51.765477,-1.258720,110.186651,5736388.853260,620159.162428,-110.186651,30U,-0.001727,-0.003175,-0.021127,-0.085587,-0.007059,1.090697
1403774729822048,INS_SOLUTION_GOOD,51.765477,-1.258720,110.187069,5736388.853258,620159.162359,-110.187069,30U,-0.001638,-0.003673,-0.020692,-0.085578,-0.007061,1.090707
1403774729842592,INS_SOLUTION_GOOD,51.765477,-1.258720,110.187480,5736388.853144,620159.162224,-110.187480,30U,-0.001597,-0.003937,-0.020383,-0.085575,-0.007062,1.090705
1403774729865051,INS_SOLUTION_GOOD,51.765477,-1.258720,110.187884,5736388.853142,620159.162155,-110.187884,30U,-0.001423,-0.004123,-0.020057,-0.085578,-0.007056,1.090707
1403774729882101,INS_SOLUTION_GOOD,51.765477,-1.258720,110.188286,5736388.853140,620159.162086,-110.188286,30U,-0.001303,-0.004378,-0.020114,-0.085584,-0.007050,1.090701
1403774729902083,INS_SOLUTION_GOOD,51.765477,-1.258720,110.188687,5736388.853027,620159.162019,-110.188687,30U,-0.001441,-0.004368,-0.019986,-0.085593,-0.007043,1.090699
1403774729922055,INS_SOLUTION_GOOD,51.765477,-1.258720,110.189087,5736388.853024,620159.161881,-110.189087,30U,-0.001365,-0.004333,-0.019973,-0.085603,-0.007035,1.090685
1403774729942064,INS_SOLUTION_GOOD,51.765477,-1.258720,110.189489,5736388.853022,620159.161812,-110.189489,30U,-0.001274,-0.004233,-0.020273,-0.085615,-0.007029,1.090683
1403774729971088,INS_SOLUTION_GOOD,51.765477,-1.258720,110.189901,5736388.853021,620159.161743,-110.189901,30U,-0.000904,-0.004110,-0.020887,-0.085630,-0.007024,1.090670
1403774729982690,INS_SOLUTION_GOOD,51.765477,-1.258720,110.190324,5736388.853019,620159.161674,-110.190324,30U,-0.000792,-0.004127,-0.021274,-0.085646,-0.007024,1.090669
1403774730002177,INS_SOLUTION_GOOD,51.765477,-1.258720,110.190753,5736388.852906,620159.161608,-110.190753,30U,-0.000802,-0.004219,-0.021481,-0.085661,-0.007026,1.090663
1403774730022171,INS_SOLUTION_GOOD,51.765477,-1.258720,110.191184,5736388.852903,620159.161470,-110.191184,30U,-0.000758,-0.004183,-0.021603,-0.085674,-0.007028,1.090662
1403774730042741,INS_SOLUTION_GOOD,51.765477,-1.258720,110.191614,5736388.852901,620159.161401,-110.191614,30U,-0.000958,-0.004132,-0.021422,-0.085686,-0.007036,1.090661
1403774730065220,INS_SOLUTION_GOOD,51.765477,-1.258720,110.192040,5736388.852900,620159.161332,-110.192040,30U,-0.001117,-0.003926,-0.021267,-0.085697,-0.007041,1.090667
1403774730082178,INS_SOLUTION_GOOD,51.765477,-1.258720,110.192466,5736388.852898,620159.161263,-110.192466,30U,-0.001409,-0.003560,-0.021291,-0.085704,-0.007046,1.090673
1403774730102086,INS_SOLUTION_GOOD,51.765477,-1.258720,110.192894,5736388.852896,620159.161194,-110.192894,30U,-0.001833,-0.003285,-0.021510,-0.085708,-0.007049,1.090680
1403774730122060,INS_SOLUTION_GOOD,51.765477,-1.258720,110.193325,5736388.852784,620159.161128,-110.193325,30U,-0.002220,-0.003274,-0.021468,-0.085708,-0.007055,1.090682
1403774730142067,INS_SOLUTION_GOOD,51.765477,-1.258720,110.193758,5736388.852782,620159.161059,-110.193758,30U,-0.002569,-0.002947,-0.021652,-0.085705,-0.007056,1.090684
1403774730171350,INS_SOLUTION_GOOD,51.765477,-1.258720,110.194189,5736388.852669,620159.160992,-110.194189,30U,-0.002708,-0.002879,-0.021397,-0.085697,-0.007059,1.090686
1403774730182163,INS_SOLUTION_GOOD,51.765477,-1.258720,110.194619,5736388.852667,620159.160923,-110.194619,30U,-0.002986,-0.003049,-0.021557,-0.085683,-0.007063,1.090684
1403774730202348,INS_SOLUTION_GOOD,51.765477,-1.258720,110.195049,5736388.852556,620159.160926,-110.195049,30U,-0.003130,-0.003204,-0.021508,-0.085666,-0.007065,1.090686
1403774730222350,INS_SOLUTION_GOOD,51.765477,-1.258720,110.195480,5736388.852555,620159.160857,-110.195480,30U,-0.003074,-0.003334,-0.021550,-0.085651,-0.007066,1.090676
1403774730242716,INS_SOLUTION_GOOD,51.765477,-1.258720,110.195912,5736388.852442,620159.160790,-110.195912,30U,-0.002933,-0.003605,-0.021445,-0.085639,-0.007065,1.090678
1403774730264941,INS_SOLUTION_GOOD,51.765477,-1.258720,110.196341,5736388.852438,620159.160652,-110.196341,30U,-0.002755,-0.003881,-0.021532,-0.085632,-0.007067,1.090671
1403774730282229,INS_SOLUTION_GOOD,51.765477,-1.258720,110.196769,5736388.852326,620159.160586,-110.196769,30U,-0.002368,-0.003971,-0.021271,-0.085633,-0.007065,1.090676
1403774730302100,INS_SOLUTION_GOOD,51.765477,-1.258720,110.197197,5736388.852324,620159.160517,-110.197197,30U,-0.001813,-0.004101,-0.021419,-0.085638,-0.007065,1.090668
1403774730322083,INS_SOLUTION_GOOD,51.765477,-1.258720,110.197624,5736388.852211,620159.160451,-110.197624,30U,-0.001511,-0.004311,-0.021365,-0.085648,-0.007064,1.090677
1403774730342104,INS_SOLUTION_GOOD,51.765477,-1.258720,110.198050,5736388.852209,620159.160382,-110.198050,30U,-0.000949,-0.004254,-0.021246,-0.085658,-0.007064,1.090674
1403774730372203,INS_SOLUTION_GOOD,51.765477,-1.258720,110.198475,5736388.852206,620159.160244,-110.198475,30U,-0.000735,-0.004224,-0.021280,-0.085669,-0.007064,1.090680
1403774730382142,INS_SOLUTION_GOOD,51.765477,-1.258720,110.198900,5736388.852204,620159.160175,-110.198900,30U,-0.000515,-0.004167,-0.021139,-0.085681,-0.007064,1.090677
1403774730402094,INS_SOLUTION_GOOD,51.765477,-1.258720,110.199325,5736388.852203,620159.160106,-110.199325,30U,-0.000631,-0.004008,-0.021226,-0.085694,-0.007066,1.090685
1403774730422081,INS_SOLUTION_GOOD,51.765477,-1.258720,110.199751,5736388.852201,620159.160037,-110.199751,30U,-0.001009,-0.004114,-0.021110,-0.085710,-0.007068,1.090685
1403774730443020,INS_SOLUTION_GOOD,51.765477,-1.258720,110.200176,5736388.852088,620159.159970,-110.200176,30U,-0.001780,-0.004007,-0.021310,-0.085728,-0.007073,1.090687
1403774730465097,INS_SOLUTION_GOOD,51.765477,-1.258720,110.122222,5736388.859971,620159.177871,-110.122222,30U,-0.001802,-0.002566,-0.012947,-0.085750,-0.007086,1.090720
1403774730482193,INS_SOLUTION_GOOD,51.765477,-1.258720,110.122484,5736388.859969,620159.177802,-110.122484,30U,-0.002082,-0.002366,-0.013168,-0.085767,-0.007093,1.090717
1403774730502045,INS_SOLUTION_GOOD,51.765477,-1.258720,110.122749,5736388.859858,620159.177805,-110.122749,30U,-0.002578,-0.002477,-0.013263,-0.085784,-0.007099,1.090716
1403774730522107,INS_SOLUTION_GOOD,51.765477,-1.258720,110.123015,5736388.859856,620159.177736,-110.123015,30U,-0.002761,-0.002415,-0.013361,-0.085796,-0.007104,1.090712
1403774730542108,INS_SOLUTION_GOOD,51.765477,-1.258720,110.123288,5736388.859743,620159.177669,-110.123288,30U,-0.002987,-0.002320,-0.013808,-0.085807,-0.007108,1.090714
1403774730571104,INS_SOLUTION_GOOD,51.765477,-1.258720,110.123569,5736388.859743,620159.177669,-110.123569,30U,-0.003091,-0.002266,-0.014181,-0.085814,-0.007113,1.090712
1403774730582121,INS_SOLUTION_GOOD,51.765477,-1.258720,110.123855,5736388.859631,620159.177603,-110.123855,30U,-0.003197,-0.002135,-0.014356,-0.085820,-0.007115,1.090715
1403774730602066,INS_SOLUTION_GOOD,51.765477,-1.258720,110.124141,5736388.859629,620159.177534,-110.124141,30U,-0.003111,-0.002096,-0.014319,-0.085827,-0.007116,1.090717
1403774730622188,INS_SOLUTION_GOOD,51.765477,-1.258720,110.124425,5736388.859518,620159.177536,-110.124425,30U,-0.003111,-0.001985,-0.014189,-0.085830,-0.007116,1.090728
1403774730642228,INS_SOLUTION_GOOD,51.765477,-1.258720,110.124711,5736388.859405,620159.177470,-110.124711,30U,-0.002892,-0.002154,-0.014378,-0.085832,-0.007118,1.090729
1403774730664828,INS_SOLUTION_GOOD,51.765477,-1.258720,110.124999,5736388.859405,620159.177470,-110.124999,30U,-0.003095,-0.002047,-0.014424,-0.085836,-0.007120,1.090742
1403774730682246,INS_SOLUTION_GOOD,51.765477,-1.258720,110.125288,5736388.859292,620159.177404,-110.125288,30U,-0.003080,-0.001767,-0.014393,-0.085843,-0.007127,1.090744
1403774730701987,INS_SOLUTION_GOOD,51.765477,-1.258720,110.125577,5736388.859292,620159.177404,-110.125577,30U,-0.003131,-0.001592,-0.014381,-0.085853,-0.007132,1.090757
1403774730722241,INS_SOLUTION_GOOD,51.765477,-1.258720,110.125866,5736388.859179,620159.177337,-110.125866,30U,-0.003128,-0.001684,-0.014531,-0.085865,-0.007140,1.090757
1403774730742117,INS_SOLUTION_GOOD,51.765477,-1.258720,110.126159,5736388.859179,620159.177337,-110.126159,30U,-0.003018,-0.001719,-0.014675,-0.085879,-0.007148,1.090765
1403774730770976,INS_SOLUTION_GOOD,51.765477,-1.258720,110.126453,5736388.859066,620159.177271,-110.126453,30U,-0.003145,-0.001837,-0.014620,-0.085896,-0.007157,1.090766
1403774730782208,INS_SOLUTION_GOOD,51.765477,-1.258720,110.126746,5736388.859066,620159.177271,-110.126746,30U,-0.003098,-0.001984,-0.014614,-0.085914,-0.007163,1.090774
1403774730802056,INS_SOLUTION_GOOD,51.765477,-1.258720,110.127037,5736388.858953,620159.177205,-110.127037,30U,-0.002843,-0.002104,-0.014497,-0.085931,-0.007167,1.090775
1403774730822063,INS_SOLUTION_GOOD,51.765477,-1.258720,110.127327,5736388.858952,620159.177136,-110.127327,30U,-0.002689,-0.002290,-0.014597,-0.085949,-0.007172,1.090781
1403774730841997,INS_SOLUTION_GOOD,51.765477,-1.258720,110.127621,5736388.858841,620159.177138,-110.127621,30U,-0.002597,-0.002592,-0.014771,-0.085967,-0.007175,1.090789
1403774730864800,INS_SOLUTION_GOOD,51.765477,-1.258720,110.127919,5736388.858839,620159.177069,-110.127919,30U,-0.002326,-0.002630,-0.015019,-0.085989,-0.007178,1.090797
1403774730882120,INS_SOLUTION_GOOD,51.765477,-1.258720,110.128221,5736388.858726,620159.177003,-110.128221,30U,-0.002348,-0.002807,-0.015158,-0.086015,-0.007180,1.090810
1403774730902116,INS_SOLUTION_GOOD,51.765477,-1.258720,110.128529,5736388.858724,620159.176934,-110.128529,30U,-0.002233,-0.002916,-0.015454,-0.086042,-0.007186,1.090822
1403774730922117,INS_SOLUTION_GOOD,51.765477,-1.258720,110.128842,5736388.858612,620159.176868,-110.128842,30U,-0.002442,-0.003087,-0.015742,-0.086072,-0.007189,1.090840
1403774730942116,INS_SOLUTION_GOOD,51.765477,-1.258720,110.129159,5736388.858610,620159.176799,-110.129159,30U,-0.002438,-0.003186,-0.015937,-0.086102,-0.007192,1.090847
1403774730971242,INS_SOLUTION_GOOD,51.765477,-1.258720,110.129480,5736388.858610,620159.176799,-110.129480,30U,-0.002567,-0.003268,-0.016189,-0.086130,-0.007196,1.090866
1403774730982222,INS_SOLUTION_GOOD,51.765477,-1.258720,110.129805,5736388.858497,620159.176732,-110.129805,30U,-0.002771,-0.003307,-0.016237,-0.086155,-0.007206,1.090875
1403774731002119,INS_SOLUTION_GOOD,51.765477,-1.258720,110.130129,5736388.858495,620159.176663,-110.130129,30U,-0.002783,-0.003062,-0.016132,-0.086178,-0.007211,1.090891
1403774731022073,INS_SOLUTION_GOOD,51.765477,-1.258720,110.130453,5736388.858383,620159.176597,-110.130453,30U,-0.002516,-0.001932,-0.016089,-0.086196,-0.007223,1.090900
1403774731041997,INS_SOLUTION_GOOD,51.765477,-1.258720,110.130762,5736388.858383,620159.176597,-110.130762,30U,-0.002042,-0.000584,-0.014637,-0.086207,-0.007227,1.090915
1403774731064776,INS_SOLUTION_GOOD,51.765477,-1.258720,110.131040,5736388.858271,620159.176600,-110.131040,30U,-0.001715,0.000782,-0.013203,-0.086223,-0.007204,1.090918
1403774731082102,INS_SOLUTION_GOOD,51.765477,-1.258720,110.131291,5736388.858271,620159.176600,-110.131291,30U,-0.000463,0.003255,-0.011611,-0.086235,-0.007160,1.090926
1403774731102017,INS_SOLUTION_GOOD,51.765477,-1.258720,110.131502,5736388.858275,620159.176738,-110.131502,30U,0.001636,0.009273,-0.009239,-0.086247,-0.007107,1.090930
1403774731122240,INS_SOLUTION_GOOD,51.765477,-1.258720,110.131664,5736388.858391,620159.176942,-110.131664,30U,0.004168,0.015569,-0.006896,-0.086273,-0.007020,1.090936
1403774731142123,INS_SOLUTION_GOOD,51.765477,-1.258720,110.131785,5736388.858512,620159.177353,-110.131785,30U,0.007579,0.022331,-0.005274,-0.086303,-0.006907,1.090935
1403774731171357,INS_SOLUTION_GOOD,51.765477,-1.258720,110.131878,5736388.858635,620159.177834,-110.131878,30U,0.011461,0.029657,-0.004157,-0.086333,-0.006784,1.090939
1403774731182360,INS_SOLUTION_GOOD,51.765477,-1.258720,110.131953,5736388.858985,620159.178516,-110.131953,30U,0.015342,0.037544,-0.003341,-0.086349,-0.006659,1.090945
1403774731202223,INS_SOLUTION_GOOD,51.765477,-1.258720,110.132011,5736388.859338,620159.179336,-110.132011,30U,0.019428,0.045264,-0.002738,-0.086358,-0.006532,1.090947
1403774731222204,INS_SOLUTION_GOOD,51.765477,-1.258720,110.132076,5736388.859806,620159.180291,-110.132076,30U,0.023080,0.052684,-0.004010,-0.086350,-0.006410,1.090957
1403774731242129,INS_SOLUTION_GOOD,51.765477,-1.258720,110.132172,5736388.860279,620159.181454,-110.132172,30U,0.026812,0.060114,-0.005778,-0.086325,-0.006320,1.090966
1403774731264839,INS_SOLUTION_GOOD,51.765477,-1.258720,110.132297,5736388.860976,620159.182680,-110.132297,30U,0.030904,0.067840,-0.006703,-0.086301,-0.006248,1.090984
