source_timestamp,destination_timestamp,x,y,z,roll,pitch,yaw
1403538151037543,1403538150975044,8.009841e-06,3.728073e-06,8.657604e-06,-5.873993e-07,7.711379e-07,-9.964840e-07
1403538151100045,1403538151037543,2.911081e-04,-1.735690e-04,-1.785893e-04,6.405518e-06,-9.758070e-06,9.646234e-06
1403538151162546,1403538151100045,-6.330706e-05,-9.945104e-06,-3.170363e-06,2.731112e-06,-4.082600e-06,1.935432e-06
1403538151225046,1403538151162546,-2.266845e-04,1.730619e-04,-1.011045e-04,-2.552252e-06,-9.517234e-06,-1.017382e-05
1403538151287548,1403538151225046,8.534359e-04,-1.755798e-03,7.042112e-04,1.398903e-04,1.210300e-04,8.464245e-05
1403538151787552,1403538151725053,8.430679e-04,-1.066755e-03,-2.178324e-04,1.729308e-05,-7.230681e-06,4.976402e-05
1403538151912556,1403538151850053,3.459114e-05,2.970672e-05,-3.192622e-05,5.047605e-06,1.895879e-06,-2.252860e-06
1403538151975055,1403538151912556,-6.074705e-05,1.149610e-04,-3.660817e-05,-8.964394e-06,-2.211443e-06,-4.664714e-06
1403538152037556,1403538151975055,4.623570e-04,-1.028105e-03,9.413764e-04,1.419486e-04,1.449665e-04,-1.150045e-05
1403538152100056,1403538152037556,-6.479251e-05,6.388419e-05,3.260012e-05,-8.463670e-06,4.168379e-06,-2.706469e-06
1403538152162557,1403538152100056,-4.626892e-06,-8.708627e-05,-3.563525e-05,-3.642057e-06,3.088331e-06,8.461441e-06
1403538152225057,1403538152162557,-8.904529e-04,1.213203e-04,2.954298e-04,8.526522e-07,4.699208e-05,-2.552299e-05
1403538152287557,1403538152225057,4.128731e-05,6.158162e-06,-1.052507e-05,-9.206729e-06,1.500271e-06,-6.372128e-06
1403538152350059,1403538152287557,-2.466484e-06,1.972165e-05,1.607019e-05,1.509493e-06,-1.168234e-06,-2.333179e-06
1403538152412560,1403538152350059,9.937661e-04,-3.203064e-04,-3.055034e-04,-8.444647e-05,-1.670278e-06,-5.696473e-06
1403538152475059,1403538152412560,-2.385646e-05,-7.232248e-06,1.770552e-06,-2.436212e-06,-4.107812e-06,1.044320e-06
1403538152537561,1403538152475059,7.300778e-05,-1.465710e-05,2.147566e-05,5.004791e-06,6.517552e-06,-8.151341e-07
1403538152600060,1403538152537561,-5.265595e-04,-1.997830e-05,5.469793e-04,6.851073e-05,3.015717e-05,-3.873352e-06
1403538152662561,1403538152600060,7.335279e-05,-1.149066e-05,3.547244e-05,5.611215e-06,4.869111e-06,-6.007392e-07
1403538152725061,1403538152662561,-1.928442e-05,1.871206e-06,6.865599e-06,4.108063e-06,-1.297594e-06,1.279723e-06
1403538152787562,1403538152725061,-6.971881e-05,2.261564e-05,1.133608e-05,4.647252e-06,-5.824088e-06,9.470207e-06
1403538152850066,1403538152787562,2.268893e-04,-6.089236e-05,8.594517e-05,1.598698e-06,2.951432e-06,-1.646379e-06
1403538152912564,1403538152850066,-3.728730e-05,7.643433e-06,-1.942428e-05,1.512901e-05,-4.197190e-06,-6.046448e-06
1403538152975066,1403538152912564,-2.998599e-04,6.409365e-05,-1.247163e-04,8.766016e-06,-1.711402e-05,-3.312364e-06
1403538153037565,1403538152975066,1.105325e-05,1.421114e-05,-1.010728e-05,-1.105226e-06,-2.344406e-06,-1.254055e-06
1403538153100070,1403538153037565,-4.807306e-05,-2.796376e-05,-1.692164e-05,-1.787760e-06,-8.282922e-07,7.740886e-07
1403538153162570,1403538153100070,1.644812e-05,7.343759e-06,-1.596885e-05,-4.984509e-06,-1.769771e-06,-3.163208e-06
1403538153225068,1403538153162570,8.716494e-06,1.470179e-05,-1.930317e-06,7.301295e-06,1.624960e-06,-7.979069e-06
1403538153287569,1403538153225068,-4.190718e-05,2.236833e-05,1.665814e-05,5.766066e-06,3.934444e-06,-4.994597e-06
1403538153350071,1403538153287569,-3.900666e-06,2.915926e-05,5.878940e-06,1.255173e-05,4.686591e-07,-4.942984e-06
1403538153412573,1403538153350071,-7.982875e-06,-6.918850e-06,3.046791e-07,3.652665e-06,1.899726e-07,3.657163e-06
1403538153475073,1403538153412573,-4.719238e-05,-2.187343e-05,-3.006617e-05,5.796444e-06,1.461440e-06,-1.063249e-06
1403538153537572,1403538153475073,-5.517992e-05,1.803518e-05,3.652230e-05,1.799656e-05,1.069220e-05,-2.878281e-06
1403538153600074,1403538153537572,-3.409548e-07,4.864090e-06,4.690316e-06,-7.637841e-06,3.098182e-06,1.638134e-06
1403538153662575,1403538153600074,-4.451743e-05,9.445664e-05,8.197322e-06,7.571029e-06,6.693621e-07,-8.562211e-06
1403538153725076,1403538153662575,-4.279818e-06,-7.370645e-05,4.023492e-06,-4.437501e-08,-2.124508e-06,8.245888e-06
1403538153787578,1403538153725076,1.752256e-04,-6.601667e-05,9.161181e-05,2.299103e-06,4.551702e-06,-1.317650e-06
1403538153850077,1403538153787578,-1.693562e-05,1.558684e-06,-3.621101e-06,3.467970e-06,4.119239e-07,3.967698e-06
1403538153912578,1403538153850077,-4.016860e-05,3.406087e-05,-2.813857e-05,6.674933e-06,-6.645182e-06,-7.018819e-07
1403538153975079,1403538153912578,9.112434e-05,-5.836373e-05,-3.587807e-05,-8.876711e-06,1.653981e-06,4.013819e-06
1403538154037580,1403538153975079,3.356090e-05,6.108230e-07,-6.711193e-06,-1.261274e-05,-2.312023e-06,4.522957e-07
1403538154100081,1403538154037580,-1.901313e-05,-6.918175e-08,-6.100377e-06,-1.735623e-06,-3.086874e-06,1.872902e-06
1403538154162581,1403538154100081,-2.111288e-05,8.822217e-06,9.024556e-06,-1.781468e-06,4.599606e-06,-2.387852e-06
1403538154225082,1403538154162581,2.964775e-06,4.657043e-07,1.621924e-06,-6.610722e-06,5.328419e-07,-4.580808e-06
1403538154287583,1403538154225082,-4.296338e-06,2.625662e-05,7.742216e-06,6.519576e-06,6.632895e-06,2.334707e-06
1403538154350084,1403538154287583,8.373918e-06,-1.689033e-05,-9.550142e-07,2.887917e-06,1.544478e-06,4.399074e-06
1403538154412585,1403538154350084,9.049127e-05,-8.525363e-06,-4.167341e-05,-2.475537e-06,-1.153552e-05,-2.457916e-07
1403538154475086,1403538154412585,-2.539966e-05,-1.531757e-05,-1.313394e-05,-6.331352e-06,-2.967837e-06,7.283683e-07
1403538154537588,1403538154475086,2.888967e-05,-2.017609e-05,-1.227710e-05,-4.827210e-06,-4.490709e-07,1.448898e-06
1403538154600091,1403538154537588,-1.686592e-04,3.046203e-05,-5.840490e-05,-7.477691e-06,1.630718e-06,-1.586667e-06
1403538154662589,1403538154600091,2.078886e-05,5.552513e-06,1.538744e-05,-8.537254e-06,3.039331e-06,4.768695e-06
1403538154725089,1403538154662589,-2.893716e-06,6.873960e-07,-5.811911e-06,4.404007e-06,-4.451702e-06,4.143510e-07
1403538154787590,1403538154725089,-2.696475e-06,-2.239246e-05,-1.096946e-05,4.374860e-06,-6.130576e-06,2.381539e-06
1403538154850092,1403538154787590,-8.346210e-05,8.668010e-06,-3.186745e-05,3.148197e-06,-5.700544e-06,1.968679e-06
1403538154912592,1403538154850092,3.982047e-07,-2.860698e-08,5.243049e-07,9.026261e-06,2.082422e-06,6.683304e-07
1403538154975093,1403538154912592,1.844902e-05,3.942912e-06,1.052734e-06,7.088443e-06,6.145973e-06,1.796030e-06
1403538155037594,1403538154975093,-8.576431e-05,-2.213605e-05,-7.707965e-05,-1.854444e-05,-1.572641e-05,8.100871e-06
1403538155100094,1403538155037594,1.575447e-05,2.015132e-05,3.678331e-05,-3.800303e-06,1.115224e-07,-6.624013e-06
1403538155162596,1403538155100094,1.024263e-04,-4.710797e-05,3.827646e-05,4.254471e-06,3.709615e-06,3.812628e-06
1403538155225097,1403538155162596,1.896237e-05,-1.655020e-05,-1.032204e-07,7.380052e-07,2.369611e-06,5.620796e-07
1403538155287597,1403538155225097,-2.613501e-04,9.587379e-05,-6.680092e-05,4.399099e-07,3.402594e-06,-6.180650e-06
1403538155350098,1403538155287597,4.092990e-05,-3.638279e-05,-8.742247e-07,5.959773e-06,2.676794e-06,-7.168477e-07
1403538155412599,1403538155350098,-8.503336e-06,2.552998e-06,-1.783181e-06,-1.090224e-05,-2.227570e-06,-7.555334e-07
1403538155475100,1403538155412599,-5.419164e-05,-2.526418e-05,-2.607852e-05,-1.032551e-05,-5.068276e-06,-8.638443e-07
1403538155537600,1403538155475100,7.105426e-15,1.953992e-14,2.220435e-16,2.498000e-16,-1.595946e-16,1.422473e-16
1403538155600102,1403538155537600,-1.742845e-05,-9.336417e-06,4.816655e-06,8.235639e-06,7.060944e-06,2.936434e-06
1403538155662617,1403538155600102,5.326616e-05,1.047235e-05,3.264023e-05,1.293179e-05,9.019438e-06,-4.331623e-06
1403538155725105,1403538155662617,-7.083032e-05,4.132391e-05,-2.231854e-05,-6.461913e-07,-2.292796e-06,-3.043903e-06
1403538155787604,1403538155725105,-8.245126e-06,4.632935e-06,1.201909e-05,1.026706e-05,2.245170e-06,6.125154e-07
1403538155850105,1403538155787604,-7.437846e-06,2.625308e-05,-1.586017e-06,-9.382104e-07,-2.104396e-06,-5.205428e-06
1403538155912606,1403538155850105,2.676669e-07,2.085447e-06,-1.097666e-05,4.912296e-06,2.292603e-06,-2.323211e-06
1403538155975107,1403538155912606,-3.819786e-06,-1.258177e-06,3.462714e-06,-2.203889e-06,3.935221e-06,1.875245e-06
1403538156037608,1403538155975107,-2.690081e-05,-2.759459e-05,-1.233060e-05,-2.925338e-06,7.467946e-06,6.311989e-06
1403538156100109,1403538156037608,3.197374e-04,1.313165e-05,1.265355e-04,4.559067e-06,3.011252e-06,-2.811160e-06
1403538156162610,1403538156100109,2.265178e-05,-1.557584e-05,1.092243e-05,-4.759041e-06,-2.558285e-06,-1.084196e-06
1403538156225113,1403538156162610,4.059182e-06,-6.074950e-06,-6.534019e-06,-7.711006e-06,-1.554121e-06,3.280856e-06
1403538156287614,1403538156225113,-1.342207e-04,2.431726e-05,-3.350377e-05,-1.095901e-05,8.311809e-07,-3.412690e-06
1403538156350114,1403538156287614,-4.544738e-07,5.499215e-08,-1.586794e-06,-2.104902e-07,-1.171769e-06,-7.404612e-07
1403538156412616,1403538156350114,-9.262293e-05,7.200940e-06,4.928759e-05,2.507327e-05,4.581477e-05,6.038067e-06
1403538156475115,1403538156412616,-7.524072e-05,-4.945809e-05,2.238788e-04,3.039460e-06,2.006271e-04,5.365748e-05
1403538156537617,1403538156475115,-2.115909e-04,-1.205280e-04,4.978917e-04,4.719555e-05,4.236272e-04,8.484462e-05
1403538156600116,1403538156537617,1.390379e-03,3.547127e-04,1.074421e-03,1.409217e-04,4.943258e-04,3.655677e-05
1403538156662617,1403538156600116,2.370759e-03,-7.023221e-04,1.328586e-03,9.840471e-05,4.456048e-04,9.167833e-05
1403538156725118,1403538156662617,5.460373e-03,6.112666e-04,-5.382462e-04,4.492700e-05,1.409978e-04,1.034464e-05
1403538156787619,1403538156725118,7.191287e-03,4.189360e-04,-3.951089e-04,1.000003e-04,3.304648e-05,6.787950e-05
1403538156850119,1403538156787619,8.511783e-03,3.080182e-04,-9.245879e-04,2.812054e-05,2.708501e-05,1.197013e-04
1403538156912620,1403538156850119,9.991212e-03,4.691096e-04,-9.622062e-04,9.599496e-05,3.769036e-05,1.137017e-04
1403538156975121,1403538156912620,1.149153e-02,4.332151e-04,-7.485370e-04,9.172053e-05,2.171831e-05,1.097273e-04
1403538157037623,1403538156975121,1.271362e-02,1.360723e-04,-9.944711e-04,-2.832741e-05,-4.266482e-05,9.494358e-05
1403538157100123,1403538157037623,1.414318e-02,-7.532772e-05,-6.891649e-04,-1.046864e-04,-3.475434e-05,1.072755e-04
1403538157225124,1403538157100123,3.398583e-02,-4.161506e-04,-1.712417e-03,-3.095998e-04,6.421030e-05,4.286013e-04
1403538157287625,1403538157225124,1.887136e-02,-3.007377e-05,-1.110588e-03,-1.751756e-04,-4.121496e-05,3.443172e-04
1403538157350128,1403538157287625,2.012913e-02,-1.858958e-06,-1.359943e-03,1.406435e-05,2.463260e-05,3.095405e-04
1403538157475127,1403538157350128,4.408174e-02,2.822497e-04,-3.113062e-03,-3.342494e-04,1.394287e-04,5.125808e-04
1403538157537628,1403538157475127,2.549085e-02,-2.263741e-04,-1.412655e-03,-9.276267e-05,-1.017245e-04,5.527783e-04
1403538157600129,1403538157537628,2.656247e-02,7.208056e-04,-1.377217e-03,-4.352899e-05,-1.561640e-04,6.773921e-04
1403538157662629,1403538157600129,2.881715e-02,6.912981e-04,-2.043574e-03,7.083715e-05,1.904818e-05,5.889830e-04
1403538157787631,1403538157662629,6.509263e-02,8.191961e-04,-3.807426e-03,3.961095e-04,3.006731e-04,8.092591e-04
1403538157850131,1403538157787631,3.479865e-02,7.997738e-04,-2.631638e-03,-8.326398e-05,4.111498e-05,4.095096e-04
1403538157912632,1403538157850131,3.789762e-02,9.399440e-04,-2.257570e-03,1.058732e-04,3.159789e-05,4.648685e-04
1403538158037636,1403538157912632,8.539943e-02,5.099657e-04,-4.519827e-03,-2.298302e-04,2.521323e-04,1.318620e-03
1403538158100136,1403538158037636,4.633918e-02,1.351855e-03,-2.674951e-03,6.022170e-04,2.703147e-04,9.923047e-04
1403538158162637,1403538158100136,4.755260e-02,1.483533e-03,-3.902587e-03,7.708413e-04,5.111916e-04,1.337489e-03
1403538158225136,1403538158162637,4.935406e-02,3.102421e-03,-4.095746e-03,4.253199e-04,6.301681e-04,1.240930e-03
1403538158350137,1403538158225136,1.050203e-01,4.490883e-03,-8.512334e-03,6.382323e-04,1.476056e-03,2.252721e-03
1403538158412640,1403538158350137,5.707458e-02,1.487886e-03,-4.001571e-03,8.574656e-05,5.004296e-04,8.448572e-04
1403538158475140,1403538158412640,5.951149e-02,1.917175e-03,-3.241052e-03,-3.827272e-06,-8.965613e-05,8.099743e-04
1403538158537640,1403538158475140,6.329736e-02,1.536694e-03,-3.509360e-03,-5.548140e-04,-4.672480e-04,9.525510e-04
1403538158662641,1403538158537640,1.376236e-01,1.618091e-03,-6.098005e-03,-7.355385e-04,-1.690077e-03,3.318737e-03
1403538158725141,1403538158662641,7.344468e-02,5.817693e-05,-3.237241e-03,-6.956977e-04,-5.698577e-04,1.970884e-03
1403538158787642,1403538158725141,7.578496e-02,1.501953e-03,-4.108651e-03,-3.722772e-04,-6.893321e-05,1.131763e-03
1403538158912643,1403538158787642,1.590645e-01,4.729440e-03,-9.895594e-03,3.192912e-04,4.634789e-04,1.656539e-03
1403538158975144,1403538158912643,8.437668e-02,2.885950e-03,-4.419452e-03,-5.894873e-05,4.428947e-04,2.736828e-03
1403538159037645,1403538158975144,8.769798e-02,2.872664e-03,-4.443058e-03,1.147544e-03,2.789733e-04,3.300833e-03
1403538159162646,1403538159037645,1.817361e-01,7.154133e-03,-1.289725e-02,3.583843e-03,-6.063789e-05,2.391179e-03
1403538159225147,1403538159162646,9.384929e-02,2.356985e-03,-6.704127e-03,-4.589188e-04,-2.586975e-04,7.415428e-04
1403538159287650,1403538159225147,9.664363e-02,1.876047e-03,-5.293488e-03,-2.361834e-04,-1.023415e-03,1.684556e-03
1403538159412649,1403538159287650,2.059586e-01,9.752828e-04,-8.060791e-03,-2.239592e-03,-1.456102e-03,4.869705e-03
1403538159475150,1403538159412649,1.046528e-01,-2.758186e-03,-4.106252e-03,-3.148416e-03,7.195401e-04,1.718315e-03
1403538159537651,1403538159475150,1.081261e-01,-1.895355e-03,-4.606565e-03,-1.532255e-03,1.105416e-03,8.049579e-04
1403538159662651,1403538159537651,2.252103e-01,2.888805e-03,-1.299599e-02,8.062100e-04,1.260841e-03,2.751919e-03
1403538159725153,1403538159662651,1.148871e-01,4.695879e-03,-7.156603e-03,1.689678e-03,8.580108e-05,1.922054e-03
1403538159787653,1403538159725153,1.194611e-01,5.385751e-03,-8.044354e-03,2.607760e-03,-6.746256e-05,1.844376e-03
1403538159912653,1403538159787653,2.480485e-01,8.987095e-03,-1.465832e-02,1.228263e-03,-1.864243e-03,3.911069e-03
1403538159975154,1403538159912653,1.276481e-01,8.467793e-04,-6.121563e-03,-4.865757e-04,-9.484772e-04,1.794067e-03
1403538160037653,1403538159975154,1.311248e-01,-1.295527e-03,-6.395124e-03,-4.187805e-04,-5.251398e-04,1.452793e-03
1403538160100153,1403538160037653,1.328420e-01,-1.614885e-03,-7.246633e-03,-1.242280e-03,-7.604698e-04,1.499880e-03
1403538160225155,1403538160100153,2.735125e-01,-1.664205e-04,-1.733133e-02,-3.762636e-03,-2.588615e-03,4.735393e-03
1403538160287655,1403538160225155,1.393282e-01,1.751783e-03,-8.478070e-03,1.009337e-04,1.484469e-04,2.352329e-03
1403538160350155,1403538160287655,1.395566e-01,2.986763e-03,-8.426535e-03,2.069678e-04,9.995725e-04,1.365593e-03
1403538160475156,1403538160350155,2.877896e-01,6.660551e-03,-1.667604e-02,1.048728e-03,2.289833e-03,2.641589e-03
1403538160537656,1403538160475156,1.477452e-01,4.763083e-03,-8.274145e-03,1.284783e-03,-3.681927e-04,2.046947e-03
1403538160600155,1403538160537656,1.515116e-01,4.030614e-03,-8.149764e-03,1.404419e-03,-1.436396e-03,2.379717e-03
1403538160725156,1403538160600155,3.111116e-01,4.990747e-03,-1.817761e-02,1.335941e-03,-6.960838e-04,4.701854e-03
1403538160787656,1403538160725156,1.597915e-01,4.543294e-04,-7.755797e-03,6.504607e-04,-6.797606e-04,1.166928e-03
1403538160850157,1403538160787656,1.646897e-01,1.491322e-03,-8.082716e-03,1.566375e-03,-1.353459e-03,8.825348e-04
1403538160912657,1403538160850157,1.656183e-01,3.120754e-03,-8.136797e-03,2.018997e-03,-1.229829e-03,1.331881e-03
1403538161037658,1403538160912657,3.319809e-01,1.066218e-02,-2.462331e-02,5.942798e-03,7.574661e-05,4.057961e-03
1403538161100157,1403538161037658,1.664004e-01,5.298239e-03,-1.259536e-02,1.939591e-03,1.601124e-03,2.141095e-03
1403538161162659,1403538161100157,1.680294e-01,3.071422e-03,-1.265375e-02,1.857357e-03,1.483380e-03,1.662419e-03
1403538161225158,1403538161162659,1.712838e-01,2.383717e-04,-1.112830e-02,1.100685e-03,1.299267e-03,9.348404e-04
1403538161287661,1403538161225158,1.740976e-01,-1.765865e-03,-9.776377e-03,3.406221e-04,6.615195e-04,6.240928e-04
1403538161350162,1403538161287661,1.756051e-01,-3.973249e-04,-1.022387e-02,6.242653e-04,-9.212581e-05,7.504059e-04
1403538161412661,1403538161350162,1.785465e-01,-1.330711e-04,-1.042296e-02,5.688194e-04,-5.779910e-04,1.135018e-03
1403538161475160,1403538161412661,1.812421e-01,4.492067e-04,-8.642214e-03,1.176166e-03,-8.906551e-04,9.121517e-04
1403538161537662,1403538161475160,1.814652e-01,3.390158e-04,-9.807954e-03,4.893924e-04,-1.156858e-03,5.286416e-04
1403538161600161,1403538161537662,1.820250e-01,-9.903299e-04,-8.734511e-03,-2.481984e-04,-4.150406e-04,2.667188e-04
1403538161662661,1403538161600161,1.870563e-01,-2.295458e-03,-9.303165e-03,3.351375e-04,-3.698667e-04,-7.600305e-05
1403538161725161,1403538161662661,1.851191e-01,-2.630354e-03,-8.513085e-03,-8.069873e-04,1.247105e-04,8.467455e-05
1403538161787662,1403538161725161,1.879871e-01,-9.993870e-04,-8.004569e-03,1.156458e-03,2.071840e-04,2.960180e-04
1403538161850164,1403538161787662,1.873163e-01,1.894004e-04,-8.053420e-03,1.542717e-03,5.217803e-04,4.119813e-04
1403538161912666,1403538161850164,1.919883e-01,1.342328e-03,-9.391171e-03,1.917429e-03,-1.000548e-04,8.137102e-05
1403538161975166,1403538161912666,1.918241e-01,1.822620e-03,-1.137497e-02,1.706737e-03,-1.146838e-03,-6.436235e-05
1403538162037665,1403538161975166,1.947635e-01,7.652514e-04,-1.201175e-02,1.262070e-03,-1.701723e-03,-3.640441e-05
1403538162100166,1403538162037665,1.971329e-01,2.426503e-04,-1.352989e-02,2.047176e-03,-1.896155e-03,1.192510e-05
1403538162162667,1403538162100166,1.980295e-01,4.312588e-04,-1.450718e-02,2.271567e-03,-1.707853e-03,-2.184676e-04
1403538162225168,1403538162162667,1.975345e-01,-9.733456e-04,-1.380415e-02,8.468323e-04,-9.950784e-04,-4.575779e-04
1403538162287669,1403538162225168,2.009010e-01,-9.603420e-05,-1.314777e-02,9.563776e-04,-6.936769e-04,-4.015434e-04
1403538162350170,1403538162287669,2.022984e-01,-2.096524e-04,-1.237281e-02,1.518451e-03,-7.957872e-05,-1.420664e-04
1403538162412672,1403538162350170,2.023542e-01,-2.239860e-05,-1.139472e-02,9.716115e-04,6.295584e-04,3.496903e-05
1403538162475172,1403538162412672,2.037394e-01,-2.274855e-04,-1.126968e-02,8.395206e-04,1.021692e-03,1.175870e-05
1403538162537673,1403538162475172,2.045728e-01,4.546807e-04,-1.133952e-02,2.056407e-03,7.726414e-04,-1.809729e-04
1403538162600174,1403538162537673,2.074079e-01,-1.706209e-03,-1.063082e-02,3.920184e-04,7.735822e-04,-8.641545e-05
1403538162662673,1403538162600174,2.083167e-01,-3.108683e-03,-1.062114e-02,-9.156240e-04,4.229085e-04,-2.311142e-04
1403538162725174,1403538162662673,2.108848e-01,-2.415956e-03,-1.174145e-02,4.906502e-04,1.080925e-04,-5.942977e-04
1403538162787675,1403538162725174,2.135275e-01,-9.810485e-04,-1.193467e-02,1.545923e-03,-9.717943e-04,-5.318377e-04
1403538162850175,1403538162787675,2.174172e-01,-8.836561e-04,-1.149939e-02,1.002934e-03,-2.186458e-03,-2.792139e-04
1403538162912674,1403538162850175,2.165991e-01,1.009969e-03,-1.323161e-02,2.062685e-03,-9.593242e-04,7.714363e-05
1403538162975175,1403538162912674,2.157015e-01,1.670853e-03,-1.625089e-02,2.148135e-03,1.064231e-03,3.941791e-05
1403538163037677,1403538162975175,2.171820e-01,2.370472e-04,-1.657674e-02,1.842529e-03,1.800289e-03,-3.278985e-04
1403538163100178,1403538163037677,2.192468e-01,5.523606e-04,-1.521180e-02,2.216518e-03,8.532646e-04,-5.002593e-04
1403538163162677,1403538163100178,2.251648e-01,8.198817e-04,-1.187156e-02,2.842019e-03,-1.187384e-03,-5.269036e-04
1403538163225178,1403538163162677,2.265405e-01,8.239779e-04,-1.113615e-02,2.299910e-03,-1.684558e-03,-2.075254e-04
1403538163287679,1403538163225178,2.276178e-01,-3.716511e-03,-1.158728e-02,-1.744062e-03,-6.856578e-04,7.538066e-05
1403538163350179,1403538163287679,2.279116e-01,-5.314318e-03,-1.317572e-02,-2.182404e-03,9.366497e-04,-1.880128e-04
1403538163412680,1403538163350179,2.277593e-01,-4.930394e-03,-1.462433e-02,-1.065106e-03,1.867480e-03,-1.378063e-04
1403538163475183,1403538163412680,2.303658e-01,-5.224288e-03,-1.405799e-02,-8.116266e-04,1.360363e-03,2.372368e-04
1403538163537682,1403538163475183,2.340580e-01,-3.925988e-03,-1.203205e-02,-1.077573e-03,5.464436e-04,4.613450e-04
1403538163600181,1403538163537682,2.333089e-01,-2.200573e-03,-1.145995e-02,-5.052953e-04,3.242499e-04,3.016549e-04
1403538163662682,1403538163600181,2.360635e-01,-1.409392e-03,-1.191343e-02,-4.149101e-04,-3.689489e-04,-2.345989e-04
1403538163725185,1403538163662682,2.351950e-01,-1.293863e-03,-1.534356e-02,-3.399544e-04,-4.982545e-04,-1.160918e-04
1403538163787685,1403538163725185,2.380471e-01,-3.402350e-04,-1.863457e-02,1.289427e-03,1.020158e-03,-4.183586e-06
1403538163850186,1403538163787685,2.346567e-01,9.702389e-04,-2.072599e-02,2.453111e-03,3.130857e-03,2.274805e-04
1403538163912685,1403538163850186,2.342458e-01,2.001063e-03,-1.825872e-02,1.455106e-03,4.616768e-03,4.600931e-04
1403538163975187,1403538163912685,2.370487e-01,-7.769852e-04,-1.560984e-02,-7.931202e-04,3.561463e-03,7.288707e-04
1403538164037689,1403538163975187,2.396490e-01,-3.919947e-03,-1.278951e-02,-3.253083e-03,1.120479e-03,1.256985e-03
1403538164100189,1403538164037689,2.439776e-01,-4.217157e-03,-1.164587e-02,-1.121725e-03,-7.045167e-04,8.349048e-04
1403538164162689,1403538164100189,2.482556e-01,-4.891365e-03,-1.063289e-02,-8.469808e-04,-1.440031e-03,4.177123e-04
1403538164225189,1403538164162689,2.482350e-01,-3.023255e-03,-9.311388e-03,-1.402405e-03,-9.595435e-04,2.141510e-04
1403538164287690,1403538164225189,2.482672e-01,-3.166398e-03,-8.979431e-03,-1.321253e-03,6.135029e-05,4.399389e-04
1403538164350191,1403538164287690,2.493814e-01,-1.520831e-04,-1.006140e-02,-9.303865e-05,4.564240e-04,7.728906e-04
1403538164412690,1403538164350191,2.508118e-01,-7.595760e-04,-1.144147e-02,6.611460e-04,-3.434519e-04,1.079392e-03
1403538164475193,1403538164412690,2.530278e-01,-1.180094e-03,-1.404632e-02,5.163191e-04,-1.801418e-03,1.238602e-03
1403538164537695,1403538164475193,2.548635e-01,-1.255874e-03,-1.731376e-02,7.949610e-05,-2.617610e-03,1.007670e-03
1403538164600193,1403538164537695,2.565245e-01,-2.519528e-03,-1.719446e-02,-1.126842e-03,-3.225101e-03,7.404015e-04
1403538164662694,1403538164600193,2.585168e-01,-2.745667e-03,-1.622783e-02,-1.137635e-03,-3.391900e-03,8.074011e-04
1403538164725195,1403538164662694,2.557196e-01,-3.769928e-03,-1.541570e-02,-1.225029e-03,-2.680485e-03,1.202529e-03
1403538164787695,1403538164725195,2.559123e-01,-3.825127e-03,-1.515914e-02,-1.647951e-03,-1.214668e-03,1.182293e-03
1403538164850196,1403538164787695,2.567285e-01,-4.287696e-03,-1.344165e-02,-1.725024e-03,2.430613e-04,8.156650e-04
1403538164912696,1403538164850196,2.558683e-01,-3.765037e-03,-1.234476e-02,-1.535949e-03,1.039566e-03,6.070119e-04
1403538164975199,1403538164912696,2.551572e-01,-1.278658e-03,-1.319933e-02,-2.961416e-04,1.735102e-03,7.503568e-04
1403538165037699,1403538164975199,2.565610e-01,1.733619e-03,-1.408474e-02,2.197466e-03,1.648567e-03,1.097658e-03
1403538165100201,1403538165037699,2.583560e-01,2.482529e-03,-1.433100e-02,2.446265e-03,-7.676635e-05,1.381723e-03
1403538165162699,1403538165100201,2.605690e-01,2.320371e-03,-1.419280e-02,1.819219e-03,-1.411096e-03,1.118175e-03
1403538165225201,1403538165162699,2.617167e-01,5.803647e-04,-1.546828e-02,8.561876e-04,-1.992486e-03,9.070501e-04
1403538165287700,1403538165225201,2.614233e-01,1.271601e-04,-1.572172e-02,2.283228e-04,-1.527521e-03,8.364314e-04
1403538165350203,1403538165287700,2.625773e-01,-3.086559e-04,-1.529758e-02,3.660979e-04,-6.108167e-04,1.086049e-03
1403538165412701,1403538165350203,2.603568e-01,-1.529310e-03,-1.587986e-02,-7.291525e-04,2.303797e-04,1.358107e-03
1403538165475202,1403538165412701,2.621366e-01,-2.556960e-03,-1.505676e-02,-1.118313e-03,6.556332e-04,1.584946e-03
1403538165537705,1403538165475202,2.614350e-01,-2.994489e-03,-1.422177e-02,-9.816436e-04,2.955815e-04,1.523129e-03
1403538165600204,1403538165537705,2.622089e-01,-7.963859e-04,-1.445793e-02,5.490376e-04,1.291408e-04,1.174657e-03
1403538165662707,1403538165600204,2.608153e-01,1.095562e-03,-1.736433e-02,1.828087e-03,3.388661e-04,6.113792e-04
1403538165725207,1403538165662707,2.603325e-01,2.194817e-03,-1.841429e-02,1.894314e-03,1.294651e-03,4.768834e-04
1403538165787707,1403538165725207,2.615966e-01,2.467410e-03,-1.889791e-02,1.857846e-03,1.864250e-03,8.421734e-04
1403538165850207,1403538165787707,2.607099e-01,2.336719e-03,-1.767925e-02,1.630038e-03,1.388876e-03,1.241591e-03
1403538165912711,1403538165850207,2.613294e-01,3.930124e-04,-1.628255e-02,4.765751e-04,9.392786e-04,1.544489e-03
1403538165975208,1403538165912711,2.634976e-01,-1.844626e-04,-1.393147e-02,2.934027e-04,5.820951e-04,1.493891e-03
1403538166037713,1403538165975208,2.618284e-01,-7.205047e-04,-1.349362e-02,-2.603029e-04,4.238593e-04,1.247252e-03
1403538166100212,1403538166037713,2.645976e-01,-1.939982e-03,-1.312709e-02,-9.158137e-04,2.182754e-04,1.062155e-03
1403538166162711,1403538166100212,2.628746e-01,-6.218058e-04,-1.388633e-02,-6.964790e-05,1.063758e-03,8.968006e-04
1403538166225215,1403538166162711,2.632427e-01,6.000738e-05,-1.339202e-02,3.205929e-04,1.059712e-03,5.941744e-04
1403538166287715,1403538166225215,2.628040e-01,-1.632001e-04,-1.424403e-02,-1.262488e-04,-2.786016e-04,5.852351e-04
1403538166350216,1403538166287715,2.636361e-01,-1.599563e-03,-1.585212e-02,-2.323265e-04,-1.146450e-03,7.884670e-04
1403538166412715,1403538166350216,2.656539e-01,2.437168e-04,-1.649525e-02,9.128055e-04,-1.028917e-03,1.082652e-03
1403538166475216,1403538166412715,2.661917e-01,6.288082e-04,-1.661128e-02,1.034094e-03,-7.131922e-04,1.132067e-03
1403538166537717,1403538166475216,2.656768e-01,-7.879429e-04,-1.599662e-02,6.361360e-05,-8.702652e-04,1.142593e-03
1403538166600219,1403538166537717,2.658776e-01,6.235587e-04,-1.491255e-02,1.669198e-03,-5.951398e-04,7.177849e-04
1403538166662718,1403538166600219,2.657771e-01,8.953043e-04,-1.506430e-02,2.050208e-03,-2.691723e-04,3.567473e-04
1403538166725218,1403538166662718,2.662256e-01,-3.019604e-04,-1.377979e-02,7.196524e-04,3.822498e-04,4.044015e-04
1403538166787722,1403538166725218,2.663425e-01,-7.095526e-05,-1.428159e-02,1.014796e-03,1.113090e-04,7.648026e-04
1403538166850219,1403538166787722,2.683889e-01,3.552361e-04,-1.404010e-02,1.339439e-03,-4.502921e-04,1.163975e-03
1403538166912719,1403538166850219,2.693734e-01,-1.640302e-03,-1.417263e-02,-3.057191e-04,-9.107599e-04,1.369953e-03
1403538166975220,1403538166912719,2.697965e-01,-3.658272e-03,-1.434243e-02,-1.570685e-03,-1.016103e-03,1.307797e-03
1403538167037720,1403538166975220,2.700329e-01,-3.522320e-03,-1.607017e-02,-5.558214e-04,-9.098527e-04,8.556550e-04
1403538167100222,1403538167037720,2.704120e-01,-2.785780e-03,-1.744752e-02,-5.475745e-04,-4.015449e-04,4.266811e-04
1403538167162723,1403538167100222,2.710165e-01,-3.099721e-03,-1.768317e-02,-8.057365e-04,4.913518e-05,3.223502e-04
1403538167225224,1403538167162723,2.708116e-01,-1.078174e-03,-1.728758e-02,4.790993e-04,3.134531e-04,9.966211e-05
1403538167287725,1403538167225224,2.723174e-01,-2.675700e-04,-1.541925e-02,1.178927e-03,3.516680e-04,-2.051929e-05
1403538167350225,1403538167287725,2.738439e-01,-1.309236e-03,-1.493782e-02,8.273959e-04,1.045897e-04,3.335120e-07
1403538167412727,1403538167350225,2.751897e-01,-1.925958e-04,-1.356484e-02,1.684936e-03,-6.320595e-04,-2.748123e-04
1403538167475226,1403538167412727,2.757736e-01,2.307165e-04,-1.451944e-02,1.874153e-03,-6.958354e-04,-6.707593e-04
1403538167537727,1403538167475226,2.765897e-01,-9.237867e-04,-1.500493e-02,1.389635e-03,5.368170e-05,-6.437160e-04
1403538167600227,1403538167537727,2.744422e-01,-1.972741e-03,-1.614132e-02,1.059073e-04,6.590398e-04,-6.536301e-04
1403538167662730,1403538167600227,2.773034e-01,-2.569075e-03,-1.601772e-02,3.070749e-04,9.834958e-04,-4.704192e-04
1403538167725229,1403538167662730,2.771069e-01,-4.593908e-03,-1.702613e-02,-1.272908e-04,1.718700e-04,-3.234620e-05
1403538167787729,1403538167725229,2.780188e-01,-4.414918e-03,-1.668872e-02,-7.729556e-04,-6.081651e-04,9.266693e-05
1403538167850231,1403538167787729,2.793149e-01,-3.607408e-03,-1.556483e-02,-7.113339e-04,-1.262799e-03,1.089298e-05
1403538167912730,1403538167850231,2.818055e-01,-3.322626e-03,-1.363464e-02,-1.863895e-04,-2.572733e-03,-3.620717e-04
1403538167975232,1403538167912730,2.818966e-01,-4.854742e-03,-1.355129e-02,-9.286991e-04,-3.161028e-03,-6.014672e-04
1403538168037733,1403538167975232,2.823851e-01,-4.129163e-03,-1.407028e-02,-1.506885e-04,-1.513624e-03,-8.267416e-04
1403538168100232,1403538168037733,2.798136e-01,-2.597949e-03,-1.639152e-02,5.480960e-04,4.675144e-04,-8.817388e-04
1403538168162733,1403538168100232,2.782741e-01,-2.507294e-03,-1.828172e-02,6.324063e-04,1.181266e-03,-5.835193e-04
1403538168225235,1403538168162733,2.809828e-01,-1.476073e-03,-1.758751e-02,9.012865e-04,-2.476863e-04,-1.382023e-04
1403538168287737,1403538168225235,2.807185e-01,-1.752123e-03,-1.894293e-02,1.777654e-03,-1.145550e-03,3.697074e-05
1403538168350236,1403538168287737,2.804896e-01,-4.731776e-04,-2.044908e-02,2.079210e-03,2.195959e-04,-9.515599e-05
1403538168412739,1403538168350236,2.780242e-01,-1.450950e-03,-2.104513e-02,-5.713172e-05,1.055727e-03,-2.654056e-04
1403538168475237,1403538168412739,2.763155e-01,-3.712004e-03,-2.017669e-02,-9.485936e-04,1.804096e-03,-3.620942e-04
1403538168537738,1403538168475237,2.773335e-01,-2.675766e-03,-1.711449e-02,-3.440760e-05,2.892433e-03,-3.046720e-04
1403538168600239,1403538168537738,2.750687e-01,-3.934447e-03,-1.580922e-02,-1.613944e-04,2.963988e-03,1.330163e-04
1403538168662740,1403538168600239,2.768873e-01,-4.228297e-03,-1.421062e-02,-7.023201e-04,1.719736e-03,3.307802e-04
1403538168725241,1403538168662740,2.787650e-01,-3.939200e-03,-1.440671e-02,-3.852405e-04,1.717562e-04,2.767590e-04
1403538168787744,1403538168725241,2.794470e-01,-1.248525e-03,-1.486431e-02,1.046581e-03,-2.871138e-05,-1.065646e-04
1403538168850243,1403538168787744,2.781786e-01,1.515771e-05,-1.601058e-02,1.826589e-03,8.470638e-04,-5.523057e-04
1403538168912743,1403538168850243,2.793133e-01,2.236328e-03,-1.600292e-02,2.982810e-03,-2.548001e-04,-7.453359e-04
1403538168975245,1403538168912743,2.794488e-01,3.516950e-03,-1.650567e-02,3.411519e-03,-1.791550e-03,-4.684625e-04
1403538169037745,1403538168975245,2.757876e-01,8.404448e-05,-1.830474e-02,9.981114e-04,-1.438698e-03,2.707152e-04
1403538169100247,1403538169037745,2.771424e-01,-2.599985e-03,-1.789552e-02,-6.708649e-04,-8.663409e-05,7.275299e-04
1403538169162748,1403538169100247,2.751026e-01,-4.889513e-03,-1.886901e-02,-1.855256e-03,8.003665e-04,6.240021e-04
1403538169225247,1403538169162748,2.747561e-01,-5.309050e-03,-1.793494e-02,-1.610411e-03,1.266644e-03,1.259323e-05
1403538169287748,1403538169225247,2.745435e-01,-4.938026e-03,-1.754881e-02,-1.925722e-03,8.471670e-04,-4.881548e-04
1403538169350248,1403538169287748,2.759790e-01,-3.468648e-03,-1.464973e-02,-1.349004e-03,3.034214e-04,-5.975893e-04
1403538169412749,1403538169350248,2.789025e-01,-2.387724e-03,-1.473239e-02,-1.491138e-04,-9.460653e-04,-3.734620e-04
1403538169475249,1403538169412749,2.808546e-01,-1.232911e-03,-1.433584e-02,2.633006e-05,-1.315095e-03,-1.191955e-04
1403538169537749,1403538169475249,2.797810e-01,-6.572807e-04,-1.438791e-02,1.038163e-03,-5.893130e-04,-1.770514e-05
1403538169600250,1403538169537749,2.817322e-01,-2.028574e-04,-1.435005e-02,1.229404e-03,-7.542523e-04,-3.373492e-04
1403538169662750,1403538169600250,2.810030e-01,-7.774391e-04,-1.536853e-02,8.078455e-04,-1.672435e-03,-2.923477e-04
1403538169725250,1403538169662750,2.830095e-01,-1.346359e-03,-1.687361e-02,-1.383487e-04,-1.519930e-03,-1.284618e-04
1403538169787752,1403538169725250,2.807812e-01,-2.882523e-03,-1.748539e-02,-2.100122e-04,-9.539105e-04,1.046287e-04
1403538169850251,1403538169787752,2.829903e-01,-1.290655e-03,-1.773283e-02,8.388966e-04,-1.471856e-03,1.895952e-04
1403538169912753,1403538169850251,2.846275e-01,-1.983626e-03,-1.762919e-02,-4.834458e-04,-1.150269e-03,6.561418e-05
1403538169975253,1403538169912753,2.835702e-01,-1.784304e-03,-1.728292e-02,-3.837971e-04,-2.656276e-04,1.482098e-04
1403538170037753,1403538169975253,2.846559e-01,-3.441029e-03,-1.580813e-02,-1.523532e-03,1.588792e-04,4.155727e-04
1403538170100255,1403538170037753,2.852228e-01,-2.668798e-03,-1.586717e-02,1.873029e-04,4.569651e-04,5.218241e-04
1403538170162756,1403538170100255,2.848690e-01,-2.536520e-04,-1.628849e-02,1.052800e-03,3.414156e-04,4.818626e-04
1403538170225257,1403538170162756,2.883084e-01,-1.720007e-03,-1.413643e-02,-1.646570e-03,5.449312e-04,5.582595e-04
1403538170287759,1403538170225257,2.878987e-01,-3.643582e-03,-1.449629e-02,-1.376490e-03,3.283028e-05,3.986821e-04
1403538170350258,1403538170287759,2.914347e-01,-1.095507e-03,-1.552397e-02,4.133115e-04,-8.878009e-04,3.370820e-04
1403538170412758,1403538170350258,2.902939e-01,-2.232085e-03,-1.675693e-02,-1.127832e-03,-9.124064e-04,3.866010e-04
1403538170475261,1403538170412758,2.890293e-01,-1.336223e-03,-1.859506e-02,-7.333931e-04,1.505389e-04,3.043127e-04
1403538170537760,1403538170475261,2.888753e-01,4.185596e-05,-1.910025e-02,1.215198e-03,1.177157e-04,3.751154e-04
1403538170600261,1403538170537760,2.907312e-01,1.294425e-04,-1.752082e-02,5.611186e-04,5.462569e-06,4.919064e-04
1403538170662763,1403538170600261,2.896273e-01,-5.219474e-04,-1.913373e-02,5.281010e-04,1.062242e-05,4.086448e-04
1403538170725265,1403538170662763,2.904525e-01,2.202392e-03,-1.886664e-02,3.385139e-03,2.370474e-04,1.078852e-04
1403538170787764,1403538170725265,2.904325e-01,8.237487e-04,-1.773069e-02,6.874329e-04,2.307170e-04,4.489372e-04
1403538170850264,1403538170787764,2.947474e-01,-5.645265e-04,-1.677488e-02,-1.021305e-03,2.217840e-04,9.950560e-04
1403538170912765,1403538170850264,2.966203e-01,3.170187e-05,-1.629091e-02,1.020540e-03,7.589731e-04,1.179174e-03
1403538170975281,1403538170912765,2.929742e-01,-1.073776e-03,-1.671730e-02,-2.957262e-04,1.095591e-03,1.028967e-03
1403538171037767,1403538170975281,2.943868e-01,-2.549529e-03,-1.694907e-02,-1.167805e-03,1.286281e-04,6.970370e-04
1403538171100268,1403538171037767,2.960466e-01,-1.484096e-03,-1.757959e-02,1.104767e-04,-7.570392e-04,3.200118e-04
1403538171162769,1403538171100268,2.980371e-01,6.151076e-04,-1.664126e-02,2.030215e-03,-6.632293e-04,1.988299e-04
1403538171225270,1403538171162769,2.981732e-01,1.633846e-03,-1.726975e-02,1.267130e-03,-9.730854e-04,5.660018e-04
1403538171287771,1403538171225270,2.993243e-01,1.176143e-03,-1.690201e-02,1.469788e-03,-1.680077e-03,8.504678e-04
1403538171350272,1403538171287771,2.989407e-01,1.624115e-03,-1.614137e-02,8.054146e-04,-1.112064e-03,6.774731e-04
1403538171412773,1403538171350272,2.955793e-01,-4.801727e-04,-1.712486e-02,5.644564e-04,-6.075636e-04,4.935607e-04
1403538171475273,1403538171412773,2.978822e-01,-4.433580e-04,-1.806073e-02,-2.407015e-04,3.411880e-04,2.771742e-04
1403538171537774,1403538171475273,2.978361e-01,-3.102957e-03,-1.935722e-02,-1.572302e-03,8.227966e-04,3.432868e-04
1403538171600275,1403538171537774,2.981487e-01,-2.399498e-03,-1.877810e-02,-1.189273e-03,9.463695e-04,4.901363e-04
1403538171662776,1403538171600275,2.989343e-01,-1.145373e-03,-1.827438e-02,7.043888e-05,-8.605613e-05,5.837478e-04
1403538171725277,1403538171662776,3.020820e-01,-5.689501e-04,-1.723366e-02,1.125415e-03,-5.945341e-04,4.497262e-04
1403538171787778,1403538171725277,3.040775e-01,4.703764e-04,-1.835052e-02,5.629538e-04,2.606884e-04,4.248994e-05
1403538171850278,1403538171787778,3.010983e-01,2.951941e-04,-1.737582e-02,1.124169e-03,1.466203e-03,-8.398508e-05
1403538171912780,1403538171850278,3.008648e-01,1.086920e-03,-1.659519e-02,9.128111e-04,1.355414e-03,-8.075378e-06
1403538171975283,1403538171912780,3.011983e-01,3.480929e-04,-1.666519e-02,1.242247e-03,7.435271e-04,1.789730e-04
1403538172037781,1403538171975283,3.029559e-01,-2.140029e-03,-1.715480e-02,-9.348207e-04,1.876950e-04,5.284503e-04
1403538172100283,1403538172037781,3.029391e-01,-3.395013e-03,-1.695891e-02,-2.217356e-03,-7.032906e-04,6.601399e-04
1403538172162783,1403538172100283,3.030884e-01,-4.081146e-03,-1.729086e-02,-1.430895e-03,-1.122648e-03,5.949661e-04
1403538172225284,1403538172162783,3.030301e-01,-3.201568e-03,-1.747521e-02,-2.224162e-04,-5.785818e-04,1.602649e-04
1403538172287785,1403538172225284,3.016785e-01,-1.385691e-03,-1.754765e-02,-2.514756e-04,5.582472e-04,-1.898727e-04
1403538172350285,1403538172287785,3.027022e-01,3.990593e-04,-1.687227e-02,6.838423e-04,1.329418e-04,2.147829e-05
1403538172412787,1403538172350285,3.034887e-01,1.709330e-03,-1.739693e-02,1.272066e-03,-8.169840e-04,5.145613e-04
1403538172475287,1403538172412787,3.011494e-01,-1.989161e-03,-1.730260e-02,-2.099174e-03,-5.679601e-04,1.279641e-03
1403538172537790,1403538172475287,3.015890e-01,-3.918203e-03,-1.766820e-02,-2.709274e-03,3.860831e-04,1.364424e-03
1403538172600288,1403538172537790,3.042189e-01,-2.278901e-03,-1.701889e-02,-9.464700e-04,3.080530e-04,1.080913e-03
1403538172662789,1403538172600288,3.029504e-01,-2.431483e-03,-1.752208e-02,-9.210330e-04,-2.196024e-04,7.758393e-04
1403538172725289,1403538172662789,3.020120e-01,-1.243801e-03,-1.693622e-02,-1.619976e-04,-5.878670e-04,4.749473e-04
1403538172787790,1403538172725289,3.019599e-01,1.726768e-03,-1.763723e-02,1.710340e-03,-1.010480e-04,3.650000e-04
1403538172850289,1403538172787790,3.034936e-01,3.407412e-03,-1.705996e-02,2.551893e-03,-8.518095e-04,6.075964e-04
1403538172912792,1403538172850289,3.048549e-01,2.862890e-03,-1.548098e-02,2.705873e-03,-2.672423e-03,5.889356e-04
1403538172975291,1403538172912792,3.084570e-01,3.676440e-03,-1.348673e-02,2.883116e-03,-3.791282e-03,4.661685e-04
1403538173037790,1403538172975291,3.067489e-01,1.851843e-03,-1.558608e-02,9.744133e-04,-2.613311e-03,9.503802e-04
1403538173100292,1403538173037790,3.023215e-01,-2.721613e-03,-2.162298e-02,-1.346132e-03,6.204491e-04,1.015865e-03
1403538173162791,1403538173100292,2.984107e-01,-5.013992e-03,-2.575669e-02,-1.431439e-03,3.793304e-03,4.843147e-04
1403538173225292,1403538173162791,2.982332e-01,-6.178132e-03,-2.641796e-02,-2.546489e-03,4.731457e-03,2.130459e-04
1403538173287795,1403538173225292,2.981306e-01,-4.352469e-03,-2.485086e-02,-1.998231e-03,3.911260e-03,2.182973e-04
1403538173350293,1403538173287795,3.020681e-01,-1.114343e-03,-2.078779e-02,4.818977e-04,1.827000e-03,3.652511e-04
1403538173412792,1403538173350293,3.031864e-01,2.101961e-03,-1.778292e-02,3.036354e-03,3.765942e-04,2.169658e-04
1403538173475294,1403538173412792,3.042208e-01,4.900620e-04,-1.374821e-02,1.390405e-03,1.336024e-03,3.496012e-04
1403538173537794,1403538173475294,3.019627e-01,-2.965916e-03,-1.177912e-02,-1.873761e-03,3.604799e-03,3.935682e-04
1403538173600294,1403538173537794,3.013087e-01,-3.324917e-03,-1.226250e-02,-2.053059e-03,2.692507e-03,-1.598736e-05
1403538173662795,1403538173600294,3.041363e-01,-1.860557e-03,-1.441732e-02,-6.328932e-04,-3.914035e-04,2.646128e-04
1403538173725296,1403538173662795,3.077119e-01,-3.362250e-03,-1.738585e-02,-1.199624e-03,-2.012650e-03,7.978329e-04
1403538173787795,1403538173725296,3.104092e-01,-4.666759e-03,-1.970682e-02,-1.647950e-03,-2.660098e-03,7.221781e-04
1403538173850295,1403538173787795,3.083720e-01,-1.030362e-03,-2.128959e-02,2.203408e-04,-2.588071e-03,4.728433e-05
1403538173912796,1403538173850295,3.076579e-01,-1.711055e-04,-2.114218e-02,1.033439e-03,-1.856261e-03,-4.457615e-04
1403538173975296,1403538173912796,3.053154e-01,1.542430e-03,-1.961399e-02,1.593241e-03,-7.733013e-04,-4.176191e-04
1403538174037799,1403538173975296,3.086111e-01,-3.560943e-03,-1.838196e-02,-5.760460e-04,-1.877786e-04,4.783787e-04
1403538174100298,1403538174037799,3.084397e-01,-3.459744e-03,-1.552583e-02,-2.113779e-03,-6.005635e-04,1.136731e-03
1403538174162800,1403538174100298,3.116983e-01,-5.657951e-03,-1.461142e-02,-1.238882e-03,-8.571673e-04,1.262438e-03
1403538174225300,1403538174162800,3.116374e-01,-4.916826e-03,-1.552374e-02,-1.278151e-03,-8.895065e-04,2.449694e-04
1403538174287803,1403538174225300,3.120168e-01,-6.091993e-03,-1.589299e-02,-2.514653e-03,-2.094109e-03,-4.213146e-04
1403538174350302,1403538174287803,3.126486e-01,-3.267308e-03,-1.749322e-02,-5.121414e-04,-2.354779e-03,-8.083658e-04
1403538174412803,1403538174350302,3.105807e-01,-6.500019e-04,-2.097127e-02,1.133244e-03,-9.481955e-04,-5.993857e-04
1403538174475303,1403538174412803,3.095907e-01,-2.332212e-04,-2.286030e-02,1.089675e-03,7.310434e-04,4.830914e-05
1403538174537803,1403538174475303,3.082807e-01,-1.769291e-04,-2.195374e-02,1.162342e-03,1.727602e-03,2.234029e-04
1403538174600304,1403538174537803,3.124773e-01,-1.133353e-03,-1.958406e-02,2.844695e-04,7.107428e-04,7.833189e-05
1403538174662808,1403538174600304,3.130257e-01,-1.386372e-03,-1.719279e-02,3.762971e-04,-3.942015e-04,-3.603899e-04
1403538174725305,1403538174662808,3.122188e-01,1.243273e-03,-1.693771e-02,3.253346e-03,1.188998e-04,-6.888696e-04
1403538174787807,1403538174725305,3.124449e-01,-1.631540e-04,-1.729950e-02,1.985005e-03,7.739791e-04,-4.303621e-04
1403538174850308,1403538174787807,3.112753e-01,-7.114359e-04,-1.683306e-02,8.779100e-04,1.347017e-03,-1.452015e-04
1403538174912809,1403538174850308,3.137158e-01,1.922265e-03,-1.604639e-02,2.416076e-03,1.042922e-04,7.731036e-05
1403538174975309,1403538174912809,3.159756e-01,-8.738616e-04,-1.702529e-02,7.834825e-04,-1.445369e-03,2.015113e-04
1403538175037808,1403538174975309,3.169176e-01,-3.232176e-03,-1.847113e-02,-1.016344e-03,-1.906157e-03,-6.668001e-05
1403538175100309,1403538175037808,3.169186e-01,-3.151972e-03,-1.940305e-02,-4.916297e-04,-1.930447e-03,-5.144338e-04
1403538175162810,1403538175100309,3.162280e-01,-5.398208e-03,-1.895247e-02,-1.512405e-03,-1.124449e-03,-3.378822e-04
1403538175225311,1403538175162810,3.153360e-01,-2.182294e-03,-1.851124e-02,1.085473e-03,-1.150797e-03,-5.045091e-04
1403538175287827,1403538175225311,3.181705e-01,9.402560e-04,-1.804959e-02,3.345794e-03,-9.748250e-04,-4.061356e-04
1403538175350313,1403538175287827,3.167203e-01,4.282765e-03,-1.720553e-02,4.147443e-03,-1.594921e-03,-2.561634e-04
1403538175412813,1403538175350313,3.184185e-01,4.244130e-03,-1.777406e-02,4.350730e-03,-9.247741e-04,-2.190671e-04
1403538175475315,1403538175412813,3.149398e-01,2.948479e-03,-1.878054e-02,3.059829e-03,5.387219e-04,-4.391414e-04
1403538175537818,1403538175475315,3.166278e-01,-3.596019e-03,-2.071247e-02,-1.142981e-03,5.651673e-04,-1.402071e-04
1403538175600316,1403538175537818,3.141601e-01,-6.909272e-03,-2.045858e-02,-3.528003e-03,2.426256e-04,2.286604e-04
1403538175662820,1403538175600316,3.162358e-01,-8.092234e-03,-2.148885e-02,-3.117300e-03,9.165182e-04,4.071137e-04
1403538175725321,1403538175662820,3.144525e-01,-7.242714e-03,-2.066990e-02,-2.789340e-03,1.313257e-03,3.976901e-04
1403538175787819,1403538175725321,3.143438e-01,-4.092921e-03,-1.869124e-02,-5.663314e-04,1.212978e-03,-2.182696e-04
1403538175850334,1403538175787819,3.154516e-01,1.227925e-04,-1.764975e-02,1.711334e-03,3.975625e-04,-9.568244e-04
1403538175912821,1403538175850334,3.156654e-01,3.231603e-03,-1.680175e-02,4.078761e-03,8.210565e-04,-1.297410e-03
1403538175975322,1403538175912821,3.129098e-01,5.869316e-03,-1.745589e-02,5.155114e-03,6.037453e-04,-9.305284e-04
1403538176037823,1403538175975322,3.165593e-01,4.080007e-03,-1.770240e-02,3.893259e-03,6.308929e-05,7.631975e-05
1403538176100324,1403538176037823,3.167727e-01,-1.884085e-03,-1.811418e-02,-6.562084e-04,-4.564671e-04,9.608409e-04
1403538176162824,1403538176100324,3.159749e-01,-5.632007e-03,-1.934517e-02,-2.319409e-03,-5.434738e-04,1.002902e-03
1403538176225325,1403538176162824,3.166372e-01,-8.762453e-03,-2.085854e-02,-3.472429e-03,-2.598338e-04,4.488452e-04
1403538176287828,1403538176225325,3.126181e-01,-9.607315e-03,-2.262958e-02,-3.800896e-03,7.820913e-04,-4.230652e-04
1403538176350329,1403538176287828,3.147601e-01,-6.398408e-03,-2.195010e-02,-1.748735e-03,1.621952e-03,-7.879679e-04
1403538176412828,1403538176350329,3.155477e-01,-1.697717e-03,-1.969372e-02,1.031477e-03,1.204404e-03,-7.280912e-04
1403538176475329,1403538176412828,3.133629e-01,1.837785e-03,-1.887681e-02,3.238089e-03,6.776051e-04,-3.913384e-04
1403538176537830,1403538176475329,3.155317e-01,3.198600e-03,-1.724464e-02,3.012748e-03,8.608465e-04,-3.764225e-04
1403538176600334,1403538176537830,3.154702e-01,1.029630e-03,-1.725893e-02,1.524392e-03,6.937023e-04,-4.623320e-04
1403538176662831,1403538176600334,3.177618e-01,-2.596065e-03,-1.728883e-02,-9.889708e-04,4.532277e-04,-3.564617e-04
1403538176725333,1403538176662831,3.135458e-01,-6.170762e-03,-1.841854e-02,-2.215225e-03,3.976855e-04,-1.320990e-04
1403538176787834,1403538176725333,3.155713e-01,-6.590810e-03,-1.785143e-02,-1.649260e-03,-2.532445e-04,8.271762e-06
1403538176850334,1403538176787834,3.157528e-01,-4.888527e-03,-1.920953e-02,-1.479062e-03,-1.129113e-03,4.953014e-05
1403538176912837,1403538176850334,3.184519e-01,-4.439324e-03,-1.801666e-02,-1.300823e-03,-1.578039e-03,-1.146522e-04
1403538176975338,1403538176912837,3.182102e-01,-1.340187e-03,-1.669209e-02,1.682948e-03,-1.524875e-03,-5.634491e-04
1403538177037839,1403538176975338,3.165327e-01,1.817829e-03,-1.711643e-02,2.935352e-03,-1.451883e-03,-9.111037e-04
1403538177100338,1403538177037839,3.186238e-01,1.513587e-03,-1.818844e-02,2.771210e-03,-1.559123e-03,-6.201281e-04
1403538177162839,1403538177100338,3.173104e-01,1.486018e-03,-1.801647e-02,2.161104e-03,-1.263688e-03,-1.209174e-04
1403538177225340,1403538177162839,3.167693e-01,-2.761732e-03,-1.895271e-02,-1.124471e-03,-1.062827e-03,4.658765e-04
1403538177287841,1403538177225340,3.183041e-01,-6.342484e-03,-1.944364e-02,-2.663861e-03,-9.749223e-04,6.269360e-04
1403538177350342,1403538177287841,3.153329e-01,-6.371627e-03,-2.091644e-02,-2.494993e-03,-1.778314e-04,1.085893e-04
1403538177412843,1403538177350342,3.153979e-01,-6.468580e-03,-2.154201e-02,-2.336294e-03,6.224974e-04,-3.138397e-04
1403538177475343,1403538177412843,3.164883e-01,-6.264965e-03,-2.083886e-02,-1.812785e-03,1.211024e-03,-3.545691e-04
1403538177537846,1403538177475343,3.143127e-01,-2.384255e-03,-1.974083e-02,4.916611e-04,1.256485e-03,-3.877537e-04
1403538177600346,1403538177537846,3.167438e-01,-1.172180e-03,-1.898760e-02,7.021493e-04,1.162206e-03,-2.200611e-04
1403538177662846,1403538177600346,3.155855e-01,5.991049e-05,-1.892359e-02,2.004631e-03,1.160102e-03,-2.750285e-04
1403538177725347,1403538177662846,3.166991e-01,-1.118733e-04,-1.837632e-02,1.354985e-03,1.281948e-03,-2.770288e-04
1403538177787848,1403538177725347,3.167137e-01,-1.006881e-03,-1.976293e-02,8.798057e-04,1.884359e-03,-2.145690e-04
1403538177850349,1403538177787848,3.160637e-01,-3.698376e-03,-2.041331e-02,-8.520116e-04,1.948530e-03,5.732509e-05
1403538177912850,1403538177850349,3.173646e-01,-5.478685e-03,-1.926712e-02,-2.248583e-03,4.686894e-04,2.166591e-04
1403538177975351,1403538177912850,3.181651e-01,-6.884528e-03,-1.866785e-02,-2.651672e-03,-7.401727e-04,3.337013e-04
1403538178037851,1403538177975351,3.194280e-01,-7.235607e-03,-1.718017e-02,-2.042433e-03,-1.023866e-03,1.485851e-04
1403538178100353,1403538178037851,3.182798e-01,-4.053239e-03,-1.779478e-02,-8.461042e-06,-1.030982e-03,-1.511021e-04
1403538178162853,1403538178100353,3.153978e-01,-2.028047e-03,-1.854771e-02,9.539737e-04,-1.385579e-05,-3.818989e-04
1403538178225354,1403538178162853,3.157982e-01,-1.682863e-03,-1.880985e-02,8.900364e-04,6.115753e-04,-4.153130e-04
1403538178287855,1403538178225354,3.172251e-01,-6.406570e-04,-1.863722e-02,1.147620e-03,-5.690843e-04,-3.392321e-04
1403538178350355,1403538178287855,3.184294e-01,-7.379461e-04,-1.928880e-02,8.984848e-04,-1.838962e-03,-1.484608e-04
1403538178412856,1403538178350355,3.175155e-01,-1.453173e-03,-1.953202e-02,3.443877e-04,-2.035572e-03,1.704722e-04
1403538178475357,1403538178412856,3.163261e-01,-1.336472e-03,-2.030253e-02,6.456520e-04,-1.249169e-03,2.486618e-04
1403538178537860,1403538178475357,3.169814e-01,-2.988330e-03,-1.916539e-02,9.913227e-06,-1.082424e-04,1.961293e-04
1403538178600360,1403538178537860,3.180265e-01,-5.053891e-03,-1.926998e-02,-1.054916e-03,4.057162e-04,-8.100940e-05
1403538178662860,1403538178600360,3.164378e-01,-1.436107e-03,-1.897135e-02,9.441339e-04,-8.860722e-05,-5.930288e-04
1403538178725361,1403538178662860,3.148872e-01,-2.526048e-05,-1.940818e-02,1.988814e-03,-1.151901e-03,-4.545465e-04
1403538178787864,1403538178725361,3.172430e-01,-1.906186e-03,-1.820336e-02,3.595117e-04,-1.328234e-03,1.301574e-04
1403538178850364,1403538178787864,3.169140e-01,-9.606790e-04,-1.928330e-02,4.148881e-04,-3.027763e-04,3.126299e-04
1403538178912863,1403538178850364,3.124519e-01,-2.473014e-03,-2.139015e-02,1.089304e-04,7.475025e-04,2.215888e-04
1403538178975364,1403538178912863,3.132384e-01,-3.582632e-03,-2.055942e-02,-7.949847e-04,1.190142e-03,-4.048424e-05
1403538179037864,1403538178975364,3.144673e-01,-4.099578e-03,-2.013461e-02,-1.464372e-03,5.504524e-04,-3.586036e-04
1403538179100364,1403538179037864,3.147525e-01,-5.128749e-03,-1.894411e-02,-1.414264e-03,-1.928501e-04,-2.413677e-04
1403538179162864,1403538179100364,3.149858e-01,-3.264472e-03,-1.932500e-02,-3.152956e-04,-3.729360e-04,-4.856003e-05
1403538179287865,1403538179162864,6.367430e-01,-3.953421e-03,-3.240045e-02,1.320700e-03,-1.502339e-03,-3.843775e-05
1403538179350365,1403538179287865,3.137968e-01,-3.532123e-04,-1.733874e-02,6.636516e-04,-9.184049e-04,-2.624032e-04
1403538179412865,1403538179350365,3.168867e-01,-1.519072e-03,-1.776561e-02,1.599914e-04,-1.114017e-03,-2.384253e-04
1403538179475366,1403538179412865,3.157298e-01,-2.327210e-03,-1.896406e-02,-9.690450e-04,-1.394309e-03,3.421835e-06
1403538179600366,1403538179475366,6.343048e-01,-1.300518e-02,-4.104617e-02,-5.892307e-03,-6.793873e-04,9.715239e-04
1403538179662866,1403538179600366,3.144638e-01,-6.952292e-03,-2.055562e-02,-3.038422e-03,1.197803e-04,4.109573e-04
1403538179725368,1403538179662866,3.140962e-01,-4.401198e-03,-2.123190e-02,-4.077793e-05,3.222858e-04,-2.251443e-04
1403538179850368,1403538179725368,6.322473e-01,-4.167190e-03,-3.943098e-02,-1.731025e-04,3.343143e-03,-1.031637e-03
1403538179912868,1403538179850368,3.177614e-01,-8.177436e-04,-1.672321e-02,-3.415034e-05,1.148314e-03,1.089361e-04
1403538179975369,1403538179912868,3.182239e-01,-1.542197e-03,-1.623015e-02,-3.681399e-04,5.702274e-04,5.944289e-04
1403538180100368,1403538179975369,6.418764e-01,-2.742594e-03,-3.531378e-02,6.990628e-04,2.879177e-04,6.940585e-04
1403538180162869,1403538180100368,3.182952e-01,-3.006302e-03,-1.973706e-02,-4.630382e-04,3.118085e-04,1.701750e-04
1403538180225369,1403538180162869,3.197182e-01,-1.081640e-03,-1.965591e-02,3.992227e-04,-4.234736e-05,2.050917e-05
1403538180287870,1403538180225369,3.188159e-01,-1.051256e-03,-1.862889e-02,3.764399e-04,-9.343165e-04,1.103353e-04
1403538180350371,1403538180287870,3.185227e-01,-5.817404e-04,-2.033389e-02,-5.278933e-04,-3.933089e-04,2.965099e-04
1403538180412872,1403538180350371,3.174628e-01,-3.975713e-03,-1.949812e-02,-2.019372e-03,-2.621977e-04,7.718924e-04
1403538180475373,1403538180412872,3.186709e-01,-5.727222e-03,-1.947094e-02,-2.558382e-03,2.152493e-04,7.967127e-04
1403538180537874,1403538180475373,3.179145e-01,-3.127146e-03,-1.941227e-02,2.911332e-04,5.604673e-04,4.100571e-04
1403538180600374,1403538180537874,3.190134e-01,-1.274243e-03,-1.889330e-02,1.378274e-03,5.210880e-04,-7.594910e-05
1403538180662874,1403538180600374,3.183636e-01,-4.823221e-04,-2.028764e-02,2.396273e-04,1.376671e-04,-3.562474e-04
1403538180725375,1403538180662874,3.203069e-01,2.224990e-03,-2.080779e-02,1.905044e-03,3.408014e-04,-1.738829e-04
1403538180787876,1403538180725375,3.185078e-01,2.204121e-03,-2.201036e-02,2.116307e-03,1.302859e-03,2.243016e-04
1403538180850375,1403538180787876,3.193247e-01,-6.355615e-04,-1.907736e-02,-2.067678e-04,6.409479e-04,5.468412e-04
1403538180912876,1403538180850375,3.214482e-01,-1.776688e-03,-1.753419e-02,-6.791440e-04,-7.111228e-04,5.940202e-04
1403538180975376,1403538180912876,3.228086e-01,-3.974971e-03,-1.587111e-02,-4.398192e-04,-8.710400e-04,4.627159e-04
1403538181037877,1403538180975376,3.210777e-01,-4.612107e-03,-1.719883e-02,-1.240447e-03,-9.791033e-04,2.051353e-04
1403538181100377,1403538181037877,3.177021e-01,-3.381628e-03,-1.893038e-02,-9.358264e-05,-4.246164e-06,-3.195261e-05
1403538181162877,1403538181100377,3.205112e-01,-7.617281e-04,-1.856527e-02,1.554742e-03,5.618293e-04,2.218645e-05
1403538181225377,1403538181162877,3.225762e-01,4.129931e-04,-1.825256e-02,1.881938e-03,-2.284391e-04,2.533979e-04
1403538181287881,1403538181225377,3.205347e-01,1.043845e-04,-1.790688e-02,1.609304e-03,-1.561535e-03,1.145004e-04
1403538181350380,1403538181287881,3.235765e-01,2.164167e-04,-2.120643e-02,1.491439e-03,-1.509956e-03,1.067759e-05
1403538181412879,1403538181350380,3.193716e-01,-4.631681e-04,-2.133569e-02,5.750794e-04,-1.175682e-04,1.310649e-04
1403538181475380,1403538181412879,3.195371e-01,-2.410930e-03,-1.998397e-02,-5.693218e-04,7.309788e-04,2.887478e-04
1403538181537882,1403538181475380,3.201439e-01,-9.503334e-04,-1.741718e-02,6.797930e-04,4.199618e-04,2.437246e-04
1403538181600383,1403538181537882,3.206889e-01,-8.436492e-04,-1.579386e-02,7.576537e-04,2.600615e-05,1.479710e-04
1403538181662884,1403538181600383,3.188829e-01,-8.841668e-04,-1.778327e-02,1.769532e-03,-1.047804e-03,-9.520402e-05
1403538181725385,1403538181662884,3.220647e-01,-7.795459e-04,-1.647904e-02,8.932831e-04,-1.975506e-03,-3.732595e-04
1403538181787884,1403538181725385,3.216847e-01,-3.104595e-03,-1.672459e-02,-1.390762e-03,-1.730220e-03,-9.435777e-05
1403538181850387,1403538181787884,3.212345e-01,-3.606170e-03,-1.765652e-02,-1.668189e-03,-6.124194e-04,1.963935e-04
1403538181912886,1403538181850387,3.212115e-01,-2.475424e-03,-1.913324e-02,-6.739707e-04,-5.002325e-04,3.316099e-04
1403538181975387,1403538181912886,3.207202e-01,-4.585079e-03,-1.842675e-02,-1.276020e-03,-1.140819e-03,2.454003e-04
1403538182037888,1403538181975387,3.229409e-01,-5.025427e-03,-1.894895e-02,-2.079960e-03,-1.188483e-03,-7.889663e-05
1403538182100388,1403538182037888,3.220889e-01,-5.131996e-03,-1.975758e-02,-2.611039e-03,-6.547697e-04,-3.713262e-04
1403538182162889,1403538182100388,3.200010e-01,-4.397779e-03,-2.177666e-02,-1.316441e-03,1.101286e-03,-3.692061e-04
1403538182225390,1403538182162889,3.182221e-01,-3.182833e-04,-2.276822e-02,9.361096e-04,2.632902e-03,-1.607876e-04
1403538182287891,1403538182225390,3.185186e-01,-1.724834e-04,-2.230711e-02,7.991841e-04,3.573613e-03,2.665574e-04
1403538182350392,1403538182287891,3.189100e-01,-5.722020e-04,-2.127305e-02,9.608616e-04,3.242116e-03,5.469824e-04
1403538182412893,1403538182350392,3.193237e-01,-8.715735e-04,-2.105303e-02,8.927571e-04,2.392620e-03,4.065965e-04
1403538182475393,1403538182412893,3.187479e-01,-1.069403e-03,-1.982146e-02,1.279030e-03,2.325818e-03,-8.916510e-05
1403538182537894,1403538182475393,3.198023e-01,-2.444672e-03,-1.816572e-02,-4.109981e-05,1.870365e-03,-2.482171e-04
1403538182600396,1403538182537894,3.192346e-01,-2.416253e-03,-1.670296e-02,-1.862586e-04,1.830043e-03,2.799906e-04
1403538182662899,1403538182600396,3.186896e-01,-3.685290e-03,-1.712747e-02,-1.230758e-03,1.215384e-03,8.586273e-04
1403538182725397,1403538182662899,3.199722e-01,-2.179496e-03,-1.814160e-02,1.198845e-03,-3.221278e-04,6.693151e-04
1403538182787898,1403538182725397,3.219730e-01,-2.223606e-03,-1.674150e-02,6.691933e-04,-1.913227e-03,1.049347e-04
1403538182850399,1403538182787898,3.214732e-01,-2.347810e-03,-1.700987e-02,1.170300e-04,-2.710538e-03,-4.931063e-04
1403538182912900,1403538182850399,3.213656e-01,-5.085306e-04,-1.752173e-02,1.436636e-03,-3.089418e-03,-4.023440e-04
1403538182975403,1403538182912900,3.209605e-01,-6.118208e-04,-1.726569e-02,9.682654e-04,-3.441854e-03,-3.296032e-05
1403538183037902,1403538182975403,3.204599e-01,-1.696256e-03,-1.738294e-02,1.389190e-04,-2.881966e-03,4.298246e-04
1403538183100402,1403538183037902,3.200660e-01,-1.736703e-03,-1.788067e-02,3.985599e-04,-1.924158e-03,4.308815e-04
1403538183162904,1403538183100402,3.178019e-01,-3.334420e-03,-1.910401e-02,-7.113602e-04,-1.726274e-03,2.102226e-04
1403538183225405,1403538183162904,3.177577e-01,-3.079221e-03,-2.036967e-02,-4.855660e-04,-1.672167e-03,-1.819618e-04
1403538183287905,1403538183225405,3.181153e-01,-1.314713e-03,-2.147042e-02,1.228609e-03,-7.555974e-04,-4.634334e-04
1403538183350406,1403538183287905,3.172947e-01,-1.091307e-03,-2.197964e-02,2.965626e-04,4.148144e-04,-2.731878e-04
1403538183412907,1403538183350406,3.160791e-01,-1.738913e-04,-2.243267e-02,1.305795e-03,1.040579e-03,1.289398e-05
1403538183475409,1403538183412907,3.181580e-01,-2.311931e-04,-1.967768e-02,5.048839e-04,1.364793e-03,3.618560e-04
1403538183537909,1403538183475409,3.168318e-01,-3.249213e-03,-1.868026e-02,-1.513098e-03,1.652430e-03,5.051950e-04
1403538183600412,1403538183537909,3.178169e-01,-3.553558e-03,-1.815389e-02,-1.230390e-03,1.090414e-03,2.655496e-04
1403538183662912,1403538183600412,3.197365e-01,-4.749766e-03,-1.736586e-02,-9.452403e-04,6.557730e-04,5.623611e-05
1403538183725412,1403538183662912,3.185383e-01,-3.522279e-03,-1.743446e-02,-7.114518e-04,4.123120e-04,1.113358e-04
1403538183787913,1403538183725412,3.205522e-01,-2.364572e-03,-1.696058e-02,3.845133e-04,-1.533229e-04,1.991456e-04
1403538183850413,1403538183787913,3.198527e-01,-1.007333e-03,-1.698328e-02,8.536418e-04,-1.091401e-03,2.890299e-04
1403538183912916,1403538183850413,3.194221e-01,-2.948203e-03,-1.910574e-02,-3.776208e-04,-1.238808e-03,4.002865e-04
1403538183975415,1403538183912916,3.182086e-01,-4.236590e-03,-1.908642e-02,-1.314973e-03,-1.179107e-03,9.859452e-05
1403538184037916,1403538183975415,3.193147e-01,-5.252204e-03,-1.864640e-02,-1.777430e-03,-1.851160e-03,-5.815022e-05
1403538184100417,1403538184037916,3.184104e-01,-5.265653e-03,-1.935797e-02,-1.769455e-03,-1.170675e-03,-1.975945e-06
1403538184162921,1403538184100417,3.189266e-01,-5.244246e-03,-1.976421e-02,-2.290292e-03,-4.268903e-04,2.540327e-04
1403538184225419,1403538184162921,3.183575e-01,-8.364735e-03,-1.981013e-02,-4.994100e-03,-3.008200e-04,3.449227e-04
1403538184287920,1403538184225419,3.194909e-01,-7.498871e-03,-1.835250e-02,-3.688999e-03,-8.484422e-04,5.696311e-05
1403538184350419,1403538184287920,3.200380e-01,-3.630384e-03,-1.798370e-02,-1.596153e-04,-1.149868e-03,-4.834191e-04
1403538184412920,1403538184350419,3.197787e-01,-1.981038e-03,-1.831162e-02,5.220588e-04,-5.756537e-04,-7.145831e-04
1403538184475423,1403538184412920,3.180672e-01,-1.895403e-03,-2.013978e-02,-3.758208e-04,3.812602e-04,-6.573873e-05
1403538184537920,1403538184475423,3.168633e-01,-3.631329e-03,-2.122005e-02,-1.655033e-03,2.246527e-03,5.922768e-04
1403538184600420,1403538184537920,3.136845e-01,-2.865361e-03,-2.364040e-02,-2.302431e-04,4.039639e-03,5.310073e-04
1403538184662922,1403538184600420,3.140238e-01,-2.323980e-03,-2.455847e-02,1.408649e-03,4.446839e-03,5.418075e-05
1403538184725421,1403538184662922,3.127027e-01,-1.973048e-03,-2.284560e-02,1.578039e-04,3.047023e-03,1.128398e-04
1403538184787922,1403538184725421,3.173747e-01,-3.284474e-03,-2.013155e-02,-6.484790e-04,1.858681e-03,2.265454e-04
1403538184850423,1403538184787922,3.147272e-01,-1.443819e-03,-1.880469e-02,1.296443e-03,1.661793e-03,3.271390e-04
1403538184912923,1403538184850423,3.143709e-01,-1.524186e-03,-1.579723e-02,8.888655e-04,2.082799e-03,4.120219e-04
1403538184975423,1403538184912923,3.133339e-01,-1.494182e-03,-1.645314e-02,6.217820e-04,1.695869e-03,2.492502e-04
1403538185037924,1403538184975423,3.141773e-01,-2.384890e-03,-1.657863e-02,-7.815271e-06,1.478613e-03,2.867318e-04
1403538185100424,1403538185037924,3.151556e-01,-2.587319e-03,-1.707633e-02,3.213943e-04,2.697053e-04,2.592825e-04
1403538185162924,1403538185100424,3.153515e-01,-3.968503e-04,-1.879782e-02,1.153221e-03,-2.186629e-03,2.730913e-04
1403538185225424,1403538185162924,3.154903e-01,-5.462552e-04,-1.878231e-02,9.442525e-04,-3.313740e-03,-3.310579e-05
