source_timestamp,destination_timestamp,x,y,z,roll,pitch,yaw
1417176458055923,1417176457993430,-1.691725e-05,-1.634146e-05,-4.510626e-08,-3.597535e-07,8.696499e-07,1.263397e-06
1417176458118414,1417176458055923,-4.433132e-05,1.462847e-05,-2.210061e-05,1.844685e-07,6.423513e-07,-2.346825e-06
1417176458180903,1417176458118414,4.455428e-06,1.099177e-05,-5.564169e-07,3.164476e-06,2.439075e-06,-4.517910e-06
1417176458243393,1417176458180903,4.884858e-05,1.012429e-05,1.871760e-05,1.503726e-06,1.975857e-06,-2.690509e-06
1417176458305882,1417176458243393,7.497774e-06,1.124703e-06,2.903032e-06,-6.568845e-06,-2.955651e-06,7.451180e-07
1417176458368369,1417176458305882,3.425027e-06,3.040820e-06,7.049600e-07,-2.103884e-06,-1.080710e-06,1.907163e-06
1417176458430862,1417176458368369,9.271468e-06,8.793754e-06,6.954650e-06,-5.969883e-07,1.406172e-06,-5.266431e-06
1417176458493350,1417176458430862,4.634640e-05,3.902591e-06,2.438806e-05,-8.851359e-07,5.639428e-06,2.167645e-06
1417176458555840,1417176458493350,-3.907985e-14,-3.019807e-14,4.263257e-14,-1.665343e-16,9.436896e-16,1.110223e-15
1417176458618330,1417176458555840,2.713416e-05,3.556024e-05,9.025067e-06,-1.109712e-06,-2.167928e-06,-8.380869e-06
1417176458680820,1417176458618330,1.009451e-05,-5.763284e-05,2.354378e-05,2.029925e-06,1.548913e-06,8.733255e-06
1417176458743309,1417176458680820,-1.629334e-05,1.165714e-05,-4.416645e-06,-1.772640e-06,9.433574e-07,-2.721926e-06
1417176458805799,1417176458743309,-1.029187e-05,2.367020e-05,-5.088922e-06,1.860436e-06,6.008988e-07,-2.507823e-06
1417176458868291,1417176458805799,-1.421085e-14,-1.598721e-14,-1.332268e-14,8.326757e-17,-5.967447e-16,5.967448e-16
1417176458930779,1417176458868291,-3.689466e-05,1.403743e-06,-1.654828e-05,2.765477e-06,-4.819577e-06,-1.400574e-06
1417176458993280,1417176458930779,-2.762214e-05,3.900667e-05,-7.876052e-06,4.291775e-06,-7.332603e-07,-2.624603e-06
1417176459055757,1417176458993280,-3.229914e-05,-5.111187e-06,-7.903366e-06,-2.257980e-07,2.858266e-06,-1.653782e-06
1417176459118245,1417176459055757,3.463896e-14,1.551537e-14,1.532108e-14,2.373102e-15,1.387780e-16,-1.063386e-15
1417176459180736,1417176459118245,7.603408e-06,-7.064372e-06,2.891401e-06,8.828557e-06,-1.966602e-06,-3.511761e-06
1417176459243224,1417176459180736,4.609781e-06,1.299571e-05,-2.684598e-06,7.971032e-06,-4.648297e-06,-1.381959e-06
1417176459305715,1417176459243224,1.171814e-05,2.414881e-06,7.557916e-06,8.971587e-07,-1.898200e-06,6.983840e-07
1417176459368207,1417176459305715,-9.416609e-05,-4.893709e-05,-4.097492e-05,-3.903744e-06,-4.148292e-06,8.542014e-06
1417176459430695,1417176459368207,-1.377091e-04,-6.545394e-05,-5.372501e-05,-4.188613e-06,-4.228690e-06,2.351193e-06
1417176459493184,1417176459430695,-2.965442e-05,-1.031107e-05,-1.820436e-05,-4.032590e-06,-2.722369e-06,1.009855e-07
1417176459555673,1417176459493184,-5.736196e-06,-4.845159e-06,-4.381638e-06,1.032051e-05,-1.043513e-07,-2.391445e-07
1417176459618160,1417176459555673,9.179910e-06,2.426120e-06,-7.562879e-07,2.551677e-06,-2.008943e-06,3.553090e-08
1417176459680651,1417176459618160,5.842873e-05,4.437074e-05,1.312652e-05,2.288015e-06,6.376487e-07,-4.803095e-06
1417176459743141,1417176459680651,1.446297e-06,1.313609e-05,1.194372e-05,-4.937547e-06,5.151802e-06,-3.010763e-06
1417176459805631,1417176459743141,-3.913149e-05,2.530950e-05,-1.686960e-05,-1.869573e-06,-2.976055e-06,-3.704419e-06
1417176459868120,1417176459805631,-5.066116e-06,4.610688e-06,-1.174060e-06,4.966353e-06,-3.620517e-07,2.859515e-07
1417176459930607,1417176459868120,5.430544e-06,-4.277085e-06,2.862557e-06,-4.234410e-06,-4.736122e-06,8.894859e-07
1417176459993097,1417176459930607,4.793576e-05,9.757214e-06,2.388162e-05,-6.053189e-06,2.013550e-06,4.366511e-06
1417176460055588,1417176459993097,-2.174650e-05,7.499290e-06,3.071500e-06,6.263884e-06,3.345601e-06,-2.584471e-06
1417176460118077,1417176460055588,1.442733e-05,1.048645e-05,7.774974e-06,-4.704163e-06,2.657912e-06,-2.989737e-06
1417176460180569,1417176460118077,7.552919e-06,2.964984e-06,3.219283e-06,1.182894e-06,1.405503e-06,-1.334870e-07
1417176460243056,1417176460180569,2.172402e-05,1.239962e-07,3.086959e-06,-8.824912e-06,-3.114264e-06,6.835895e-08
1417176460305546,1417176460243056,7.325807e-06,6.648092e-06,3.828747e-06,-1.268816e-06,1.019177e-06,1.253406e-06
1417176460368035,1417176460305546,4.497706e-05,9.004257e-06,1.565584e-05,2.071058e-06,1.730425e-06,1.566730e-07
1417176460430524,1417176460368035,-1.171272e-05,9.118538e-06,-1.899684e-05,6.104307e-06,-1.276079e-06,1.149377e-06
1417176460493013,1417176460430524,-2.809305e-06,8.728029e-06,-2.789277e-05,-5.888521e-06,-5.216848e-06,-1.543558e-06
1417176460555503,1417176460493013,-3.793154e-05,-1.692537e-05,-1.062707e-05,-1.018702e-05,-3.025748e-07,-2.638386e-07
1417176460617993,1417176460555503,4.048252e-06,9.089017e-07,-1.090969e-06,5.067408e-06,-1.066354e-06,8.555437e-07
1417176460680483,1417176460617993,-3.225942e-05,-4.339689e-06,-9.359642e-06,-5.191648e-07,8.948321e-07,1.637876e-06
1417176460742973,1417176460680483,3.088334e-05,-7.789024e-06,9.065281e-06,-3.738104e-06,-3.920797e-07,3.427525e-06
1417176460805465,1417176460742973,-8.289246e-06,-5.490887e-06,-5.225258e-06,6.722840e-07,-2.156158e-06,-1.476634e-07
1417176460867954,1417176460805465,-1.696407e-05,-9.956989e-06,-3.946241e-06,-1.822408e-06,1.652574e-06,3.882528e-06
1417176460930444,1417176460867954,-2.049886e-06,1.141139e-05,-1.386047e-05,-3.420424e-06,-3.718604e-06,-3.812817e-06
1417176460992933,1417176460930444,1.157130e-05,1.804773e-05,-1.990560e-06,6.214555e-06,-1.331570e-06,-2.959123e-06
1417176461055423,1417176460992933,1.517994e-06,-7.035389e-06,3.792474e-06,-4.571154e-06,-1.829550e-06,-6.927831e-07
1417176461117911,1417176461055423,1.894158e-05,-3.075559e-05,1.390060e-06,-5.006894e-06,1.514339e-07,-7.473228e-07
1417176461180400,1417176461117911,2.720118e-05,-3.335515e-06,2.989639e-06,3.982389e-06,3.461683e-06,2.080756e-06
1417176461242889,1417176461180400,1.009572e-05,-1.116085e-06,7.461513e-06,-3.760999e-06,2.604407e-06,-2.991452e-07
1417176461305379,1417176461242889,-7.480018e-06,-2.461947e-05,9.299065e-06,-1.912947e-06,3.624553e-06,9.787506e-07
1417176461367869,1417176461305379,2.435655e-05,3.123199e-07,2.121041e-05,-4.044392e-06,1.209620e-06,-7.855920e-07
1417176461430361,1417176461367869,3.968444e-05,2.065974e-05,1.121221e-05,2.077593e-06,-1.051945e-06,-4.762076e-06
1417176461492850,1417176461430361,5.024588e-05,8.493793e-06,2.089666e-05,-1.632308e-07,7.311413e-06,1.260938e-06
1417176461555338,1417176461492850,3.391654e-05,-2.636663e-06,1.732376e-05,-2.062688e-06,1.110082e-06,-1.715764e-06
1417176461617828,1417176461555338,-3.053090e-05,1.075099e-05,-1.651918e-05,6.881946e-06,-2.942775e-06,-2.619716e-06
1417176461680317,1417176461617828,2.109497e-05,1.173832e-06,9.366409e-07,3.317411e-06,4.925786e-07,-1.248322e-06
1417176461742806,1417176461680317,-9.443666e-06,-3.917146e-06,-6.737659e-06,-3.788389e-06,-1.517598e-07,1.025656e-06
1417176461805296,1417176461742806,1.080513e-05,-1.753682e-05,4.224978e-06,-5.615877e-06,1.213224e-06,3.399538e-06
1417176461867785,1417176461805296,6.447318e-05,9.903825e-06,1.126268e-05,-1.136919e-05,-1.785708e-06,2.127975e-06
1417176461930276,1417176461867785,-1.115197e-11,1.057376e-11,-7.430057e-12,-1.554867e-13,-3.029799e-13,-1.866840e-13
1417176461992765,1417176461930276,-5.305533e-05,4.686894e-06,-3.086562e-05,1.366345e-05,-5.192772e-06,-5.461987e-06
1417176462055254,1417176461992765,-2.761790e-06,9.573386e-07,-3.933366e-06,-2.036565e-06,1.713926e-06,-1.294369e-07
1417176462117744,1417176462055254,-1.698852e-06,-2.499070e-06,5.918713e-06,7.329537e-06,1.978452e-06,5.938856e-06
1417176462180233,1417176462117744,-4.425739e-05,-2.075015e-05,-1.805437e-05,6.947430e-06,-1.063387e-06,7.940211e-07
1417176462242723,1417176462180233,1.207597e-05,7.652786e-06,-6.508254e-06,-1.264954e-05,-5.394557e-06,-1.449295e-06
1417176462305211,1417176462242723,1.934881e-06,2.958097e-07,-1.380787e-06,-1.316058e-06,-4.807439e-06,2.893730e-06
1417176462367702,1417176462305211,-1.321551e-04,3.682426e-05,-5.140918e-05,9.926583e-06,-4.270526e-06,-4.244879e-06
1417176462430191,1417176462367702,4.398917e-06,-2.064664e-06,4.374466e-06,2.565489e-07,9.584518e-07,1.002953e-06
1417176462492680,1417176462430191,-1.249067e-05,1.196985e-05,3.517835e-06,-1.235671e-06,2.496642e-06,-2.959751e-06
1417176462555168,1417176462492680,-1.410064e-04,2.872818e-06,-5.263234e-05,4.161189e-06,-3.714962e-06,6.265888e-07
1417176462617661,1417176462555168,-2.166736e-06,-8.541172e-06,-1.551587e-07,-1.073879e-05,-1.715927e-06,1.794685e-06
1417176462680148,1417176462617661,4.478323e-05,1.274134e-05,1.933981e-05,3.635941e-06,3.633040e-07,-2.105636e-06
1417176462742637,1417176462680148,-4.711243e-05,-5.621668e-06,-2.335931e-05,1.554143e-06,-2.898844e-06,-3.476010e-06
1417176462805126,1417176462742637,9.287395e-06,1.125158e-05,5.505309e-07,4.481087e-06,1.466376e-06,-1.670626e-07
1417176462867619,1417176462805126,6.572520e-13,-8.388845e-13,-6.417089e-14,-1.015299e-13,1.177183e-14,2.343611e-14
1417176462930108,1417176462867619,-6.121356e-05,3.703046e-05,-2.566831e-05,8.600326e-06,-3.974990e-06,-3.307834e-06
1417176463055098,1417176462930108,8.755232e-06,-1.542718e-05,1.291369e-05,1.149067e-06,3.960507e-06,3.729911e-06
1417176463117585,1417176463055098,-6.931409e-06,-5.421370e-06,3.319869e-06,-2.209369e-06,4.370245e-06,-2.416756e-06
1417176463180078,1417176463117585,-1.553136e-05,5.702975e-06,1.604802e-06,-3.574191e-06,-4.665151e-07,-5.923287e-07
1417176463242568,1417176463180078,1.497750e-06,-1.099868e-05,-1.342917e-06,1.282641e-06,-1.328850e-06,2.337050e-06
1417176463367556,1417176463242568,-7.945159e-05,-2.752531e-05,-3.912351e-05,2.275427e-06,-4.133384e-06,4.719228e-06
1417176463430045,1417176463367556,-4.606082e-05,1.081882e-05,-2.317836e-05,-2.098014e-06,-3.072648e-06,-2.266674e-06
1417176463492536,1417176463430045,5.685515e-06,-3.238912e-06,9.897409e-07,5.338192e-06,2.542892e-06,1.585158e-06
1417176463555026,1417176463492536,1.891965e-05,1.086734e-05,-4.943496e-06,-2.395984e-06,-1.954249e-06,-1.276222e-06
1417176463680014,1417176463555026,-4.656415e-05,-7.136156e-05,-1.703631e-05,-1.541702e-05,-3.265641e-06,1.046749e-05
1417176463742504,1417176463680014,-6.317336e-06,-6.028669e-06,-1.517109e-06,-2.800684e-06,1.360912e-07,1.808623e-06
1417176463804993,1417176463742504,-4.440892e-14,-4.174439e-14,-4.662938e-14,1.245531e-15,-4.468647e-15,1.346145e-15
1417176463867483,1417176463804993,5.193201e-05,2.264713e-05,1.207473e-06,-2.441150e-06,-2.353755e-06,-1.446048e-06
1417176463992470,1417176463867483,2.800786e-05,2.337955e-06,1.649140e-05,-9.010385e-06,3.034633e-07,-5.447433e-07
1417176464054962,1417176463992470,3.395627e-05,1.092127e-05,1.040794e-05,7.284665e-06,-1.324577e-06,8.650495e-07
1417176464117450,1417176464054962,1.185909e-05,9.567207e-06,4.284630e-06,1.290190e-05,1.579674e-06,1.604655e-07
1417176464179939,1417176464117450,1.248366e-05,-1.014358e-06,5.626977e-06,-9.902459e-07,8.398368e-07,-3.508905e-07
1417176464304932,1417176464179939,1.253076e-05,1.374347e-05,1.316629e-05,-4.180212e-06,6.012180e-07,-4.173706e-06
1417176464367419,1417176464304932,1.568592e-06,1.623971e-05,-1.600045e-05,3.618978e-06,-1.946289e-06,1.257553e-06
1417176464429911,1417176464367419,-1.148371e-05,-6.599101e-06,6.055946e-07,4.312256e-06,7.909777e-07,7.620398e-08
1417176464492400,1417176464429911,3.376279e-05,1.809026e-05,9.000220e-06,5.914449e-06,1.629137e-06,-3.663490e-06
1417176464554890,1417176464492400,-2.128720e-05,-1.677975e-06,-4.599065e-06,1.947447e-06,-1.160246e-06,-3.071815e-06
1417176464679878,1417176464554890,-4.078786e-05,9.987882e-07,-5.853824e-06,-1.339735e-06,2.881035e-06,1.427366e-06
1417176464742367,1417176464679878,7.956568e-05,3.373921e-05,4.471246e-05,-5.879906e-06,7.044011e-06,-2.086162e-06
1417176464804857,1417176464742367,9.128651e-05,-1.416411e-05,4.837479e-05,-7.283059e-06,3.400759e-06,4.112705e-06
1417176464867349,1417176464804857,-7.468527e-06,-2.240284e-05,-5.702489e-06,-4.050978e-06,-1.293051e-06,5.918201e-06
1417176464992339,1417176464867349,-2.769264e-05,1.084204e-05,-8.643220e-06,-2.643876e-07,-2.451996e-06,-5.832750e-06
1417176465054826,1417176464992339,-1.342727e-05,-2.621613e-06,-5.165885e-06,-4.640904e-06,-1.070387e-06,3.485326e-07
1417176465117316,1417176465054826,-1.444226e-05,-1.164794e-05,-6.296945e-06,1.866484e-06,-1.001867e-06,2.200365e-06
1417176465179807,1417176465117316,1.224987e-05,5.351939e-06,3.113630e-06,2.075943e-06,-2.378302e-06,-3.139499e-06
1417176465304797,1417176465179807,-4.032175e-05,-9.509713e-06,6.308917e-06,-3.740031e-06,8.705879e-06,5.429168e-06
1417176465367284,1417176465304797,5.832559e-05,2.525886e-05,2.545798e-05,1.945810e-06,9.733997e-06,-5.282073e-06
1417176465429775,1417176465367284,-9.574130e-06,-1.446776e-06,3.064438e-07,6.930452e-06,-2.677289e-06,-1.821588e-06
1417176465492264,1417176465429775,2.242064e-06,-5.648560e-06,-2.124343e-06,1.242651e-05,-7.370717e-06,4.630285e-06
1417176465617255,1417176465492264,-2.024638e-05,2.104739e-06,2.035917e-05,6.123950e-06,5.335011e-06,3.513630e-06
1417176465679747,1417176465617255,-2.726343e-05,-5.426820e-06,-4.914508e-06,-9.531370e-06,1.286965e-07,-2.690844e-06
1417176465742235,1417176465679747,-3.503618e-05,-1.339536e-05,-1.419694e-05,-6.958186e-06,-6.920916e-06,-1.735795e-06
1417176465804726,1417176465742235,5.137562e-05,1.700480e-05,1.216352e-06,-6.178276e-06,-5.386576e-06,-2.191623e-06
1417176465867212,1417176465804726,-3.942181e-05,2.207582e-05,-1.914184e-05,2.862493e-06,-9.422236e-07,-1.527138e-06
1417176465992203,1417176465867212,-5.342283e-05,-1.461292e-05,1.214389e-05,3.274397e-05,1.821492e-05,4.325718e-07
1417176466054694,1417176465992203,-8.912403e-06,3.762092e-06,9.136112e-06,7.438837e-07,-9.067125e-07,3.497956e-06
1417176466117183,1417176466054694,6.878579e-05,2.321859e-05,1.760601e-05,3.495858e-06,-9.218056e-06,-3.938456e-06
1417176466179672,1417176466117183,-1.770621e-05,-1.131278e-05,-1.623602e-05,-1.112304e-05,-5.544876e-06,3.156198e-06
1417176466304660,1417176466179672,1.677273e-05,8.806748e-06,9.292612e-06,-4.508337e-06,1.010743e-05,-1.001556e-06
1417176466367150,1417176466304660,2.768613e-05,7.554214e-06,1.230850e-05,4.523728e-06,1.390417e-06,1.482017e-06
1417176466429641,1417176466367150,-4.317849e-05,-8.609782e-07,-6.043905e-06,4.865672e-06,-4.652140e-06,7.955618e-07
1417176466492130,1417176466429641,-5.827936e-06,-4.484660e-05,7.492651e-06,1.252294e-06,6.103619e-08,9.032554e-06
1417176466554620,1417176466492130,-1.778321e-05,4.659692e-05,-8.691074e-07,3.883300e-06,-8.594457e-07,-7.958966e-06
1417176466679612,1417176466554620,5.028103e-06,5.178578e-06,1.517596e-06,5.016293e-06,4.708068e-06,-1.142540e-06
1417176466742102,1417176466679612,1.257950e-05,8.504978e-06,-7.367501e-06,-3.216882e-06,-4.518962e-06,-3.286599e-06
1417176466804591,1417176466742102,1.496963e-05,-7.759942e-06,1.163449e-05,-4.127158e-06,-1.238636e-06,9.796081e-07
1417176466867078,1417176466804591,-1.205482e-05,-3.491428e-06,-7.139860e-06,2.944670e-06,-1.249337e-06,-8.562846e-07
1417176466992068,1417176466867078,-1.280597e-05,-3.075901e-06,-3.353097e-06,-3.097684e-06,2.290602e-06,1.462023e-06
1417176467054559,1417176466992068,1.674037e-05,-1.532692e-05,1.765535e-05,-1.153202e-05,6.643901e-08,2.815698e-06
1417176467117047,1417176467054559,1.688909e-06,-6.980603e-06,-1.718067e-06,-6.565545e-06,-1.201656e-06,1.636482e-06
1417176467179537,1417176467117047,1.070038e-05,2.712542e-06,-2.298811e-06,-1.772113e-06,-1.046980e-06,-2.624325e-07
1417176467242026,1417176467179537,1.272920e-05,1.590699e-05,6.439989e-06,5.112562e-07,1.324549e-06,-4.771105e-06
1417176467367017,1417176467242026,-2.929973e-05,-4.440887e-07,-1.886253e-05,1.314753e-05,-2.660654e-06,-1.199024e-06
1417176467429519,1417176467367017,-2.702940e-05,-1.232094e-06,-1.212654e-05,1.671785e-07,-1.648097e-06,1.217030e-06
1417176467491995,1417176467429519,4.384199e-05,-2.935322e-05,1.270739e-05,-3.229362e-06,-6.407834e-08,2.439109e-06
1417176467554486,1417176467491995,4.665652e-05,-1.745958e-06,2.753537e-05,-3.026341e-06,1.920272e-06,4.367443e-06
1417176467679477,1417176467554486,1.279564e-05,2.287824e-05,1.563686e-05,-1.512882e-06,5.599920e-06,-6.490545e-06
1417176467741966,1417176467679477,-3.232501e-07,-1.179345e-05,-7.322166e-06,4.133020e-06,-7.468403e-06,1.274246e-06
1417176467804454,1417176467741966,8.831126e-06,7.455445e-06,3.997646e-06,-7.182506e-06,-7.137103e-07,1.767197e-06
1417176467866943,1417176467804454,7.160255e-06,-2.263928e-07,1.633082e-06,-3.740765e-06,-8.499541e-07,-1.083473e-06
1417176467991933,1417176467866943,1.323955e-05,2.009012e-05,7.009348e-06,-2.110099e-06,4.343427e-06,-5.638123e-06
1417176468054437,1417176467991933,-3.457790e-05,7.297356e-06,-1.580444e-05,5.132088e-06,-2.345361e-06,1.373743e-06
1417176468116912,1417176468054437,7.855850e-05,2.244794e-05,1.786665e-05,-1.010681e-06,-1.063682e-06,-4.171032e-07
1417176468179402,1417176468116912,6.276756e-05,-2.987843e-06,4.127112e-05,-1.800041e-06,4.004736e-06,-9.597356e-07
1417176468241893,1417176468179402,-1.575759e-05,-9.510154e-06,1.154930e-05,4.013358e-06,4.118265e-06,5.320134e-06
1417176468366884,1417176468241893,-1.371567e-05,-7.902863e-06,3.272997e-06,-6.646469e-06,1.827983e-06,-1.414026e-06
1417176468429371,1417176468366884,7.498747e-06,-4.396720e-06,1.820314e-06,-9.079472e-07,-3.163848e-07,3.621101e-06
1417176468491861,1417176468429371,4.813945e-05,2.096262e-05,7.979972e-06,-8.347594e-06,-7.114463e-07,-2.869232e-06
1417176468554348,1417176468491861,1.159594e-05,6.736411e-06,5.507629e-06,3.963595e-06,1.310595e-06,-1.048410e-08
1417176468679339,1417176468554348,-3.247848e-05,-8.421876e-06,-1.474677e-05,4.105075e-06,-2.943299e-06,1.731887e-06
1417176468741830,1417176468679339,-4.943311e-06,2.674042e-06,-2.246064e-07,2.626199e-06,2.972849e-07,-1.271064e-06
1417176468804319,1417176468741830,1.276328e-05,-1.647920e-06,2.768232e-06,3.492132e-06,-7.769421e-07,4.727402e-07
1417176468866809,1417176468804319,-2.720082e-05,-1.669242e-05,-1.645839e-05,-1.778448e-05,-3.849060e-06,6.095126e-07
1417176468991798,1417176468866809,-7.166715e-06,-2.627544e-06,-1.895929e-06,6.855609e-06,1.065751e-06,1.001978e-06
1417176469054287,1417176468991798,-2.158407e-07,2.432713e-05,-8.868633e-07,-2.796953e-06,-3.106611e-07,-4.929580e-06
1417176469116777,1417176469054287,-3.344880e-12,3.907985e-14,-1.258549e-12,-2.408906e-13,-2.486900e-14,9.241219e-14
1417176469179269,1417176469116777,-3.178741e-05,6.727166e-06,8.290474e-07,-3.647135e-06,1.317930e-06,-1.053447e-06
1417176469241756,1417176469179269,-8.526513e-14,-1.776357e-13,4.263256e-14,-1.179612e-15,5.828669e-16,1.547373e-15
1417176469366745,1417176469241756,6.217818e-06,-1.256340e-05,-2.362133e-05,4.840439e-06,-4.716104e-06,1.177495e-06
1417176469429236,1417176469366745,-8.159015e-07,8.653540e-06,9.672276e-06,1.010191e-05,-1.969898e-06,-8.172956e-07
1417176469491726,1417176469429236,-1.413638e-05,-9.114732e-06,-1.595210e-06,4.990412e-06,-6.182233e-06,7.659558e-06
1417176469554215,1417176469491726,-2.788880e-13,-2.775558e-13,4.263256e-13,4.579653e-16,2.309264e-14,1.962319e-14
1417176469679206,1417176469554215,2.187860e-05,-9.025510e-06,3.207343e-05,-1.736998e-05,2.342946e-05,-2.629426e-06
1417176469741695,1417176469679206,8.894624e-06,-1.759159e-06,-4.100236e-06,-1.330006e-05,-3.717831e-06,-3.366823e-06
1417176469804185,1417176469741695,-4.917995e-05,3.969936e-05,-2.808379e-05,-3.811358e-06,-1.494966e-05,-8.866586e-07
1417176469866673,1417176469804185,-1.399251e-05,7.320914e-06,-6.718770e-07,1.125986e-05,-4.737550e-06,2.791822e-06
1417176469991664,1417176469866673,-1.889950e-05,2.074521e-05,2.374693e-05,1.660431e-05,1.754943e-05,-4.458595e-06
1417176470054154,1417176469991664,9.731954e-06,-7.091218e-09,2.258887e-06,-6.318513e-06,-1.616678e-06,-2.141179e-06
1417176470116641,1417176470054154,-1.426939e-05,-5.017218e-06,-6.338695e-06,-5.118341e-06,-2.426641e-07,2.655446e-06
1417176470179131,1417176470116641,3.330301e-06,8.316520e-06,-1.473097e-06,-6.210035e-06,-1.070066e-06,-1.910326e-06
1417176470304121,1417176470179131,1.449463e-05,8.179885e-06,1.782498e-05,-9.817325e-07,1.027569e-05,-2.241084e-06
1417176470366613,1417176470304121,1.270333e-05,1.204022e-05,5.753541e-06,1.189014e-06,-2.668539e-07,2.730732e-06
1417176470429102,1417176470366613,-8.576938e-06,-1.482953e-05,-1.030663e-05,3.988536e-06,-3.250351e-06,3.587023e-06
1417176470491590,1417176470429102,6.042040e-07,8.810328e-06,-6.193701e-06,-1.831691e-06,-3.044703e-06,-2.181260e-06
1417176470616579,1417176470491590,4.041614e-06,-1.010407e-05,5.525726e-06,-3.931757e-06,1.746808e-06,2.096546e-06
1417176470679069,1417176470616579,2.148502e-05,1.481977e-05,3.983925e-06,-5.348485e-06,-1.608916e-06,-1.338725e-06
1417176470741560,1417176470679069,-5.997216e-05,-4.558207e-05,-5.277472e-06,-4.362757e-06,3.428624e-07,3.080624e-06
1417176470804051,1417176470741560,-1.062982e-05,-3.499781e-06,-1.940252e-06,6.447808e-06,2.378108e-06,-2.767474e-06
1417176470866541,1417176470804051,5.683058e-05,-1.316132e-05,3.673871e-05,-1.551966e-05,6.332616e-06,5.259994e-06
1417176470991529,1417176470866541,-7.403678e-06,1.302401e-05,1.334230e-05,5.445280e-06,6.827876e-06,-8.354723e-07
1417176471054017,1417176470991529,6.493786e-06,1.540293e-06,-9.163136e-06,1.790912e-06,3.871173e-07,-1.098610e-06
1417176471116507,1417176471054017,2.321035e-06,-1.587396e-05,-1.518164e-05,-4.202373e-07,-1.379290e-05,4.608496e-06
1417176471178999,1417176471116507,-2.708650e-05,-1.892126e-06,1.314113e-07,-1.346432e-05,5.926123e-07,-4.255027e-06
1417176471303988,1417176471178999,-2.650802e-05,2.534446e-06,1.601210e-05,-9.771919e-07,1.409192e-05,6.866133e-06
1417176471366479,1417176471303988,-2.175203e-05,2.285055e-05,-1.893547e-05,-1.411183e-06,-7.175049e-06,-3.383556e-06
1417176471428966,1417176471366479,-2.288653e-06,1.514263e-06,-1.304090e-06,-1.744508e-07,-3.312960e-06,-1.729424e-06
1417176471491456,1417176471428966,3.450470e-05,1.627272e-05,-5.210360e-06,1.770530e-05,1.700184e-06,3.136120e-06
1417176471553945,1417176471491456,-5.986956e-05,1.010096e-05,3.074015e-06,1.328498e-05,1.199505e-05,3.640611e-07
1417176471678935,1417176471553945,2.821332e-05,2.573628e-05,1.848888e-05,-3.239198e-06,3.626214e-06,-9.395941e-06
1417176471741426,1417176471678935,4.940400e-05,-6.832396e-06,-3.081714e-05,8.249880e-06,-3.502504e-05,2.936029e-06
1417176471803917,1417176471741426,2.949725e-05,9.696168e-06,1.603139e-05,-8.732372e-06,1.830180e-06,2.074823e-06
1417176471866404,1417176471803917,-1.351383e-05,5.261193e-05,3.701593e-05,3.179240e-05,3.662548e-05,-1.702600e-05
1417176471991396,1417176471866404,7.623319e-06,2.164781e-06,6.655289e-06,7.752850e-06,2.019097e-06,7.670418e-06
1417176472053882,1417176471991396,-3.577668e-05,-3.420576e-05,-2.899316e-05,2.335182e-06,-8.426100e-06,3.235108e-06
1417176472116375,1417176472053882,2.174335e-05,7.420434e-06,-2.062740e-05,-1.539730e-05,-2.139794e-05,-3.522154e-06
1417176472178865,1417176472116375,-1.373986e-05,-1.289680e-05,-1.496053e-05,-6.421581e-06,-7.930212e-06,-3.296767e-06
1417176472303854,1417176472178865,-2.090190e-05,-4.402306e-05,7.866906e-05,3.635350e-06,8.004638e-05,1.091140e-05
1417176472366347,1417176472303854,1.675530e-05,1.847808e-05,-6.852166e-06,2.700594e-05,-3.729738e-06,-1.743857e-06
1417176472428834,1417176472366347,8.899767e-06,-7.111486e-06,-1.028253e-05,-4.754761e-06,-1.647489e-05,3.016540e-06
1417176472491325,1417176472428834,-1.358049e-05,3.303315e-07,-1.133612e-05,-2.381026e-05,2.541550e-06,-8.988385e-06
1417176472553817,1417176472491325,1.125352e-04,-8.145811e-05,3.379514e-05,-9.066873e-05,1.929660e-07,1.582463e-06
1417176472678807,1417176472553817,-2.124089e-05,-2.139475e-05,-7.625122e-05,4.086788e-05,-6.293030e-05,1.424139e-05
1417176472741295,1417176472678807,-2.052719e-06,4.352818e-05,-1.354470e-05,8.171504e-05,2.754991e-05,4.851446e-07
1417176472803787,1417176472741295,-5.003982e-05,2.807786e-05,3.423624e-05,4.039849e-05,2.499325e-05,3.893973e-06
1417176472866274,1417176472803787,-4.052865e-06,-8.747746e-06,1.306403e-05,-2.379061e-05,-5.125895e-06,-5.552319e-06
1417176472991265,1417176472866274,2.393090e-05,-4.648802e-05,-5.127038e-06,-1.241656e-04,-3.306620e-05,-1.710787e-05
1417176473053756,1417176472991265,1.459200e-05,1.612942e-05,2.229773e-06,1.074008e-05,-6.965970e-06,4.362265e-06
1417176473116246,1417176473053756,-9.522415e-05,2.116685e-06,-4.480091e-05,5.343035e-05,-3.015922e-06,9.323688e-06
1417176473178737,1417176473116246,-6.906984e-05,7.375677e-05,9.610052e-06,1.045859e-04,2.614535e-05,-3.024155e-06
1417176473303725,1417176473178737,1.331991e-05,2.722373e-05,2.522982e-05,1.815902e-05,1.516153e-05,-2.529284e-06
1417176473366216,1417176473303725,3.343725e-05,-7.812136e-06,-1.154364e-05,-6.783841e-05,-2.180523e-05,-6.714764e-06
1417176473428707,1417176473366216,-1.426973e-05,-4.603326e-06,-2.093031e-05,-8.165943e-05,-3.018553e-05,-2.072318e-05
1417176473491197,1417176473428707,-1.306744e-06,-1.642694e-05,-9.577704e-06,-2.793700e-05,-8.420583e-06,-3.605718e-06
1417176473553689,1417176473491197,2.636174e-05,8.661625e-06,9.068425e-05,5.189209e-05,4.186105e-05,2.804589e-05
1417176473616180,1417176473553689,-3.909799e-05,5.367340e-07,-1.124320e-05,6.320497e-05,1.052470e-05,1.653238e-05
1417176473741167,1417176473616180,1.049526e-04,3.776096e-05,-6.715323e-05,5.576440e-05,-6.235641e-05,-1.593245e-05
1417176473803657,1417176473741167,1.302698e-06,-1.524160e-05,9.705415e-06,-4.484218e-05,1.815369e-05,-8.424773e-07
1417176473866149,1417176473803657,-4.259727e-05,-1.635610e-05,3.363323e-05,-7.754474e-05,3.177363e-05,-1.045904e-05
1417176473928639,1417176473866149,1.661864e-06,1.356248e-05,-4.068282e-07,8.744334e-07,-1.698603e-06,-5.486662e-06
1417176473991128,1417176473928639,8.040478e-06,-6.854930e-06,-2.037075e-05,2.441335e-05,-1.452188e-05,7.186633e-06
1417176474053619,1417176473991128,-4.461150e-05,-2.009749e-06,-2.885763e-05,4.211379e-05,-7.442055e-06,1.230027e-05
1417176474178607,1417176474053619,-6.927793e-14,-9.880987e-15,4.263256e-14,2.525756e-15,-2.012283e-16,-1.192623e-15
1417176474241098,1417176474178607,-5.933813e-06,-8.622153e-06,2.992060e-05,-2.415637e-05,1.535991e-05,-1.559220e-05
1417176474303586,1417176474241098,-6.040939e-05,1.538898e-05,-3.913216e-05,-2.175199e-05,-6.632052e-06,-2.176373e-06
1417176474366078,1417176474303586,-1.461777e-05,-5.714568e-06,-4.802133e-05,-1.054657e-05,-2.567856e-05,6.473657e-06
1417176474428568,1417176474366078,-3.916156e-05,-1.534249e-06,-1.746548e-05,5.258855e-06,-5.184756e-06,-7.998580e-08
1417176474491057,1417176474428568,2.491674e-05,3.981698e-05,8.589769e-06,3.852311e-05,2.090055e-05,-8.549589e-06
1417176474616047,1417176474491057,4.459905e-06,-1.892223e-05,1.531692e-05,5.055573e-06,3.253927e-06,9.033865e-06
1417176474678535,1417176474616047,-6.863173e-06,-2.037972e-05,-1.729942e-05,-1.956927e-05,-1.779898e-05,4.935384e-06
1417176474741026,1417176474678535,-1.781247e-05,-1.487837e-05,-3.030042e-05,-4.181635e-05,-1.455683e-05,-9.996283e-06
1417176474803514,1417176474741026,-9.076001e-06,-2.299685e-06,5.462935e-06,-3.960950e-06,6.562075e-06,-4.827200e-06
1417176474866005,1417176474803514,2.704219e-05,3.290897e-05,3.138739e-05,6.381418e-05,2.960678e-05,4.533236e-06
1417176474928496,1417176474866005,-4.862716e-05,-3.221636e-06,2.156049e-05,3.530670e-05,1.962785e-05,3.961838e-06
1417176475053485,1417176474928496,3.579711e-05,3.521420e-05,-1.168990e-04,4.527333e-05,-7.757983e-05,3.776392e-07
1417176475115974,1417176475053485,-1.866412e-05,-1.868305e-05,-5.815648e-06,-2.915928e-05,1.237814e-06,3.339592e-06
1417176475178466,1417176475115974,2.400659e-05,6.375115e-06,4.939201e-05,-5.626998e-05,3.464400e-05,-1.691226e-05
1417176475240954,1417176475178466,4.575789e-05,7.261486e-06,2.655053e-05,-6.955033e-06,9.609207e-06,-7.267396e-06
1417176475303444,1417176475240954,1.414628e-05,2.448564e-06,-1.854527e-05,1.099464e-05,-1.451083e-05,5.352427e-06
1417176475428434,1417176475303444,-3.917724e-05,-2.975440e-05,-4.323055e-05,6.965694e-05,-2.639245e-05,4.084566e-05
1417176475490924,1417176475428434,-2.842207e-06,-5.639862e-07,3.433181e-06,-5.166699e-06,3.051006e-06,-2.033777e-06
1417176475553412,1417176475490924,3.042660e-05,1.893210e-05,4.320092e-05,-8.096101e-05,1.697556e-05,-2.592105e-05
1417176475615902,1417176475553412,-1.506322e-05,2.678282e-05,1.083353e-05,-4.173426e-05,1.935380e-05,-1.312937e-05
1417176475678390,1417176475615902,7.817435e-06,4.093754e-06,5.437026e-06,8.582082e-06,-1.756182e-07,-9.550598e-07
1417176475803379,1417176475678390,4.667775e-05,1.557919e-05,-7.220285e-05,9.008038e-05,-5.154649e-05,1.869258e-05
1417176475865869,1417176475803379,-4.718500e-05,4.533415e-06,-3.919961e-06,2.484222e-05,1.320106e-05,3.753677e-07
1417176475928358,1417176475865869,-2.987757e-05,-7.656155e-06,3.591475e-06,-1.217886e-05,1.355527e-05,-1.202066e-06
1417176475990849,1417176475928358,-1.114825e-06,-1.123511e-05,2.903949e-06,-3.665615e-05,-9.710149e-06,-3.149046e-07
1417176476115838,1417176475990849,1.021588e-04,-9.650612e-05,-7.644580e-05,-8.554495e-05,-6.557215e-05,-1.297552e-05
1417176476178328,1417176476115838,-5.968091e-05,9.857719e-06,1.378054e-05,2.271942e-05,2.780795e-05,3.073884e-06
1417176476240815,1417176476178328,-6.855173e-05,1.474909e-05,1.464725e-05,4.298875e-05,2.727008e-05,6.802683e-06
1417176476303305,1417176476240815,2.877156e-05,6.572435e-05,7.868512e-06,3.906380e-05,-4.153767e-06,-4.813065e-06
1417176476365798,1417176476303305,6.616386e-05,4.379746e-05,4.205120e-06,1.430216e-05,-1.761572e-05,-9.745921e-06
1417176476490785,1417176476365798,7.046499e-05,-3.216158e-06,5.315110e-05,-5.956845e-05,1.404725e-05,-9.676200e-06
1417176476553277,1417176476490785,-7.534524e-05,-7.738879e-06,-4.823035e-06,-2.777911e-05,6.216890e-06,2.723554e-06
1417176476615766,1417176476553277,-3.111127e-05,-1.579656e-05,-3.818014e-05,-3.768960e-05,-1.695034e-05,-5.763488e-06
1417176476678255,1417176476615766,1.411669e-05,2.063499e-05,4.490621e-06,3.600506e-05,-2.135432e-06,1.633754e-06
1417176476803245,1417176476678255,-5.975382e-05,-8.156165e-06,-3.295812e-05,4.240007e-05,-3.950281e-06,1.386388e-05
1417176476865733,1417176476803245,-1.173120e-05,3.204244e-05,-5.333422e-06,2.568743e-05,3.140720e-06,-2.023931e-06
1417176476928223,1417176476865733,7.703486e-06,1.115662e-05,1.491519e-05,1.967570e-05,6.058811e-06,-5.954395e-06
1417176476990713,1417176476928223,-2.567902e-05,-2.988522e-05,-1.289614e-05,-4.347551e-05,-7.024107e-06,5.115350e-06
1417176477115704,1417176476990713,-4.293821e-05,-2.078095e-05,-3.257689e-05,2.174386e-06,-5.284284e-06,4.451078e-06
1417176477178194,1417176477115704,2.997227e-06,1.096043e-05,2.163723e-05,8.784608e-06,1.311506e-05,-6.648328e-06
1417176477240682,1417176477178194,6.441685e-06,1.218450e-05,3.902551e-06,1.473700e-05,1.714719e-06,4.472882e-08
1417176477303173,1417176477240682,-1.380241e-05,-9.582410e-06,-1.106221e-05,1.327510e-05,-1.081448e-05,6.284158e-06
1417176477428162,1417176477303173,-2.048055e-05,-3.896374e-05,-1.551894e-05,-4.086465e-05,-9.365980e-06,-6.220444e-06
1417176477490651,1417176477428162,1.490264e-05,1.345308e-06,1.082524e-05,-2.046716e-05,8.290439e-06,-3.824912e-06
1417176477553142,1417176477490651,-7.286214e-07,1.066547e-06,4.889244e-06,4.434817e-06,5.315842e-06,1.351923e-06
1417176477615630,1417176477553142,-7.659935e-05,-8.070631e-06,-4.192694e-05,8.831830e-06,-8.724952e-06,1.066715e-05
1417176477740619,1417176477615630,5.284766e-05,-5.546720e-06,-2.062602e-05,1.948585e-05,-3.058761e-05,-4.511572e-06
1417176477803111,1417176477740619,4.017225e-05,1.532721e-05,4.096975e-05,-9.742720e-07,2.092617e-05,-2.783593e-06
1417176477865601,1417176477803111,-1.438318e-05,-8.227277e-06,3.784686e-06,-5.580213e-07,1.038275e-05,4.677634e-07
1417176477928088,1417176477865601,-1.403551e-05,-1.181870e-05,-7.573524e-06,-6.086642e-06,-6.258030e-06,2.044752e-06
1417176477990579,1417176477928088,1.072534e-05,2.189324e-05,-8.467888e-06,2.128597e-05,-6.166081e-06,-4.124832e-06
1417176478115568,1417176477990579,-1.749530e-05,-2.375017e-05,9.839379e-07,-3.050081e-06,7.979418e-06,6.688517e-06
1417176478178059,1417176478115568,1.210807e-05,-2.044308e-05,1.317542e-05,-1.225036e-06,3.236398e-06,2.113252e-06
1417176478240550,1417176478178059,-1.454305e-05,5.553175e-06,-1.337812e-05,-4.351497e-06,-9.144329e-08,-4.595973e-06
1417176478303037,1417176478240550,-3.246452e-05,-9.107406e-06,-2.578245e-05,-6.076469e-06,-1.158193e-05,-9.510944e-07
1417176478428026,1417176478303037,-1.494228e-05,1.947749e-05,-5.079422e-06,5.090733e-06,-2.095420e-06,-9.437278e-07
1417176478490514,1417176478428026,2.252975e-05,1.109495e-05,1.860709e-05,-4.918097e-06,9.458889e-06,-3.080100e-06
1417176478553005,1417176478490514,-6.486889e-06,-1.915908e-06,-3.874144e-06,3.119074e-06,1.355830e-06,-1.155625e-06
1417176478615493,1417176478553005,1.991101e-05,-1.243806e-05,-5.961297e-06,-2.501606e-06,-8.874467e-06,2.102829e-06
1417176478677985,1417176478615493,-1.246965e-05,-1.020596e-05,-6.776543e-06,-2.579885e-06,-5.005914e-06,2.374993e-06
1417176478802974,1417176478677985,-1.560258e-05,2.057415e-05,-3.651504e-06,1.480173e-06,2.615296e-06,-5.202358e-06
1417176478865465,1417176478802974,-1.310243e-05,2.508253e-06,6.149692e-06,-1.883097e-06,5.688379e-06,-3.015200e-06
1417176478927954,1417176478865465,5.765912e-06,7.971943e-06,-2.310557e-06,9.941863e-06,-2.535242e-06,6.824027e-07
1417176478990444,1417176478927954,2.764097e-05,2.056096e-05,2.572494e-05,1.984963e-06,9.686784e-07,-1.333686e-06
1417176479115433,1417176478990444,-2.074391e-05,2.399751e-05,5.684734e-06,1.026979e-06,6.241416e-06,-7.491187e-06
1417176479177920,1417176479115433,6.556985e-05,-5.282800e-05,2.172334e-05,-7.910031e-06,3.061731e-06,7.578982e-06
1417176479240410,1417176479177920,1.785256e-05,-6.593479e-06,3.800210e-06,-3.103554e-06,-1.957286e-06,4.890270e-06
1417176479302902,1417176479240410,1.886034e-05,1.415604e-05,-1.190235e-07,9.461430e-06,-3.516641e-06,-1.400289e-06
1417176479427890,1417176479302902,2.571148e-06,-1.624468e-06,-5.576977e-06,3.441185e-06,-5.092820e-06,-4.663679e-06
1417176479490380,1417176479427890,-3.011282e-05,-1.861745e-05,2.596998e-06,-6.391961e-06,4.796211e-06,6.237164e-06
1417176479552869,1417176479490380,-3.063678e-05,-1.036712e-05,-1.563722e-05,5.062112e-06,-1.715327e-06,-7.978846e-07
1417176479615361,1417176479552869,4.989152e-06,-1.258976e-05,-8.307748e-06,-1.458996e-05,-5.692480e-06,-2.700212e-07
1417176479740351,1417176479615361,4.852695e-05,-3.068990e-05,2.036142e-05,-4.747902e-06,-8.360510e-07,6.483535e-06
1417176479802840,1417176479740351,9.708614e-05,2.300978e-05,4.712818e-05,1.164632e-06,8.400569e-06,-5.156342e-06
1417176479865327,1417176479802840,-8.748991e-06,3.528661e-05,-1.267032e-07,-1.731525e-06,4.493673e-07,-3.719612e-06
1417176479927818,1417176479865327,-5.128376e-06,1.521836e-06,-2.505664e-06,-1.997415e-06,-4.220213e-06,-2.649759e-06
1417176480052809,1417176479927818,2.639212e-05,-3.240101e-05,1.623419e-05,3.373052e-07,2.479641e-06,5.100463e-06
1417176480115297,1417176480052809,1.018756e-05,4.441984e-06,3.848709e-06,1.933748e-06,4.055611e-06,-3.013285e-06
1417176480177787,1417176480115297,-1.277936e-05,-1.320604e-05,-4.002914e-07,-1.019001e-06,-6.589589e-07,3.011029e-06
1417176480240276,1417176480177787,-7.247397e-05,-1.628442e-05,-3.132845e-05,4.516070e-06,-6.327751e-06,3.290069e-06
1417176480365265,1417176480240276,6.881511e-06,-2.449295e-06,-1.704997e-05,-1.617972e-05,-1.594676e-05,-4.763915e-06
1417176480427755,1417176480365265,3.540650e-06,-7.272043e-06,6.070785e-06,-1.748668e-05,4.661475e-06,-4.420571e-06
1417176480490246,1417176480427755,3.814296e-05,2.003559e-05,2.211493e-05,-3.173368e-06,5.862017e-06,-9.217192e-06
1417176480552734,1417176480490246,5.738351e-07,-6.814787e-05,-3.496804e-05,1.914906e-06,-6.025875e-06,8.951862e-06
1417176480615226,1417176480552734,-8.382596e-07,-2.620715e-06,-3.117644e-06,-5.245381e-06,-7.015680e-06,3.603603e-07
1417176480740216,1417176480615226,1.237589e-05,1.877756e-05,1.579409e-05,3.716954e-05,1.113704e-05,-3.140757e-06
1417176480802705,1417176480740216,-1.051399e-06,-1.506882e-05,1.921391e-05,-3.450979e-06,5.438911e-06,4.231080e-06
1417176480865195,1417176480802705,1.958119e-05,-1.671382e-05,-1.133591e-06,-2.798760e-06,-3.697213e-06,4.408969e-06
1417176480927684,1417176480865195,1.916219e-05,4.421417e-07,-2.013799e-05,-1.086203e-05,-1.036801e-05,-1.210638e-07
1417176481052672,1417176480927684,7.633442e-05,-5.303226e-05,3.347883e-05,-1.686753e-05,5.420708e-06,2.296490e-06
1417176481115164,1417176481052672,-2.502159e-05,-1.781249e-05,4.459927e-06,1.006660e-05,6.459597e-06,3.646266e-06
1417176481177654,1417176481115164,-2.736577e-05,5.563050e-06,-1.908608e-05,5.412566e-06,-3.929300e-06,6.197005e-06
1417176481240145,1417176481177654,1.646158e-05,3.273219e-06,3.966754e-06,1.310054e-05,-5.279439e-06,-1.858840e-06
1417176481365131,1417176481240145,8.218511e-06,3.660488e-06,-2.263334e-05,-3.621493e-05,-1.577918e-05,-9.976209e-06
1417176481427622,1417176481365131,1.266671e-05,1.957840e-06,1.580135e-05,-3.471493e-06,1.066889e-05,-2.462023e-08
1417176481490112,1417176481427622,2.661262e-05,1.202975e-05,1.928225e-05,4.899307e-06,1.048754e-05,-2.694048e-06
1417176481552603,1417176481490112,-2.082381e-07,1.222588e-05,7.351418e-06,6.139554e-08,-2.287486e-06,-3.146475e-06
1417176481677591,1417176481552603,1.212098e-05,1.105719e-05,-1.042137e-05,4.375424e-05,-2.246321e-05,-8.167058e-07
1417176481740081,1417176481677591,-1.066123e-05,1.964870e-06,-2.959701e-07,5.950856e-07,1.721904e-06,3.666529e-06
1417176481802570,1417176481740081,-7.095985e-07,1.382624e-05,9.741018e-06,-1.810557e-06,6.867173e-06,-2.335863e-06
1417176481865060,1417176481802570,-1.512421e-05,-3.870480e-06,5.960902e-06,6.413466e-07,1.439813e-05,-1.829544e-06
1417176481927549,1417176481865060,-3.302046e-05,2.799835e-05,-1.652115e-05,-1.135509e-06,-2.923774e-06,-2.332796e-06
1417176482052539,1417176481927549,-3.007124e-05,-5.670202e-05,-6.968086e-05,-3.608852e-05,-4.768098e-05,5.462980e-06
1417176482115028,1417176482052539,-1.178084e-04,-1.228881e-05,-3.856479e-05,1.457277e-05,5.822291e-06,-5.528110e-06
1417176482177518,1417176482115028,1.430198e-05,1.405491e-06,2.072060e-05,2.178136e-06,1.294052e-05,-3.202214e-06
1417176482240006,1417176482177518,3.195743e-05,1.701230e-05,1.194517e-05,2.903094e-06,1.226742e-06,-3.576183e-06
1417176482364997,1417176482240006,7.012497e-05,9.195613e-06,4.558020e-06,2.764244e-06,-2.749135e-05,3.563103e-06
1417176482427489,1417176482364997,-4.671325e-06,8.267235e-06,1.595762e-06,1.612711e-06,7.515954e-07,3.734402e-06
1417176482489978,1417176482427489,-3.371628e-05,-5.064972e-06,-1.539831e-05,3.241860e-06,3.122542e-06,-4.212926e-06
1417176482552469,1417176482489978,2.672230e-05,-2.903548e-05,3.503361e-05,-3.030873e-06,1.049030e-05,5.016654e-06
1417176482614961,1417176482552469,8.790256e-06,5.104142e-06,-3.459417e-06,1.266356e-06,-7.199692e-06,1.761229e-06
1417176482739949,1417176482614961,-4.327552e-06,-1.551700e-05,-6.389126e-06,-9.008139e-06,-1.357207e-05,1.068673e-05
1417176482802440,1417176482739949,-8.442308e-06,1.401888e-05,1.922812e-05,1.388437e-06,1.050874e-05,-4.476851e-06
1417176482864930,1417176482802440,-1.767389e-05,1.313883e-05,-1.079233e-05,4.424394e-06,1.004651e-06,-2.635862e-06
1417176482927421,1417176482864930,1.173334e-05,6.739350e-06,8.063992e-07,-8.973496e-06,-3.406998e-07,2.224465e-06
1417176483052410,1417176482927421,-1.792408e-05,5.375560e-06,-1.106972e-05,2.814259e-06,-1.493650e-05,5.450700e-06
1417176483114900,1417176483052410,-1.145757e-06,-4.045909e-06,5.279661e-06,-2.049988e-06,3.315042e-06,5.392809e-07
1417176483177388,1417176483114900,2.450255e-06,1.337072e-05,4.441761e-06,3.253486e-06,5.742613e-06,-3.014846e-06
1417176483239877,1417176483177388,-2.031469e-05,3.316169e-06,-6.160040e-06,-1.633437e-06,-4.638538e-07,-3.971566e-08
1417176483364866,1417176483239877,3.969056e-06,8.115663e-07,-1.516123e-05,-8.061680e-06,-7.875773e-06,-3.659932e-07
1417176483427356,1417176483364866,-4.414635e-06,6.333439e-06,-3.530856e-06,6.404205e-06,-2.446048e-06,-6.569927e-06
1417176483489847,1417176483427356,-7.808829e-05,-5.110032e-05,-2.940762e-05,-2.911090e-06,2.223058e-06,7.225662e-06
1417176483552337,1417176483489847,-3.074917e-05,-7.517081e-06,-1.241951e-05,7.099774e-06,1.719430e-06,-1.388452e-06
1417176483614826,1417176483552337,8.343154e-06,4.955944e-06,-1.964733e-06,3.906558e-06,-1.097151e-06,-2.929881e-06
1417176483677314,1417176483614826,-5.672290e-06,-6.997817e-06,-1.651534e-05,-1.675540e-05,-9.443420e-06,-1.720785e-07
1417176483802306,1417176483677314,-5.622372e-05,8.170289e-06,-8.667779e-06,8.088669e-06,5.089935e-06,-5.124053e-06
1417176483864795,1417176483802306,3.912772e-05,-1.892342e-05,1.639163e-05,2.213764e-06,2.052262e-06,3.302655e-06
1417176483927285,1417176483864795,-1.052449e-05,5.499080e-06,5.628058e-06,-4.754403e-06,5.321435e-07,-2.349920e-06
1417176483989775,1417176483927285,8.892160e-06,1.399696e-05,-8.128289e-06,-6.905589e-06,-4.604859e-06,-2.941380e-07
1417176484052262,1417176483989775,-3.088051e-05,-1.508663e-05,-1.242645e-05,4.880267e-06,-1.839997e-06,1.310066e-06
1417176484114753,1417176484052262,1.276939e-05,4.043516e-06,2.896161e-06,-9.356607e-06,-2.168954e-06,-8.352789e-08
1417176484239743,1417176484114753,-2.797717e-05,-3.432765e-06,-4.998550e-06,-9.987926e-06,8.574049e-06,-1.742939e-06
1417176484302232,1417176484239743,7.866647e-06,1.276258e-06,-2.000367e-06,-4.011282e-06,-1.772410e-06,1.945936e-06
1417176484364721,1417176484302232,-2.932696e-05,8.032435e-06,-1.977552e-05,5.555069e-06,-4.491210e-06,5.185737e-07
1417176484427213,1417176484364721,5.718222e-06,1.775654e-05,-2.413686e-06,-3.377124e-06,-1.576416e-06,-8.789692e-07
1417176484552203,1417176484427213,1.660814e-05,1.621097e-05,1.049522e-05,-3.124380e-06,3.964039e-06,-9.354975e-06
1417176484614691,1417176484552203,-8.302695e-06,-6.306128e-06,-6.413004e-06,-1.909799e-07,-3.027222e-06,3.580391e-06
1417176484677181,1417176484614691,2.246175e-05,-9.823530e-06,2.513828e-06,3.277940e-06,-1.333074e-06,5.284223e-06
1417176484739669,1417176484677181,-1.192878e-05,1.044750e-05,-1.268276e-05,5.987843e-06,-2.762577e-07,-6.134088e-06
1417176484864658,1417176484739669,-1.653019e-06,1.973116e-05,8.919973e-07,1.053652e-05,3.994307e-06,-4.078281e-06
1417176484927147,1417176484864658,1.533715e-05,-1.244240e-05,2.785846e-06,-3.862410e-06,-3.409321e-07,4.969877e-06
1417176484989639,1417176484927147,-1.984868e-05,1.181585e-06,-5.802897e-06,3.596507e-06,-2.907612e-06,-2.607096e-06
1417176485052126,1417176484989639,-2.297857e-05,2.122732e-05,-2.242742e-06,-5.302643e-07,-2.565613e-06,-4.860241e-06
1417176485177116,1417176485052126,-2.810001e-05,-5.701498e-06,-6.965371e-06,2.634225e-06,2.564398e-06,1.033644e-06
1417176485239605,1417176485177116,1.452464e-05,2.922202e-06,-5.651464e-07,-1.130585e-06,-3.520122e-06,3.065745e-06
1417176485302095,1417176485239605,-1.598798e-05,-3.107453e-06,-3.072120e-06,4.084228e-07,1.142566e-07,-8.559343e-07
1417176485364585,1417176485302095,2.800707e-05,4.648502e-05,1.289303e-05,-2.271858e-06,2.722762e-06,-7.072576e-06
1417176485427078,1417176485364585,-2.529896e-05,1.216935e-06,-1.043652e-05,-2.926386e-06,-6.123721e-07,-1.934513e-06
1417176485552066,1417176485427078,2.196447e-05,1.266277e-05,-2.046419e-06,-2.084262e-05,5.070874e-08,-2.081148e-06
1417176485614554,1417176485552066,-9.959839e-07,-1.656950e-05,-2.487466e-06,9.520599e-07,-2.994286e-06,6.552859e-07
1417176485677043,1417176485614554,1.200060e-05,3.067479e-06,3.173576e-06,-7.232390e-07,-2.359570e-07,8.931006e-07
1417176485739536,1417176485677043,-1.972126e-05,-1.039738e-05,-5.857059e-06,-7.546308e-06,-1.746574e-06,-7.594510e-07
1417176485864523,1417176485739536,-3.280606e-06,9.849732e-07,7.541479e-06,4.856018e-06,1.542008e-06,1.918751e-06
1417176485927013,1417176485864523,-1.221280e-05,4.557449e-05,-6.606561e-06,7.659736e-06,-3.056954e-06,-4.956549e-06
1417176485989502,1417176485927013,1.345143e-05,8.026731e-06,8.222071e-06,-9.495492e-06,5.861337e-07,1.033861e-06
1417176486114496,1417176485989502,-3.261655e-05,1.987415e-05,-9.792751e-06,4.459067e-06,1.729155e-06,-5.092120e-06
1417176486176982,1417176486114496,3.703732e-05,-1.259532e-05,1.195267e-05,2.116521e-06,1.982748e-06,3.995675e-06
1417176486239471,1417176486176982,-2.861955e-05,-1.101737e-05,1.198309e-06,9.331776e-06,-2.394390e-06,-6.253127e-07
1417176486301961,1417176486239471,-2.224753e-05,5.069362e-06,-2.591484e-05,4.259539e-06,-1.010957e-05,-1.811625e-06
1417176486364451,1417176486301961,6.721348e-05,2.709717e-05,3.523743e-05,-8.169567e-06,9.660887e-06,-2.645628e-06
1417176486489443,1417176486364451,2.548981e-05,2.604262e-06,1.194930e-06,2.829393e-06,-1.650382e-06,3.803269e-06
1417176486551931,1417176486489443,-3.106955e-05,-1.509755e-05,-2.375431e-05,2.201756e-06,-7.084000e-06,2.142027e-06
1417176486614421,1417176486551931,-2.930910e-05,-4.002753e-06,-1.812339e-05,1.433693e-06,-2.526788e-06,1.277766e-06
1417176486676910,1417176486614421,4.603203e-05,2.897480e-05,1.792686e-05,-3.714426e-07,-1.127634e-06,-7.014644e-06
1417176486801901,1417176486676910,-8.182336e-06,-3.807246e-06,-3.896713e-07,1.555957e-07,1.262364e-06,1.704878e-06
1417176486864388,1417176486801901,2.425636e-05,1.985123e-05,-1.845477e-06,8.466935e-06,-1.729160e-06,-3.859630e-06
1417176486926880,1417176486864388,4.945196e-05,-2.013373e-05,1.729771e-05,-2.698097e-06,4.332791e-07,7.235744e-07
1417176486989368,1417176486926880,6.749006e-05,2.231291e-05,2.278243e-05,-1.712069e-06,5.737947e-07,-2.125464e-06
1417176487051860,1417176486989368,-2.114027e-05,-1.765656e-05,3.000969e-06,-6.929871e-06,2.862478e-06,5.559177e-07
1417176487176847,1417176487051860,-3.112045e-05,-1.729270e-05,-2.143305e-05,7.885468e-07,-7.886100e-06,-2.512963e-06
1417176487239339,1417176487176847,2.062673e-05,-7.081551e-06,8.883241e-06,-3.514279e-06,2.094330e-06,4.488616e-06
1417176487301828,1417176487239339,-1.512241e-05,-1.009036e-05,-5.324283e-06,1.396531e-06,2.365268e-06,1.014003e-06
1417176487364319,1417176487301828,6.425747e-06,1.180591e-05,-9.708888e-07,2.835627e-06,-1.860190e-06,-4.171869e-06
1417176487489306,1417176487364319,-5.209767e-05,-1.422909e-05,-2.446335e-05,-7.192235e-06,5.325607e-07,6.117778e-06
1417176487551798,1417176487489306,6.170370e-06,-8.663828e-06,-4.108899e-07,-5.026258e-06,3.546326e-06,-2.394273e-06
1417176487614287,1417176487551798,-1.137423e-05,1.077667e-05,2.084444e-06,1.095970e-06,2.469628e-07,-8.262361e-06
1417176487676776,1417176487614287,1.522916e-05,1.379674e-07,4.080827e-06,-6.958107e-07,-2.774909e-06,4.558479e-06
1417176487739266,1417176487676776,-1.220675e-05,-3.143968e-06,1.686869e-06,3.860773e-06,-3.181703e-07,1.566072e-06
1417176487864255,1417176487739266,-1.968252e-06,-1.243617e-05,3.439498e-06,-1.370304e-05,-3.672629e-07,4.653330e-06
1417176487926745,1417176487864255,1.034515e-05,2.782696e-06,3.038474e-06,-9.974111e-07,-3.570514e-07,-3.577811e-06
1417176487989237,1417176487926745,1.283533e-05,5.528139e-06,-7.996045e-06,5.313399e-07,-4.150617e-06,1.777439e-06
1417176488051725,1417176487989237,1.836374e-05,1.242766e-05,8.425405e-06,-4.854974e-06,-1.446225e-06,-7.787356e-07
1417176488176715,1417176488051725,7.531117e-06,3.765781e-06,1.248092e-05,4.179842e-07,5.431642e-06,-4.180543e-06
1417176488239214,1417176488176715,1.122496e-05,2.091465e-05,4.770549e-06,2.442996e-06,-2.987780e-06,-5.086990e-06
1417176488301692,1417176488239214,-4.577511e-06,-3.059745e-05,6.576922e-06,-2.094349e-05,-2.028307e-06,8.490357e-06
1417176488364182,1417176488301692,2.775060e-07,8.280423e-07,-6.235408e-06,4.812720e-06,2.115014e-07,1.070622e-06
1417176488426684,1417176488364182,-1.034937e-05,5.894289e-08,-3.763317e-06,-1.114767e-05,1.655710e-06,-2.749587e-07
1417176488551661,1417176488426684,-1.460934e-05,-2.134265e-06,2.810860e-06,5.381005e-06,2.658498e-07,-1.320042e-06
1417176488614151,1417176488551661,1.115101e-05,-6.669596e-06,-1.256420e-06,-2.712478e-06,-3.132926e-06,3.829687e-06
1417176488676639,1417176488614151,3.280820e-05,1.961355e-05,9.476981e-06,2.749821e-06,6.955062e-07,-3.835788e-06
1417176488739129,1417176488676639,2.949496e-05,1.215082e-05,5.050960e-06,-3.670967e-06,-5.080175e-06,4.478162e-07
1417176488864118,1417176488739129,-5.841401e-05,8.956725e-06,-2.287279e-05,1.760295e-06,-4.502827e-06,-2.606372e-06
1417176488926607,1417176488864118,-2.230124e-05,-6.478909e-06,1.923188e-06,-4.610321e-06,-1.626405e-06,4.087513e-07
1417176488989098,1417176488926607,-1.663686e-05,1.513502e-06,3.511348e-06,-8.719927e-07,1.409951e-06,-8.117659e-07
1417176489051588,1417176488989098,4.164478e-05,-4.968694e-06,2.285180e-05,5.560590e-06,2.671434e-06,1.605475e-06
1417176489176577,1417176489051588,-3.705194e-06,8.868245e-07,3.091696e-06,-3.098552e-06,4.585325e-06,-3.641062e-06
1417176489239068,1417176489176577,1.151475e-04,3.156155e-05,3.791501e-05,-3.211114e-06,-2.364804e-06,-1.924904e-06
1417176489301556,1417176489239068,-6.314776e-05,-1.704114e-06,-2.437587e-05,-7.619872e-07,-5.636145e-06,-8.783205e-07
1417176489364057,1417176489301556,3.987363e-05,2.080224e-05,2.817110e-05,1.096237e-05,4.952124e-06,-6.597128e-06
1417176489489035,1417176489364057,9.284632e-06,6.167144e-06,2.530220e-06,4.834967e-06,1.945776e-06,1.709987e-06
1417176489551525,1417176489489035,1.840515e-05,3.242277e-06,3.416320e-06,2.899815e-06,-2.577712e-06,1.982973e-07
1417176489614015,1417176489551525,-8.324011e-06,8.347387e-06,-9.984139e-07,-1.129965e-06,-1.853665e-06,-5.224815e-07
1417176489676505,1417176489614015,-1.238430e-05,5.675797e-06,-3.743675e-06,-3.557475e-06,-1.084937e-06,1.040812e-06
1417176489801495,1417176489676505,5.512169e-05,-7.395194e-06,2.837357e-05,-5.636288e-07,4.928281e-06,2.156613e-06
1417176489863982,1417176489801495,-6.066713e-06,-7.817819e-06,-3.288993e-06,4.800300e-06,-5.514274e-07,7.373225e-07
1417176489926472,1417176489863982,-2.061884e-05,2.125318e-06,-1.441738e-06,1.556853e-06,2.350616e-06,-2.442907e-06
1417176489988960,1417176489926472,2.165471e-05,7.216764e-06,3.079679e-06,2.933590e-06,-1.465220e-06,2.629461e-06
1417176490113951,1417176489988960,-5.875404e-05,8.604596e-06,-1.926263e-05,2.251907e-07,-7.849637e-07,-3.865214e-06
1417176490176441,1417176490113951,-2.000690e-05,-2.502899e-05,-1.598389e-05,2.360297e-06,-7.871927e-07,2.251289e-06
1417176490238930,1417176490176441,-1.704259e-05,-1.560468e-05,-2.937530e-06,-7.497740e-06,-2.266182e-07,2.541200e-06
1417176490301420,1417176490238930,-6.544019e-06,-8.160635e-06,1.284828e-06,-6.524338e-06,2.014886e-07,1.407239e-06
1417176490426410,1417176490301420,1.240510e-05,3.381341e-05,2.083426e-06,1.462401e-05,2.552682e-06,-2.518511e-06
1417176490488900,1417176490426410,-5.627109e-05,-3.293260e-05,-1.694869e-05,2.911442e-06,-4.117618e-07,2.708245e-07
1417176490551389,1417176490488900,4.194398e-06,1.226786e-05,-5.850908e-07,6.522489e-06,1.327238e-07,-4.226302e-06
1417176490613879,1417176490551389,-1.624329e-05,-9.155953e-06,4.597307e-06,-2.362462e-07,5.287807e-07,2.620261e-06
1417176490738868,1417176490613879,-2.781727e-05,-7.042711e-06,-9.927903e-06,-1.302312e-05,-1.224019e-06,2.234118e-06
1417176490801357,1417176490738868,2.083881e-05,1.390535e-05,5.642382e-06,8.451918e-06,2.426232e-06,-9.146062e-07
1417176490863848,1417176490801357,-2.239599e-05,-7.213580e-06,5.873911e-06,-4.122855e-06,1.643700e-06,-3.538900e-07
1417176490926335,1417176490863848,1.237595e-05,1.350230e-05,-4.602512e-07,5.109547e-06,-2.103206e-07,-4.670926e-06
1417176490988827,1417176490926335,2.580088e-05,-1.859492e-06,2.827636e-06,-7.311533e-06,-1.682551e-06,2.449721e-06
1417176491113817,1417176490988827,-9.560033e-06,5.392896e-06,-1.252883e-05,2.313581e-06,-4.195144e-06,-3.263697e-06
1417176491176306,1417176491113817,3.522652e-06,1.515321e-06,8.366538e-06,-5.047379e-06,-3.584793e-07,-1.880483e-06
1417176491238796,1417176491176306,-3.938945e-05,-3.053170e-05,-1.333740e-05,-1.590299e-06,-3.267005e-07,4.325417e-06
1417176491363785,1417176491238796,3.123418e-05,3.265336e-06,1.277133e-05,-4.580355e-06,7.480049e-07,-2.133614e-06
1417176491426276,1417176491363785,-2.591963e-07,5.820734e-06,9.780565e-06,-4.772434e-06,4.255509e-06,-1.536910e-06
1417176491488764,1417176491426276,4.617811e-05,1.314250e-05,1.457748e-05,2.014114e-06,-4.415835e-07,-1.871495e-06
1417176491551254,1417176491488764,-6.329111e-05,-5.902009e-05,-2.966947e-05,1.787802e-06,-3.794413e-06,3.878023e-06
1417176491676245,1417176491551254,1.421084e-14,-2.131628e-14,6.439294e-15,2.498010e-16,2.775558e-16,4.371504e-16
1417176491738735,1417176491676245,5.773269e-05,1.661730e-05,1.010840e-05,-1.257369e-06,-2.142335e-06,-1.159891e-07
1417176491801223,1417176491738735,2.254359e-05,1.213207e-05,-1.255065e-06,8.358659e-07,-5.781769e-07,-1.106395e-06
1417176491863713,1417176491801223,2.428867e-05,3.559160e-06,2.966493e-05,-1.175239e-05,3.527983e-06,-1.248335e-07
1417176491926201,1417176491863713,1.703695e-05,1.191513e-05,3.232591e-06,1.191442e-05,1.724668e-06,-8.934773e-07
1417176492051193,1417176491926201,-2.797191e-07,5.022957e-07,1.234805e-05,4.013539e-07,3.396132e-06,-3.403240e-07
1417176492113682,1417176492051193,4.630546e-07,-4.434385e-06,-1.847786e-05,4.906905e-06,-2.555609e-06,-4.895754e-06
1417176492176172,1417176492113682,2.746653e-06,-1.519220e-05,-7.182377e-06,-9.288797e-06,-3.064939e-06,5.860216e-06
1417176492238661,1417176492176172,-6.503415e-06,1.678685e-05,-1.011608e-05,-3.352411e-06,-4.981860e-06,-4.543393e-06
1417176492363650,1417176492238661,4.123385e-06,2.697913e-06,4.315954e-06,-7.924943e-06,6.844132e-08,-1.147289e-06
1417176492426141,1417176492363650,-2.542053e-05,4.424524e-06,1.421875e-05,6.190173e-06,3.349631e-06,-3.820622e-07
1417176492488630,1417176492426141,-1.469932e-05,-9.663490e-06,5.154204e-06,-1.490697e-07,1.986584e-06,-7.623923e-07
1417176492551121,1417176492488630,-1.991802e-05,-2.723084e-07,-4.910199e-06,4.512877e-07,1.162368e-06,-1.235501e-06
1417176492613610,1417176492551121,8.897288e-06,3.851256e-06,-1.033246e-06,5.627972e-06,2.294255e-06,-4.659738e-07
1417176492738599,1417176492613610,-1.669773e-05,-1.586297e-05,-1.629219e-06,-1.426724e-05,-1.743638e-06,1.641757e-07
1417176492801089,1417176492738599,4.327882e-05,4.097945e-05,1.111990e-05,1.360715e-06,-3.555155e-07,-3.113522e-06
1417176492863579,1417176492801089,1.911029e-05,1.637738e-05,2.143317e-05,-1.062440e-06,-3.320781e-07,-2.548774e-06
1417176492926068,1417176492863579,-4.528606e-06,1.706504e-06,3.888231e-06,-5.544193e-07,1.052832e-07,3.683857e-08
1417176493051056,1417176492926068,7.682743e-13,5.428991e-13,4.529710e-14,1.465494e-14,-1.459943e-14,-3.631817e-14
1417176493113557,1417176493051056,-1.159360e-05,1.055875e-05,2.015769e-07,6.354339e-07,-5.325280e-07,-5.292432e-06
1417176493176035,1417176493113557,1.447251e-05,-1.877224e-05,5.871727e-06,-8.524641e-06,2.485617e-06,2.561765e-06
1417176493238526,1417176493176035,-5.903710e-06,6.891143e-06,2.191993e-06,1.011783e-06,7.672919e-07,-2.338590e-06
1417176493363516,1417176493238526,-1.120764e-05,-1.934218e-06,-5.415966e-06,-1.738198e-06,-1.994771e-07,1.452278e-06
1417176493426004,1417176493363516,-1.208627e-05,5.158901e-06,1.253985e-06,7.270997e-06,-3.425347e-06,4.057154e-08
1417176493488495,1417176493426004,3.881136e-05,1.247078e-05,-3.965045e-06,-7.933372e-06,-9.871748e-07,2.172062e-06
1417176493550986,1417176493488495,5.885485e-05,1.924025e-05,5.049663e-07,-1.848375e-06,-1.251906e-06,-1.835624e-06
1417176493613475,1417176493550986,-6.092796e-05,-3.489097e-05,-2.086178e-05,1.408576e-06,-1.849365e-06,1.987673e-06
1417176493738464,1417176493613475,1.924777e-05,1.555983e-05,3.713658e-06,5.855742e-06,7.400408e-07,-3.896903e-06
1417176493800966,1417176493738464,-8.286284e-06,1.033640e-05,-6.530789e-06,5.776958e-06,1.101902e-06,-2.693628e-06
1417176493863443,1417176493800966,-3.258948e-05,-3.734040e-07,-1.251685e-05,3.362573e-06,-3.231473e-06,2.143086e-06
1417176493925932,1417176493863443,-6.889323e-06,1.446521e-05,-1.344633e-06,-3.043790e-08,-1.218689e-06,-2.098914e-06
1417176494050922,1417176493925932,-7.744916e-13,7.873702e-13,4.152234e-14,8.183731e-14,8.246875e-15,-1.298961e-14
1417176494113413,1417176494050922,7.822607e-06,-3.272415e-07,-1.949996e-06,-1.143119e-05,-1.986192e-06,1.880865e-06
1417176494175903,1417176494113413,-1.440061e-06,1.286280e-06,-4.441399e-06,7.598659e-06,6.112451e-07,-1.873231e-06
1417176494238392,1417176494175903,-1.482173e-05,1.217368e-06,-2.162687e-06,5.729965e-06,-1.471242e-06,-1.068214e-06
1417176494300881,1417176494238392,-7.159734e-06,4.198322e-06,4.617418e-06,-4.027187e-06,5.267777e-07,3.499180e-06
1417176494425870,1417176494300881,3.222518e-05,1.930175e-05,1.788512e-05,6.337325e-06,2.284623e-07,-4.902751e-06
1417176494488361,1417176494425870,-5.376528e-05,-1.970087e-05,1.056907e-06,-2.456166e-07,1.045545e-06,7.323875e-07
1417176494550851,1417176494488361,-2.810802e-05,4.419867e-06,1.008486e-05,-5.610044e-06,1.945521e-06,-3.589716e-06
1417176494613343,1417176494550851,9.433456e-06,-1.773144e-06,2.725978e-06,3.508668e-06,1.933153e-06,1.509053e-06
1417176494738330,1417176494613343,-6.396282e-05,3.101381e-05,-2.048608e-05,-2.665548e-06,-8.295010e-06,-9.347745e-06
1417176494800822,1417176494738330,5.697504e-06,-1.821605e-05,-1.352129e-05,1.747811e-06,-1.093451e-07,4.546195e-06
1417176494863312,1417176494800822,7.563416e-06,6.119476e-06,7.499534e-06,3.341923e-06,7.963922e-07,-2.915852e-06
1417176494925799,1417176494863312,4.355398e-05,9.045999e-07,1.254931e-05,-1.966311e-05,-3.668124e-07,-1.140096e-06
1417176495050791,1417176494925799,-5.085755e-05,-1.790822e-05,-2.410642e-05,-3.096465e-06,-3.145059e-06,-1.018706e-06
1417176495113280,1417176495050791,-1.337164e-05,-5.701532e-06,-1.073970e-05,1.118703e-05,2.911411e-07,-1.404264e-06
1417176495175770,1417176495113280,3.351699e-05,4.122161e-06,1.509111e-05,-1.218395e-05,5.814470e-06,4.102815e-06
1417176495238259,1417176495175770,6.158190e-06,-7.065486e-06,1.453237e-05,-2.352302e-06,5.068268e-06,-2.916428e-06
1417176495300748,1417176495238259,-6.421652e-06,-4.586552e-06,-9.464585e-07,-4.681907e-06,2.767704e-07,-2.525269e-07
1417176495425738,1417176495300748,-5.566475e-05,-3.766329e-05,-1.823114e-05,-3.962223e-06,-9.017905e-09,2.220700e-06
1417176495488229,1417176495425738,7.313290e-05,3.780312e-05,8.711952e-06,-1.092466e-06,1.412897e-06,-1.397543e-06
1417176495550716,1417176495488229,-2.968117e-05,-1.777471e-05,-8.848146e-06,3.620512e-06,2.003572e-06,2.954366e-06
1417176495613206,1417176495550716,2.926442e-05,2.357884e-06,1.109516e-05,-9.857120e-07,2.268011e-06,1.386606e-06
1417176495738196,1417176495613206,-3.615692e-06,6.548204e-06,-4.146447e-06,-1.305582e-05,-3.965149e-06,-4.905119e-06
1417176495800688,1417176495738196,2.641885e-05,3.092611e-05,-1.691006e-06,4.496410e-07,1.651361e-06,-2.852184e-06
1417176495863175,1417176495800688,-2.564942e-06,-4.172559e-06,-2.105829e-06,2.778985e-06,1.252270e-07,3.356561e-07
1417176495925663,1417176495863175,2.126524e-05,6.909485e-06,8.863021e-06,7.348790e-06,6.103031e-07,-2.050384e-06
1417176495988157,1417176495925663,-3.845476e-06,7.519999e-06,-2.673489e-05,5.150810e-06,-4.041711e-06,-2.501668e-06
1417176496113147,1417176495988157,5.369215e-05,1.376537e-05,3.034050e-05,-6.398476e-06,2.849792e-06,-3.373520e-06
1417176496175636,1417176496113147,-4.266955e-05,6.902504e-06,-2.618142e-05,-2.482597e-06,-2.667378e-06,-9.703134e-07
1417176496238128,1417176496175636,3.679800e-06,-1.216303e-06,-6.481971e-06,-3.961384e-07,-2.828076e-06,-5.964439e-06
1417176496300615,1417176496238128,-2.025512e-05,1.814977e-05,-4.562760e-06,2.001366e-06,1.396138e-06,2.528295e-06
1417176496363105,1417176496300615,1.511372e-05,7.222425e-06,4.675438e-06,2.025927e-07,6.103388e-07,3.088275e-06
1417176496488098,1417176496363105,-1.509010e-05,2.663642e-05,4.753049e-06,2.163041e-06,-1.874077e-06,2.156305e-06
1417176496550588,1417176496488098,-8.982605e-06,-4.751698e-06,7.625766e-07,6.503302e-06,2.879578e-06,1.954920e-06
1417176496613077,1417176496550588,-3.238215e-05,-1.645954e-05,-1.581218e-05,-6.486856e-06,-2.696778e-06,1.441535e-06
1417176496675569,1417176496613077,2.092979e-05,-7.267546e-06,1.032853e-05,-4.580221e-06,6.042217e-07,2.860075e-06
1417176496800558,1417176496675569,2.532808e-06,1.579410e-05,-5.528148e-06,3.494314e-06,-1.947994e-06,-4.591490e-06
1417176496863049,1417176496800558,-2.337198e-05,7.237666e-06,7.942313e-06,2.760363e-06,1.512764e-06,3.134552e-07
