timestamp,ins_status,latitude,longitude,altitude,northing,easting,down,utm_zone,velocity_north,velocity_east,velocity_down,roll,pitch,yaw
1403537850763040,INS_SOLUTION_GOOD,51.765474,-1.258766,110.659817,5736388.378995,620156.025017,-110.659817,30U,0.002540,0.011453,0.002105,-0.072111,-0.006329,1.063058
1403537850791482,INS_SOLUTION_GOOD,51.765474,-1.258766,110.659774,5736388.379000,620156.025224,-110.659774,30U,0.002682,0.011341,0.002219,-0.072109,-0.006328,1.063064
1403537850803156,INS_SOLUTION_GOOD,51.765474,-1.258766,110.659729,5736388.379005,620156.025431,-110.659729,30U,0.002841,0.011293,0.002269,-0.072112,-0.006330,1.063066
1403537850823663,INS_SOLUTION_GOOD,51.765474,-1.258766,110.659685,5736388.379122,620156.025704,-110.659685,30U,0.002802,0.011275,0.002103,-0.072113,-0.006330,1.063071
1403537850843250,INS_SOLUTION_GOOD,51.765474,-1.258766,110.659646,5736388.379127,620156.025911,-110.659646,30U,0.002397,0.011172,0.001711,-0.072117,-0.006328,1.063075
1403537850863154,INS_SOLUTION_GOOD,51.765474,-1.258766,110.659611,5736388.379244,620156.026116,-110.659611,30U,0.002277,0.011250,0.001805,-0.072125,-0.006329,1.063075
1403537850886295,INS_SOLUTION_GOOD,51.765474,-1.258766,110.659574,5736388.379249,620156.026323,-110.659574,30U,0.001838,0.011457,0.001936,-0.072132,-0.006330,1.063072
1403537850903060,INS_SOLUTION_GOOD,51.765474,-1.258766,110.659534,5736388.379366,620156.026596,-110.659534,30U,0.001495,0.011583,0.002106,-0.072138,-0.006332,1.063069
1403537850923395,INS_SOLUTION_GOOD,51.765474,-1.258766,110.659493,5736388.379371,620156.026803,-110.659493,30U,0.001220,0.011716,0.001923,-0.072143,-0.006334,1.063063
1403537850943175,INS_SOLUTION_GOOD,51.765474,-1.258766,110.659455,5736388.379376,620156.027010,-110.659455,30U,0.001011,0.011618,0.001844,-0.072147,-0.006334,1.063057
1403537850963039,INS_SOLUTION_GOOD,51.765474,-1.258766,110.659415,5736388.379383,620156.027286,-110.659415,30U,0.001206,0.011516,0.002080,-0.072149,-0.006334,1.063053
1403537850991185,INS_SOLUTION_GOOD,51.765474,-1.258766,110.659372,5736388.379388,620156.027493,-110.659372,30U,0.001250,0.011415,0.002142,-0.072150,-0.006332,1.063050
1403537851005551,INS_SOLUTION_GOOD,51.765474,-1.258766,110.659330,5736388.379504,620156.027697,-110.659330,30U,0.001248,0.011481,0.001983,-0.072153,-0.006332,1.063046
1403537851023314,INS_SOLUTION_GOOD,51.765474,-1.258766,110.659293,5736388.379510,620156.027973,-110.659293,30U,0.001197,0.011492,0.001691,-0.072155,-0.006331,1.063049
1403537851043395,INS_SOLUTION_GOOD,51.765474,-1.258766,110.659262,5736388.379515,620156.028180,-110.659262,30U,0.001261,0.011514,0.001398,-0.072157,-0.006329,1.063054
1403537851063108,INS_SOLUTION_GOOD,51.765474,-1.258766,110.659233,5736388.379520,620156.028387,-110.659233,30U,0.001205,0.011462,0.001420,-0.072155,-0.006327,1.063059
1403537851086178,INS_SOLUTION_GOOD,51.765474,-1.258766,110.659202,5736388.379638,620156.028661,-110.659202,30U,0.001140,0.011528,0.001567,-0.072153,-0.006325,1.063063
1403537851103181,INS_SOLUTION_GOOD,51.765474,-1.258766,110.659173,5736388.379643,620156.028868,-110.659173,30U,0.001039,0.011690,0.001280,-0.072151,-0.006324,1.063066
1403537851123568,INS_SOLUTION_GOOD,51.765474,-1.258766,110.659151,5736388.379650,620156.029144,-110.659151,30U,0.000676,0.011752,0.000937,-0.072150,-0.006326,1.063071
1403537851143781,INS_SOLUTION_GOOD,51.765474,-1.258766,110.659134,5736388.379655,620156.029351,-110.659134,30U,0.000554,0.011795,0.000860,-0.072148,-0.006327,1.063069
1403537851163424,INS_SOLUTION_GOOD,51.765474,-1.258766,110.659116,5736388.379660,620156.029558,-110.659116,30U,0.000073,0.011869,0.000796,-0.072143,-0.006330,1.063068
1403537851192768,INS_SOLUTION_GOOD,51.765474,-1.258766,110.659101,5736388.379666,620156.029834,-110.659101,30U,0.000326,0.011851,0.000720,-0.072139,-0.006331,1.063062
1403537851204413,INS_SOLUTION_GOOD,51.765474,-1.258766,110.659088,5736388.379671,620156.030041,-110.659088,30U,0.000282,0.011660,0.000521,-0.072133,-0.006331,1.063057
1403537851224045,INS_SOLUTION_GOOD,51.765474,-1.258766,110.659075,5736388.379678,620156.030317,-110.659075,30U,0.000268,0.011826,0.000738,-0.072127,-0.006332,1.063051
1403537851243283,INS_SOLUTION_GOOD,51.765474,-1.258766,110.659055,5736388.379683,620156.030524,-110.659055,30U,0.000325,0.011789,0.001174,-0.072122,-0.006335,1.063047
1403537851262953,INS_SOLUTION_GOOD,51.765474,-1.258766,110.659027,5736388.379688,620156.030731,-110.659027,30U,0.000260,0.011597,0.001442,-0.072118,-0.006335,1.063047
1403537851286060,INS_SOLUTION_GOOD,51.765474,-1.258766,110.658999,5736388.379694,620156.031007,-110.658999,30U,0.000662,0.011350,0.001425,-0.072116,-0.006336,1.063047
1403537851303083,INS_SOLUTION_GOOD,51.765474,-1.258766,110.657496,5736388.375093,620156.024696,-110.657496,30U,0.000614,0.009571,0.001226,-0.072118,-0.006324,1.063025
1403537851323400,INS_SOLUTION_GOOD,51.765474,-1.258766,110.654619,5736388.371205,620156.029622,-110.654619,30U,0.000319,0.009614,0.001106,-0.072121,-0.006320,1.063011
1403537851343191,INS_SOLUTION_GOOD,51.765474,-1.258766,110.654595,5736388.371208,620156.029760,-110.654595,30U,0.000437,0.009421,0.001132,-0.072130,-0.006316,1.063015
1403537851363561,INS_SOLUTION_GOOD,51.765474,-1.258766,110.651730,5736388.367320,620156.034685,-110.651730,30U,0.000393,0.009495,0.000660,-0.072130,-0.006314,1.063005
1403537851391564,INS_SOLUTION_GOOD,51.765474,-1.258766,110.651716,5736388.367325,620156.034892,-110.651716,30U,0.000312,0.009668,0.000588,-0.072133,-0.006313,1.063007
1403537851403429,INS_SOLUTION_GOOD,51.765474,-1.258766,110.651705,5736388.367330,620156.035099,-110.651705,30U,0.000409,0.010115,0.000499,-0.072133,-0.006310,1.063010
1403537851423533,INS_SOLUTION_GOOD,51.765474,-1.258766,110.651684,5736388.367335,620156.035306,-110.651684,30U,0.000776,0.011285,0.001550,-0.072129,-0.006312,1.063014
1403537851443328,INS_SOLUTION_GOOD,51.765474,-1.258766,110.651634,5736388.367340,620156.035513,-110.651634,30U,0.000823,0.012024,0.003121,-0.072130,-0.006285,1.063010
1403537851463069,INS_SOLUTION_GOOD,51.765474,-1.258766,110.651576,5736388.367457,620156.035787,-110.651576,30U,0.000833,0.012673,0.002497,-0.072137,-0.006251,1.063003
1403537851486069,INS_SOLUTION_GOOD,51.765474,-1.258766,110.651535,5736388.367464,620156.036063,-110.651535,30U,0.000714,0.012506,0.001543,-0.072138,-0.006245,1.063000
1403537851503180,INS_SOLUTION_GOOD,51.765474,-1.258766,110.651504,5736388.367469,620156.036270,-110.651504,30U,0.000396,0.012339,0.001488,-0.072141,-0.006240,1.062996
1403537851523443,INS_SOLUTION_GOOD,51.765474,-1.258766,110.651473,5736388.367475,620156.036546,-110.651473,30U,-0.000185,0.011760,0.001521,-0.072147,-0.006235,1.062993
1403537851543181,INS_SOLUTION_GOOD,51.765474,-1.258766,110.651455,5736388.367480,620156.036753,-110.651455,30U,-0.000249,0.011346,0.000371,-0.072154,-0.006246,1.062993
1403537851563153,INS_SOLUTION_GOOD,51.765474,-1.258766,110.651448,5736388.367485,620156.036960,-110.651448,30U,-0.000488,0.010772,0.000282,-0.072153,-0.006272,1.062995
1403537851591488,INS_SOLUTION_GOOD,51.765474,-1.258766,110.651444,5736388.367490,620156.037167,-110.651444,30U,-0.000747,0.010284,0.000269,-0.072150,-0.006285,1.062997
1403537851603328,INS_SOLUTION_GOOD,51.765474,-1.258766,110.651435,5736388.367384,620156.037376,-110.651435,30U,-0.000654,0.010135,0.000635,-0.072145,-0.006287,1.063000
1403537851624195,INS_SOLUTION_GOOD,51.765474,-1.258766,110.651422,5736388.367389,620156.037583,-110.651422,30U,-0.000755,0.009809,0.000965,-0.072132,-0.006300,1.063004
1403537851643666,INS_SOLUTION_GOOD,51.765474,-1.258766,110.651394,5736388.367394,620156.037790,-110.651394,30U,-0.000853,0.009801,0.001715,-0.072127,-0.006294,1.063005
1403537851663074,INS_SOLUTION_GOOD,51.765474,-1.258766,110.651361,5736388.367399,620156.037997,-110.651361,30U,-0.000786,0.009834,0.001488,-0.072128,-0.006267,1.063004
1403537851686043,INS_SOLUTION_GOOD,51.765474,-1.258766,110.651333,5736388.367404,620156.038204,-110.651333,30U,-0.000657,0.009949,0.001346,-0.072129,-0.006248,1.063004
1403537851702962,INS_SOLUTION_GOOD,51.765474,-1.258766,110.651308,5736388.367409,620156.038411,-110.651308,30U,-0.000730,0.009957,0.001280,-0.072132,-0.006230,1.063002
1403537851723204,INS_SOLUTION_GOOD,51.765474,-1.258766,110.651282,5736388.367412,620156.038549,-110.651282,30U,-0.000751,0.010037,0.001128,-0.072141,-0.006200,1.063000
1403537851742939,INS_SOLUTION_GOOD,51.765474,-1.258766,110.651272,5736388.367306,620156.038759,-110.651272,30U,-0.000625,0.010047,-0.000128,-0.072145,-0.006189,1.062998
1403537851763015,INS_SOLUTION_GOOD,51.765474,-1.258766,110.651284,5736388.367311,620156.038966,-110.651284,30U,-0.000376,0.010336,-0.001066,-0.072145,-0.006189,1.062996
1403537851791419,INS_SOLUTION_GOOD,51.765474,-1.258766,110.651308,5736388.367316,620156.039173,-110.651308,30U,-0.000257,0.010589,-0.001348,-0.072146,-0.006188,1.062995
1403537851805665,INS_SOLUTION_GOOD,51.765474,-1.258766,110.651336,5736388.367321,620156.039380,-110.651336,30U,-0.000083,0.010917,-0.001386,-0.072149,-0.006196,1.062994
1403537851823370,INS_SOLUTION_GOOD,51.765474,-1.258766,110.651363,5736388.367327,620156.039656,-110.651363,30U,0.000220,0.011279,-0.001437,-0.072147,-0.006218,1.062995
1403537851843541,INS_SOLUTION_GOOD,51.765474,-1.258766,110.651389,5736388.367332,620156.039863,-110.651389,30U,0.000039,0.011521,-0.001034,-0.072146,-0.006239,1.062996
1403537851863168,INS_SOLUTION_GOOD,51.765474,-1.258766,110.651405,5736388.367337,620156.040070,-110.651405,30U,-0.000015,0.011545,-0.000575,-0.072149,-0.006251,1.062998
1403537851886293,INS_SOLUTION_GOOD,51.765474,-1.258766,110.651409,5736388.367344,620156.040346,-110.651409,30U,-0.000146,0.011714,0.000006,-0.072150,-0.006257,1.063000
1403537851903005,INS_SOLUTION_GOOD,51.765474,-1.258766,110.651405,5736388.367349,620156.040553,-110.651405,30U,-0.000566,0.011587,0.000414,-0.072149,-0.006265,1.063004
1403537851923188,INS_SOLUTION_GOOD,51.765474,-1.258766,110.651392,5736388.367354,620156.040760,-110.651392,30U,-0.000777,0.011382,0.000901,-0.072153,-0.006257,1.063004
1403537851942956,INS_SOLUTION_GOOD,51.765474,-1.258766,110.651377,5736388.367360,620156.041036,-110.651377,30U,-0.000839,0.011169,0.000502,-0.072157,-0.006246,1.063003
1403537851962842,INS_SOLUTION_GOOD,51.765474,-1.258766,110.651368,5736388.367365,620156.041243,-110.651368,30U,-0.001252,0.010861,0.000440,-0.072155,-0.006234,1.063003
1403537851991249,INS_SOLUTION_GOOD,51.765474,-1.258766,110.651355,5736388.367370,620156.041450,-110.651355,30U,-0.001705,0.010559,0.000869,-0.072156,-0.006218,1.063001
1403537852005673,INS_SOLUTION_GOOD,51.765474,-1.258766,110.651339,5736388.367264,620156.041660,-110.651339,30U,-0.001851,0.010711,0.000718,-0.072157,-0.006200,1.063001
1403537852023433,INS_SOLUTION_GOOD,51.765474,-1.258766,110.651330,5736388.367269,620156.041867,-110.651330,30U,-0.001953,0.010833,0.000116,-0.072155,-0.006195,1.063002
1403537852043448,INS_SOLUTION_GOOD,51.765474,-1.258766,110.651330,5736388.367274,620156.042074,-110.651330,30U,-0.002010,0.011364,-0.000091,-0.072153,-0.006189,1.063001
1403537852063190,INS_SOLUTION_GOOD,51.765474,-1.258766,110.651329,5736388.367169,620156.042352,-110.651329,30U,-0.001850,0.011914,0.000359,-0.072150,-0.006184,1.063001
1403537852086338,INS_SOLUTION_GOOD,51.765474,-1.258766,110.651322,5736388.367174,620156.042559,-110.651322,30U,-0.001915,0.012139,0.000319,-0.072154,-0.006176,1.063000
1403537852103099,INS_SOLUTION_GOOD,51.765474,-1.258766,110.651319,5736388.367181,620156.042835,-110.651319,30U,-0.001571,0.012391,-0.000176,-0.072152,-0.006171,1.063000
1403537852123536,INS_SOLUTION_GOOD,51.765474,-1.258766,110.651329,5736388.367074,620156.043045,-110.651329,30U,-0.001720,0.012514,-0.000607,-0.072151,-0.006183,1.063001
1403537852143342,INS_SOLUTION_GOOD,51.765474,-1.258766,110.651342,5736388.367081,620156.043321,-110.651342,30U,-0.001791,0.012628,-0.000658,-0.072149,-0.006190,1.063003
1403537852163092,INS_SOLUTION_GOOD,51.765474,-1.258766,110.651352,5736388.367088,620156.043597,-110.651352,30U,-0.001969,0.012453,-0.000254,-0.072148,-0.006194,1.063002
1403537852192987,INS_SOLUTION_GOOD,51.765474,-1.258766,110.651354,5736388.366981,620156.043807,-110.651354,30U,-0.001851,0.012592,0.000263,-0.072137,-0.006213,1.063002
1403537852205197,INS_SOLUTION_GOOD,51.765474,-1.258766,110.651342,5736388.366988,620156.044083,-110.651342,30U,-0.001977,0.012540,0.000738,-0.072132,-0.006222,1.063003
1403537852224346,INS_SOLUTION_GOOD,51.765474,-1.258766,110.651324,5736388.366993,620156.044290,-110.651324,30U,-0.002069,0.012390,0.001033,-0.072129,-0.006226,1.063003
1403537852243331,INS_SOLUTION_GOOD,51.765474,-1.258766,110.651301,5736388.366888,620156.044568,-110.651301,30U,-0.002177,0.012209,0.001327,-0.072127,-0.006232,1.063001
1403537852263104,INS_SOLUTION_GOOD,51.765474,-1.258765,110.651266,5736388.366895,620156.044844,-110.651266,30U,-0.002228,0.012387,0.002182,-0.072128,-0.006230,1.062999
1403537852286350,INS_SOLUTION_GOOD,51.765474,-1.258766,110.652305,5736388.368278,620156.032867,-110.652305,30U,-0.001911,0.010533,0.002472,-0.072141,-0.006215,1.062985
1403537852303104,INS_SOLUTION_GOOD,51.765474,-1.258766,110.652257,5736388.368283,620156.033074,-110.652257,30U,-0.001620,0.010567,0.002458,-0.072147,-0.006203,1.062980
1403537852323471,INS_SOLUTION_GOOD,51.765474,-1.258766,110.652206,5736388.368288,620156.033281,-110.652206,30U,-0.000824,0.011315,0.002714,-0.072152,-0.006186,1.062979
1403537852343459,INS_SOLUTION_GOOD,51.765474,-1.258766,110.652141,5736388.368294,620156.033557,-110.652141,30U,0.000244,0.013002,0.003900,-0.072153,-0.006155,1.062984
1403537852363454,INS_SOLUTION_GOOD,51.765474,-1.258766,110.652046,5736388.368301,620156.033833,-110.652046,30U,0.001948,0.016220,0.005609,-0.072160,-0.006105,1.062989
1403537852391687,INS_SOLUTION_GOOD,51.765474,-1.258766,110.651921,5736388.368309,620156.034178,-110.651921,30U,0.003734,0.019861,0.006883,-0.072167,-0.006042,1.062994
1403537852403184,INS_SOLUTION_GOOD,51.765474,-1.258766,110.651772,5736388.368430,620156.034590,-110.651772,30U,0.005762,0.023992,0.007991,-0.072177,-0.005970,1.063000
1403537852423455,INS_SOLUTION_GOOD,51.765474,-1.258766,110.651604,5736388.368555,620156.035139,-110.651604,30U,0.008151,0.028884,0.008893,-0.072193,-0.005883,1.063004
1403537852443478,INS_SOLUTION_GOOD,51.765474,-1.258766,110.651418,5736388.368792,620156.035755,-110.651418,30U,0.010309,0.033288,0.009639,-0.072216,-0.005792,1.063009
1403537852463063,INS_SOLUTION_GOOD,51.765474,-1.258766,110.651228,5736388.369031,620156.036440,-110.651228,30U,0.012442,0.037463,0.009502,-0.072250,-0.005708,1.063009
1403537852486724,INS_SOLUTION_GOOD,51.765474,-1.258766,110.651035,5736388.369384,620156.037260,-110.651035,30U,0.015628,0.043531,0.010018,-0.072281,-0.005632,1.063010
1403537852502984,INS_SOLUTION_GOOD,51.765474,-1.258766,110.650823,5736388.369741,620156.038218,-110.650823,30U,0.019352,0.050596,0.011139,-0.072318,-0.005544,1.063006
1403537852523197,INS_SOLUTION_GOOD,51.765474,-1.258766,110.650583,5736388.370210,620156.039242,-110.650583,30U,0.023775,0.058354,0.012905,-0.072355,-0.005437,1.063006
1403537852543075,INS_SOLUTION_GOOD,51.765474,-1.258766,110.650306,5736388.370685,620156.040473,-110.650306,30U,0.028686,0.066460,0.014702,-0.072389,-0.005309,1.063003
1403537852563328,INS_SOLUTION_GOOD,51.765474,-1.258766,110.649997,5736388.371387,620156.041907,-110.649997,30U,0.033847,0.074805,0.016238,-0.072422,-0.005169,1.063002
1403537852591653,INS_SOLUTION_GOOD,51.765474,-1.258766,110.649665,5736388.372092,620156.043478,-110.649665,30U,0.039059,0.082679,0.016975,-0.072450,-0.005017,1.063005
1403537852603323,INS_SOLUTION_GOOD,51.765474,-1.258765,110.649326,5736388.373023,620156.045181,-110.649326,30U,0.044332,0.090839,0.017057,-0.072478,-0.004859,1.063010
1403537852623878,INS_SOLUTION_GOOD,51.765474,-1.258765,110.648979,5736388.373957,620156.047023,-110.648979,30U,0.050281,0.099695,0.017682,-0.072508,-0.004699,1.063024
1403537852643362,INS_SOLUTION_GOOD,51.765474,-1.258765,110.648630,5736388.375118,620156.049067,-110.648630,30U,0.055827,0.108079,0.017297,-0.072543,-0.004534,1.063043
1403537852662987,INS_SOLUTION_GOOD,51.765474,-1.258765,110.648293,5736388.376285,620156.051317,-110.648293,30U,0.061631,0.116416,0.016352,-0.072580,-0.004375,1.063068
1403537852686323,INS_SOLUTION_GOOD,51.765474,-1.258765,110.647987,5736388.377677,620156.053700,-110.647987,30U,0.067049,0.124404,0.014324,-0.072615,-0.004232,1.063099
1403537852703069,INS_SOLUTION_GOOD,51.765474,-1.258765,110.647720,5736388.379184,620156.056219,-110.647720,30U,0.072556,0.133047,0.012458,-0.072649,-0.004107,1.063136
1403537852723478,INS_SOLUTION_GOOD,51.765474,-1.258765,110.647479,5736388.380695,620156.058944,-110.647479,30U,0.077967,0.141635,0.011567,-0.072684,-0.003989,1.063176
1403537852743484,INS_SOLUTION_GOOD,51.765474,-1.258765,110.647268,5736388.382432,620156.061803,-110.647268,30U,0.082782,0.149854,0.009538,-0.072716,-0.003888,1.063221
1403537852762992,INS_SOLUTION_GOOD,51.765474,-1.258765,110.647100,5736388.384175,620156.064868,-110.647100,30U,0.087636,0.158183,0.007440,-0.072744,-0.003815,1.063263
1403537852791560,INS_SOLUTION_GOOD,51.765474,-1.258765,110.646968,5736388.386031,620156.068068,-110.646968,30U,0.092370,0.166418,0.005667,-0.072766,-0.003756,1.063306
1403537852803330,INS_SOLUTION_GOOD,51.765474,-1.258765,110.646873,5736388.388003,620156.071404,-110.646873,30U,0.096314,0.174201,0.003932,-0.072795,-0.003715,1.063347
1403537852823494,INS_SOLUTION_GOOD,51.765474,-1.258765,110.646807,5736388.390090,620156.074945,-110.646807,30U,0.100369,0.182223,0.002852,-0.072819,-0.003691,1.063383
1403537852843452,INS_SOLUTION_GOOD,51.765474,-1.258765,110.646756,5736388.392181,620156.078623,-110.646756,30U,0.104090,0.189973,0.002373,-0.072856,-0.003679,1.063419
1403537852863007,INS_SOLUTION_GOOD,51.765474,-1.258765,110.646718,5736388.394386,620156.082437,-110.646718,30U,0.107384,0.196778,0.001544,-0.072889,-0.003666,1.063447
1403537852886233,INS_SOLUTION_GOOD,51.765474,-1.258765,110.646696,5736388.396706,620156.086385,-110.646696,30U,0.110960,0.203938,0.000788,-0.072918,-0.003662,1.063470
1403537852903026,INS_SOLUTION_GOOD,51.765474,-1.258765,110.646686,5736388.399029,620156.090472,-110.646686,30U,0.113959,0.210186,0.000050,-0.072930,-0.003661,1.063489
1403537852923109,INS_SOLUTION_GOOD,51.765474,-1.258765,110.646692,5736388.401464,620156.094626,-110.646692,30U,0.116506,0.215542,-0.000589,-0.072931,-0.003661,1.063503
1403537852943108,INS_SOLUTION_GOOD,51.765474,-1.258765,110.646705,5736388.403905,620156.098986,-110.646705,30U,0.118918,0.221107,-0.000701,-0.072926,-0.003671,1.063513
1403537852963113,INS_SOLUTION_GOOD,51.765474,-1.258765,110.646737,5736388.406346,620156.103346,-110.646737,30U,0.120307,0.225765,-0.002422,-0.072914,-0.003685,1.063519
1403537852991408,INS_SOLUTION_GOOD,51.765474,-1.258765,110.646802,5736388.408901,620156.107842,-110.646802,30U,0.121371,0.230038,-0.003833,-0.072888,-0.003704,1.063520
1403537853005842,INS_SOLUTION_GOOD,51.765474,-1.258765,110.646896,5736388.411460,620156.112476,-110.646896,30U,0.121450,0.233326,-0.005509,-0.072854,-0.003727,1.063514
1403537853023378,INS_SOLUTION_GOOD,51.765474,-1.258764,110.647021,5736388.414018,620156.117109,-110.647021,30U,0.121072,0.236457,-0.006752,-0.072800,-0.003760,1.063498
1403537853043455,INS_SOLUTION_GOOD,51.765474,-1.258764,110.647168,5736388.416467,620156.121815,-110.647168,30U,0.120775,0.238827,-0.008098,-0.072731,-0.003792,1.063473
1403537853063125,INS_SOLUTION_GOOD,51.765474,-1.258764,110.647344,5736388.419028,620156.126517,-110.647344,30U,0.120037,0.240543,-0.009385,-0.072636,-0.003825,1.063444
1403537853086238,INS_SOLUTION_GOOD,51.765474,-1.258764,110.647543,5736388.421590,620156.131289,-110.647543,30U,0.119443,0.241651,-0.010561,-0.072513,-0.003853,1.063411
1403537853103127,INS_SOLUTION_GOOD,51.765474,-1.258764,110.647760,5736388.424040,620156.136063,-110.647760,30U,0.118642,0.242442,-0.010964,-0.072350,-0.003883,1.063382
1403537853123477,INS_SOLUTION_GOOD,51.765474,-1.258764,110.647986,5736388.426491,620156.140838,-110.647986,30U,0.118105,0.242237,-0.011652,-0.072161,-0.003907,1.063351
1403537853143254,INS_SOLUTION_GOOD,51.765474,-1.258764,110.648222,5736388.428942,620156.145612,-110.648222,30U,0.117837,0.242201,-0.011797,-0.071942,-0.003930,1.063333
1403537853162976,INS_SOLUTION_GOOD,51.765474,-1.258764,110.648467,5736388.431503,620156.150384,-110.648467,30U,0.117725,0.241593,-0.012785,-0.071717,-0.003944,1.063331
1403537853192912,INS_SOLUTION_GOOD,51.765474,-1.258764,110.648727,5736388.433954,620156.155158,-110.648727,30U,0.117338,0.241335,-0.012993,-0.071489,-0.003969,1.063346
1403537853204322,INS_SOLUTION_GOOD,51.765474,-1.258764,110.648984,5736388.436405,620156.159932,-110.648984,30U,0.116910,0.240913,-0.012757,-0.071279,-0.003983,1.063381
1403537853223989,INS_SOLUTION_GOOD,51.765474,-1.258764,110.649233,5736388.438855,620156.164707,-110.649233,30U,0.116702,0.240385,-0.012092,-0.071075,-0.004006,1.063428
1403537853243355,INS_SOLUTION_GOOD,51.765474,-1.258764,110.649485,5736388.441304,620156.169412,-110.649485,30U,0.117281,0.239418,-0.013014,-0.070866,-0.004039,1.063495
1403537853263143,INS_SOLUTION_GOOD,51.765474,-1.258764,110.649766,5736388.443755,620156.174186,-110.649766,30U,0.119078,0.238332,-0.014920,-0.070619,-0.004090,1.063588
1403537853286263,INS_SOLUTION_GOOD,51.765474,-1.258764,110.650082,5736388.446315,620156.178889,-110.650082,30U,0.121374,0.237266,-0.016611,-0.070333,-0.004166,1.063703
1403537853303229,INS_SOLUTION_GOOD,51.765474,-1.258763,110.650419,5736388.448874,620156.183523,-110.650419,30U,0.123535,0.236998,-0.016797,-0.069998,-0.004267,1.063843
1403537853323629,INS_SOLUTION_GOOD,51.765474,-1.258763,110.650753,5736388.451434,620156.188225,-110.650753,30U,0.125538,0.237100,-0.016632,-0.069653,-0.004366,1.063993
1403537853343342,INS_SOLUTION_GOOD,51.765474,-1.258763,110.650005,5736388.445777,620156.188982,-110.650005,30U,0.127179,0.238063,-0.014825,-0.069310,-0.004459,1.064153
1403537853363262,INS_SOLUTION_GOOD,51.765474,-1.258763,110.650281,5736388.448449,620156.193682,-110.650281,30U,0.128909,0.239352,-0.012813,-0.068996,-0.004526,1.064311
1403537853392106,INS_SOLUTION_GOOD,51.765474,-1.258763,110.650507,5736388.451120,620156.198382,-110.650507,30U,0.130414,0.241261,-0.009390,-0.068712,-0.004570,1.064464
1403537853403270,INS_SOLUTION_GOOD,51.765474,-1.258763,110.650658,5736388.453906,620156.203217,-110.650658,30U,0.132100,0.243407,-0.005725,-0.068475,-0.004586,1.064615
1403537853423395,INS_SOLUTION_GOOD,51.765474,-1.258763,110.650734,5736388.456692,620156.208053,-110.650734,30U,0.133619,0.246227,-0.001979,-0.068284,-0.004565,1.064753
1403537853443347,INS_SOLUTION_GOOD,51.765474,-1.258763,110.650754,5736388.459478,620156.212888,-110.650754,30U,0.135478,0.249061,-0.000095,-0.068134,-0.004521,1.064881
1403537853463266,INS_SOLUTION_GOOD,51.765474,-1.258763,110.650739,5736388.462267,620156.217861,-110.650739,30U,0.137654,0.252080,0.001423,-0.068029,-0.004457,1.065000
1403537853486259,INS_SOLUTION_GOOD,51.765475,-1.258763,110.650702,5736388.465168,620156.222832,-110.650702,30U,0.140154,0.255142,0.002166,-0.067971,-0.004388,1.065113
1403537853503141,INS_SOLUTION_GOOD,51.765475,-1.258763,110.650658,5736388.468183,620156.227938,-110.650658,30U,0.142413,0.258560,0.002253,-0.067954,-0.004317,1.065226
1403537853523642,INS_SOLUTION_GOOD,51.765475,-1.258763,110.650621,5736388.471086,620156.233047,-110.650621,30U,0.144780,0.262486,0.001315,-0.067973,-0.004257,1.065338
1403537853543512,INS_SOLUTION_GOOD,51.765475,-1.258763,110.650607,5736388.474216,620156.238288,-110.650607,30U,0.147214,0.265792,0.000190,-0.068018,-0.004216,1.065449
1403537853563405,INS_SOLUTION_GOOD,51.765475,-1.258763,110.650617,5736388.477234,620156.243532,-110.650617,30U,0.149749,0.269421,-0.000892,-0.068057,-0.004198,1.065567
1403537853592240,INS_SOLUTION_GOOD,51.765475,-1.258763,110.650638,5736388.480478,620156.248909,-110.650638,30U,0.152219,0.273331,-0.001071,-0.068097,-0.004198,1.065683
1403537853603129,INS_SOLUTION_GOOD,51.765475,-1.258762,110.650662,5736388.483613,620156.254357,-110.650662,30U,0.154777,0.277891,-0.001311,-0.068111,-0.004219,1.065805
1403537853623646,INS_SOLUTION_GOOD,51.765475,-1.258762,110.650686,5736388.486860,620156.259872,-110.650686,30U,0.157208,0.282747,-0.001127,-0.068116,-0.004247,1.065931
1403537853643348,INS_SOLUTION_GOOD,51.765475,-1.258762,110.650713,5736388.490221,620156.265522,-110.650713,30U,0.159712,0.287568,-0.001319,-0.068113,-0.004284,1.066065
1403537853663250,INS_SOLUTION_GOOD,51.765475,-1.258762,110.650732,5736388.493585,620156.271241,-110.650732,30U,0.162103,0.292908,-0.000366,-0.068124,-0.004322,1.066207
1403537853686397,INS_SOLUTION_GOOD,51.765475,-1.258762,110.650729,5736388.496950,620156.277029,-110.650729,30U,0.164723,0.298222,0.000816,-0.068169,-0.004357,1.066355
1403537853703229,INS_SOLUTION_GOOD,51.765475,-1.258762,110.650700,5736388.500429,620156.282953,-110.650700,30U,0.167611,0.303576,0.002055,-0.068260,-0.004376,1.066515
1403537853723507,INS_SOLUTION_GOOD,51.765475,-1.258762,110.650644,5736388.503912,620156.289014,-110.650644,30U,0.171057,0.309214,0.003658,-0.068385,-0.004382,1.066689
1403537853743394,INS_SOLUTION_GOOD,51.765475,-1.258762,110.650561,5736388.507510,620156.295211,-110.650561,30U,0.174884,0.314572,0.004609,-0.068505,-0.004375,1.066867
1403537853763399,INS_SOLUTION_GOOD,51.765475,-1.258762,110.650459,5736388.511220,620156.301474,-110.650459,30U,0.178485,0.320153,0.005632,-0.068611,-0.004354,1.067053
1403537853792438,INS_SOLUTION_GOOD,51.765475,-1.258762,110.650342,5736388.515043,620156.307804,-110.650342,30U,0.181987,0.325789,0.005970,-0.068684,-0.004333,1.067242
1403537853803233,INS_SOLUTION_GOOD,51.765475,-1.258762,110.650223,5736388.518869,620156.314271,-110.650223,30U,0.184942,0.331589,0.005899,-0.068739,-0.004317,1.067433
1403537853823645,INS_SOLUTION_GOOD,51.765475,-1.258761,110.650107,5736388.522699,620156.320877,-110.650107,30U,0.187844,0.337605,0.005565,-0.068787,-0.004308,1.067615
1403537853843486,INS_SOLUTION_GOOD,51.765475,-1.258761,110.650007,5736388.526643,620156.327618,-110.650007,30U,0.190337,0.343714,0.004433,-0.068842,-0.004321,1.067793
1403537853863285,INS_SOLUTION_GOOD,51.765475,-1.258761,110.649933,5736388.530589,620156.334427,-110.649933,30U,0.192433,0.350019,0.003042,-0.068923,-0.004357,1.067961
1403537853886398,INS_SOLUTION_GOOD,51.765475,-1.258761,110.649879,5736388.534651,620156.341442,-110.649879,30U,0.194678,0.357230,0.002503,-0.069037,-0.004416,1.068119
1403537853903114,INS_SOLUTION_GOOD,51.765475,-1.258761,110.649833,5736388.538714,620156.348525,-110.649833,30U,0.196342,0.364759,0.002232,-0.069180,-0.004494,1.068266
1403537853923405,INS_SOLUTION_GOOD,51.765475,-1.258761,110.649787,5736388.542894,620156.355812,-110.649787,30U,0.199244,0.371385,0.002487,-0.069374,-0.004572,1.068397
1403537853943283,INS_SOLUTION_GOOD,51.765475,-1.258761,110.649736,5736388.547077,620156.363238,-110.649736,30U,0.202384,0.377925,0.002505,-0.069553,-0.004644,1.068528
1403537853963130,INS_SOLUTION_GOOD,51.765475,-1.258761,110.649678,5736388.551373,620156.370730,-110.649678,30U,0.206104,0.384505,0.003490,-0.069744,-0.004711,1.068653
1403537853992366,INS_SOLUTION_GOOD,51.765475,-1.258761,110.649603,5736388.555672,620156.378360,-110.649603,30U,0.210475,0.390325,0.004197,-0.069916,-0.004770,1.068783
1403537854003406,INS_SOLUTION_GOOD,51.765475,-1.258760,110.649518,5736388.560086,620156.386125,-110.649518,30U,0.215734,0.395644,0.004333,-0.070095,-0.004819,1.068926
1403537854023511,INS_SOLUTION_GOOD,51.765475,-1.258760,110.649437,5736388.564725,620156.394023,-110.649437,30U,0.221856,0.401395,0.003833,-0.070276,-0.004864,1.069093
1403537854043541,INS_SOLUTION_GOOD,51.765475,-1.258760,110.649367,5736388.569366,620156.401990,-110.649367,30U,0.228003,0.406425,0.003155,-0.070463,-0.004917,1.069291
1403537854063259,INS_SOLUTION_GOOD,51.765475,-1.258760,110.649305,5736388.574231,620156.410020,-110.649305,30U,0.233500,0.411565,0.003004,-0.070677,-0.004969,1.069518
1403537854086374,INS_SOLUTION_GOOD,51.765476,-1.258760,110.649243,5736388.579100,620156.418189,-110.649243,30U,0.238821,0.416721,0.003070,-0.070908,-0.005029,1.069778
1403537854103135,INS_SOLUTION_GOOD,51.765476,-1.258760,110.649185,5736388.584081,620156.426424,-110.649185,30U,0.243244,0.421710,0.002745,-0.071141,-0.005098,1.070065
1403537854123448,INS_SOLUTION_GOOD,51.765476,-1.258760,110.649135,5736388.589288,620156.434792,-110.649135,30U,0.247432,0.427362,0.002481,-0.071370,-0.005175,1.070377
1403537854143413,INS_SOLUTION_GOOD,51.765476,-1.258760,110.649088,5736388.594387,620156.443300,-110.649088,30U,0.250786,0.433220,0.002282,-0.071571,-0.005257,1.070713
1403537854163246,INS_SOLUTION_GOOD,51.765476,-1.258760,110.649049,5736388.599710,620156.451872,-110.649049,30U,0.252747,0.439451,0.001734,-0.071700,-0.005346,1.071055
1403537854193156,INS_SOLUTION_GOOD,51.765476,-1.258759,110.649009,5736388.604927,620156.460654,-110.649009,30U,0.253641,0.446907,0.002425,-0.071733,-0.005442,1.071390
1403537854203176,INS_SOLUTION_GOOD,51.765476,-1.258759,110.648957,5736388.610256,620156.469502,-110.648957,30U,0.253307,0.453791,0.002710,-0.071688,-0.005516,1.071705
1403537854223668,INS_SOLUTION_GOOD,51.765476,-1.258759,110.648897,5736388.615480,620156.478559,-110.648897,30U,0.252855,0.461769,0.003304,-0.071569,-0.005580,1.072002
1403537854243517,INS_SOLUTION_GOOD,51.765476,-1.258759,110.648818,5736388.620818,620156.487752,-110.648818,30U,0.251529,0.470082,0.004709,-0.071433,-0.005618,1.072277
1403537854263530,INS_SOLUTION_GOOD,51.765476,-1.258759,110.648709,5736388.626048,620156.497086,-110.648709,30U,0.250664,0.478185,0.006069,-0.071282,-0.005630,1.072532
1403537854286417,INS_SOLUTION_GOOD,51.765476,-1.258759,110.648572,5736388.631283,620156.506627,-110.648572,30U,0.250574,0.486307,0.007591,-0.071157,-0.005616,1.072769
1403537854303180,INS_SOLUTION_GOOD,51.765476,-1.258759,110.648413,5736388.636521,620156.516305,-110.648413,30U,0.251587,0.493741,0.008315,-0.071050,-0.005594,1.073002
1403537854323428,INS_SOLUTION_GOOD,51.765476,-1.258757,110.636069,5736388.625795,620156.649603,-110.636069,30U,0.253811,0.500719,0.008373,-0.070964,-0.005559,1.073233
1403537854343398,INS_SOLUTION_GOOD,51.765476,-1.258757,110.635900,5736388.631151,620156.659555,-110.635900,30U,0.257954,0.507172,0.008450,-0.070927,-0.005526,1.073479
1403537854363015,INS_SOLUTION_GOOD,51.765476,-1.258756,110.635743,5736388.636622,620156.669642,-110.635743,30U,0.263429,0.512707,0.007439,-0.070883,-0.005513,1.073745
1403537854391392,INS_SOLUTION_GOOD,51.765476,-1.258756,110.635603,5736388.642205,620156.679796,-110.635603,30U,0.269533,0.517478,0.006784,-0.070824,-0.005514,1.074028
1403537854403160,INS_SOLUTION_GOOD,51.765476,-1.258756,110.635472,5736388.647902,620156.690016,-110.635472,30U,0.276799,0.520787,0.006302,-0.070746,-0.005513,1.074333
1403537854423400,INS_SOLUTION_GOOD,51.765476,-1.258756,110.635338,5736388.653712,620156.700371,-110.635338,30U,0.283714,0.524583,0.007316,-0.070648,-0.005524,1.074658
1403537854443428,INS_SOLUTION_GOOD,51.765476,-1.258756,110.635171,5736388.659745,620156.710722,-110.635171,30U,0.290731,0.527339,0.009410,-0.070579,-0.005524,1.074998
1403537854463280,INS_SOLUTION_GOOD,51.765476,-1.258756,110.634954,5736388.665780,620156.721141,-110.634954,30U,0.297554,0.530775,0.012504,-0.070542,-0.005515,1.075358
1403537854486547,INS_SOLUTION_GOOD,51.765476,-1.258755,110.634667,5736388.672152,620156.731690,-110.634667,30U,0.303756,0.534319,0.015545,-0.070560,-0.005482,1.075731
1403537854503147,INS_SOLUTION_GOOD,51.765476,-1.258755,110.634338,5736388.678524,620156.742239,-110.634338,30U,0.309494,0.538765,0.017618,-0.070655,-0.005451,1.076114
1403537854523407,INS_SOLUTION_GOOD,51.765476,-1.258755,110.633965,5736388.685010,620156.752923,-110.633965,30U,0.314257,0.543812,0.019744,-0.070842,-0.005414,1.076505
1403537854543182,INS_SOLUTION_GOOD,51.765476,-1.258755,110.633547,5736388.691609,620156.763674,-110.633547,30U,0.317365,0.549804,0.022056,-0.071144,-0.005368,1.076890
1403537854562912,INS_SOLUTION_GOOD,51.765476,-1.258755,110.633088,5736388.698212,620156.774563,-110.633088,30U,0.320249,0.556117,0.023770,-0.071574,-0.005306,1.077263
1403537854591517,INS_SOLUTION_GOOD,51.765477,-1.258755,110.632596,5736388.704928,620156.785587,-110.632596,30U,0.322230,0.563308,0.025455,-0.072093,-0.005234,1.077619
1403537854603150,INS_SOLUTION_GOOD,51.765477,-1.258754,110.632079,5736388.711650,620156.796819,-110.632079,30U,0.324622,0.570092,0.026083,-0.072676,-0.005138,1.077948
1403537854624003,INS_SOLUTION_GOOD,51.765477,-1.258754,110.631539,5736388.718374,620156.808119,-110.631539,30U,0.327569,0.576912,0.028118,-0.073263,-0.005021,1.078258
1403537854643309,INS_SOLUTION_GOOD,51.765477,-1.258754,110.630961,5736388.725212,620156.819554,-110.630961,30U,0.330427,0.583444,0.029391,-0.073779,-0.004864,1.078542
1403537854663184,INS_SOLUTION_GOOD,51.765477,-1.258754,110.630376,5736388.732164,620156.831125,-110.630376,30U,0.332591,0.590710,0.029149,-0.074159,-0.004672,1.078802
1403537854686287,INS_SOLUTION_GOOD,51.765477,-1.258754,110.629802,5736388.739120,620156.842834,-110.629802,30U,0.332980,0.598522,0.027987,-0.074437,-0.004465,1.079034
1403537854703121,INS_SOLUTION_GOOD,51.765477,-1.258754,110.629266,5736388.746081,620156.854750,-110.629266,30U,0.331718,0.606737,0.025401,-0.074661,-0.004261,1.079240
1403537854723437,INS_SOLUTION_GOOD,51.765477,-1.258753,110.628783,5736388.752934,620156.866806,-110.628783,30U,0.329922,0.614555,0.023021,-0.074889,-0.004091,1.079419
1403537854743159,INS_SOLUTION_GOOD,51.765477,-1.258753,110.628348,5736388.759790,620156.879001,-110.628348,30U,0.327457,0.621533,0.020496,-0.075114,-0.003940,1.079583
1403537854763189,INS_SOLUTION_GOOD,51.765477,-1.258753,110.627953,5736388.766649,620156.891334,-110.627953,30U,0.326180,0.627021,0.018730,-0.075362,-0.003793,1.079746
1403537854791387,INS_SOLUTION_GOOD,51.765477,-1.258753,110.627602,5736388.773510,620156.903735,-110.627602,30U,0.327730,0.631935,0.016406,-0.075567,-0.003653,1.079926
1403537854803196,INS_SOLUTION_GOOD,51.765477,-1.258753,110.627300,5736388.780374,620156.916275,-110.627300,30U,0.331256,0.635734,0.013771,-0.075674,-0.003517,1.080149
1403537854823328,INS_SOLUTION_GOOD,51.765477,-1.258753,110.627046,5736388.787350,620156.928812,-110.627046,30U,0.336202,0.640206,0.011717,-0.075658,-0.003375,1.080420
1403537854843420,INS_SOLUTION_GOOD,51.765477,-1.258752,110.626837,5736388.794440,620156.941484,-110.626837,30U,0.341937,0.643835,0.009045,-0.075530,-0.003252,1.080751
1403537854863193,INS_SOLUTION_GOOD,51.765477,-1.258752,110.626683,5736388.801645,620156.954292,-110.626683,30U,0.347970,0.648682,0.007010,-0.075305,-0.003156,1.081136
1403537854886075,INS_SOLUTION_GOOD,51.765477,-1.258752,110.626561,5736388.808960,620156.967096,-110.626561,30U,0.354382,0.653900,0.005641,-0.075000,-0.003071,1.081569
1403537854903037,INS_SOLUTION_GOOD,51.765478,-1.258752,110.626439,5736388.816392,620156.980106,-110.626439,30U,0.360041,0.660525,0.006718,-0.074644,-0.002977,1.082044
1403537854923190,INS_SOLUTION_GOOD,51.765478,-1.258752,110.626282,5736388.823937,620156.993181,-110.626282,30U,0.365317,0.668010,0.008792,-0.074328,-0.002866,1.082560
1403537854943196,INS_SOLUTION_GOOD,51.765478,-1.258751,110.626084,5736388.831598,620157.006461,-110.626084,30U,0.369990,0.676368,0.011030,-0.074083,-0.002730,1.083101
1403537854963327,INS_SOLUTION_GOOD,51.765478,-1.258751,110.625841,5736388.839373,620157.019877,-110.625841,30U,0.374346,0.685958,0.013057,-0.073926,-0.002565,1.083653
1403537854992173,INS_SOLUTION_GOOD,51.765478,-1.258751,110.625562,5736388.847265,620157.033496,-110.625562,30U,0.377836,0.695604,0.015016,-0.073820,-0.002377,1.084191
1403537855003198,INS_SOLUTION_GOOD,51.765478,-1.258751,110.625228,5736388.855161,620157.047323,-110.625228,30U,0.381245,0.706806,0.018381,-0.073705,-0.002175,1.084708
1403537855023453,INS_SOLUTION_GOOD,51.765478,-1.258751,110.624836,5736388.863176,620157.061423,-110.624836,30U,0.384830,0.717771,0.020925,-0.073587,-0.001963,1.085178
1403537855043403,INS_SOLUTION_GOOD,51.765478,-1.258750,110.624408,5736388.871306,620157.075728,-110.624408,30U,0.389217,0.730371,0.021611,-0.073417,-0.001739,1.085608
1403537855063282,INS_SOLUTION_GOOD,51.765478,-1.258750,110.623976,5736388.879442,620157.090239,-110.623976,30U,0.393265,0.742439,0.021355,-0.073237,-0.001542,1.085994
1403537855086461,INS_SOLUTION_GOOD,51.765478,-1.258750,110.623543,5736388.887695,620157.105024,-110.623543,30U,0.397326,0.755543,0.021916,-0.073084,-0.001358,1.086331
1403537855103074,INS_SOLUTION_GOOD,51.765478,-1.258750,110.623102,5736388.896066,620157.120082,-110.623102,30U,0.402310,0.768088,0.021885,-0.072982,-0.001191,1.086636
1403537855123295,INS_SOLUTION_GOOD,51.765478,-1.258750,110.622666,5736388.904553,620157.135344,-110.622666,30U,0.407606,0.779961,0.021396,-0.072909,-0.001044,1.086907
1403537855143683,INS_SOLUTION_GOOD,51.765478,-1.258749,110.622252,5736388.913045,620157.150814,-110.622252,30U,0.413016,0.791498,0.019582,-0.072804,-0.000925,1.087149
1403537855163304,INS_SOLUTION_GOOD,51.765478,-1.258749,110.621893,5736388.921766,620157.166554,-110.621893,30U,0.419097,0.802356,0.016437,-0.072693,-0.000834,1.087368
1403537855193399,INS_SOLUTION_GOOD,51.765479,-1.258749,110.621607,5736388.930603,620157.182498,-110.621607,30U,0.424902,0.811996,0.012278,-0.072557,-0.000778,1.087583
1403537855204930,INS_SOLUTION_GOOD,51.765479,-1.258749,110.621392,5736388.939557,620157.198647,-110.621392,30U,0.429976,0.821172,0.008590,-0.072447,-0.000740,1.087798
1403537855223286,INS_SOLUTION_GOOD,51.765479,-1.258748,110.621259,5736388.948625,620157.214931,-110.621259,30U,0.434972,0.829100,0.004622,-0.072408,-0.000738,1.088028
1403537855243536,INS_SOLUTION_GOOD,51.765479,-1.258748,110.621208,5736388.957696,620157.231353,-110.621208,30U,0.441130,0.837608,0.001017,-0.072466,-0.000760,1.088281
1403537855263193,INS_SOLUTION_GOOD,51.765479,-1.258748,110.621219,5736388.966994,620157.247977,-110.621219,30U,0.448990,0.844399,-0.002286,-0.072576,-0.000784,1.088573
1403537855286333,INS_SOLUTION_GOOD,51.765479,-1.258748,110.621279,5736388.976519,620157.264734,-110.621279,30U,0.457567,0.851972,-0.003691,-0.072615,-0.000803,1.088924
1403537855303182,INS_SOLUTION_GOOD,51.765479,-1.258747,110.621350,5736388.986157,620157.281626,-110.621350,30U,0.465084,0.860273,-0.003411,-0.072562,-0.000798,1.089329
1403537855323333,INS_SOLUTION_GOOD,51.765480,-1.258746,110.638107,5736389.077054,620157.355745,-110.638107,30U,0.473214,0.869157,-0.003024,-0.072410,-0.000748,1.089759
1403537855343320,INS_SOLUTION_GOOD,51.765480,-1.258746,110.638164,5736389.087037,620157.373043,-110.638164,30U,0.480563,0.879844,-0.002621,-0.072130,-0.000674,1.090277
1403537855363209,INS_SOLUTION_GOOD,51.765480,-1.258746,110.638210,5736389.097135,620157.390545,-110.638210,30U,0.486195,0.893042,-0.002003,-0.071772,-0.000565,1.090841
1403537855392088,INS_SOLUTION_GOOD,51.765480,-1.258745,110.638252,5736389.107238,620157.408255,-110.638252,30U,0.489858,0.907176,-0.002243,-0.071387,-0.000453,1.091439
1403537855403079,INS_SOLUTION_GOOD,51.765480,-1.258745,110.638294,5736389.117572,620157.426304,-110.638294,30U,0.492498,0.922471,-0.002489,-0.071120,-0.000351,1.092036
1403537855423467,INS_SOLUTION_GOOD,51.765480,-1.258745,110.638339,5736389.127803,620157.444700,-110.638339,30U,0.496278,0.937374,-0.001980,-0.070965,-0.000268,1.092631
1403537855443562,INS_SOLUTION_GOOD,51.765480,-1.258745,110.638368,5736389.138262,620157.463299,-110.638368,30U,0.500280,0.952637,-0.000943,-0.070856,-0.000203,1.093221
1403537855463197,INS_SOLUTION_GOOD,51.765480,-1.258744,110.638378,5736389.148728,620157.482242,-110.638378,30U,0.505392,0.966789,0.000325,-0.070765,-0.000152,1.093792
1403537855486462,INS_SOLUTION_GOOD,51.765480,-1.258744,110.638339,5736389.159426,620157.501525,-110.638339,30U,0.512375,0.981337,0.003334,-0.070648,-0.000121,1.094349
1403537855503067,INS_SOLUTION_GOOD,51.765481,-1.258744,110.638247,5736389.170239,620157.521013,-110.638247,30U,0.518776,0.995728,0.005517,-0.070498,-0.000114,1.094885
1403537855523215,INS_SOLUTION_GOOD,51.765481,-1.258744,110.638116,5736389.181061,620157.540845,-110.638116,30U,0.525540,1.011925,0.007459,-0.070370,-0.000134,1.095370
1403537855543092,INS_SOLUTION_GOOD,51.765481,-1.258743,110.637951,5736389.192223,620157.560945,-110.637951,30U,0.532968,1.027731,0.008869,-0.070269,-0.000175,1.095808
1403537855562850,INS_SOLUTION_GOOD,51.765481,-1.258743,110.637737,5736389.203393,620157.581391,-110.637737,30U,0.539636,1.044433,0.012186,-0.070224,-0.000230,1.096189
1403537855591538,INS_SOLUTION_GOOD,51.765481,-1.258743,110.637454,5736389.214794,620157.602176,-110.637454,30U,0.546944,1.060995,0.016135,-0.070249,-0.000304,1.096503
1403537855603322,INS_SOLUTION_GOOD,51.765481,-1.258742,110.637106,5736389.226314,620157.623304,-110.637106,30U,0.555272,1.076622,0.018262,-0.070309,-0.000400,1.096772
1403537855623978,INS_SOLUTION_GOOD,51.765481,-1.258742,110.636745,5736389.237952,620157.644704,-110.636745,30U,0.564688,1.090823,0.018122,-0.070487,-0.000539,1.097014
1403537855643472,INS_SOLUTION_GOOD,51.765481,-1.258742,110.636366,5736389.249930,620157.666373,-110.636366,30U,0.576370,1.103842,0.020197,-0.070843,-0.000682,1.097266
1403537855663327,INS_SOLUTION_GOOD,51.765481,-1.258741,110.635913,5736389.262137,620157.688313,-110.635913,30U,0.589482,1.116033,0.025051,-0.071362,-0.000784,1.097553
1403537855686353,INS_SOLUTION_GOOD,51.765481,-1.258741,110.635360,5736389.274570,620157.710385,-110.635360,30U,0.603324,1.125798,0.029139,-0.071938,-0.000839,1.097887
1403537855703096,INS_SOLUTION_GOOD,51.765482,-1.258741,110.634770,5736389.287232,620157.732728,-110.634770,30U,0.616396,1.135374,0.029999,-0.072514,-0.000888,1.098268
1403537855723442,INS_SOLUTION_GOOD,51.765482,-1.258740,110.634173,5736389.300231,620157.755201,-110.634173,30U,0.630126,1.146243,0.028628,-0.073112,-0.000905,1.098702
1403537855743205,INS_SOLUTION_GOOD,51.765482,-1.258740,110.633629,5736389.313570,620157.777942,-110.633629,30U,0.639884,1.157113,0.025192,-0.073724,-0.000939,1.099181
1403537855762990,INS_SOLUTION_GOOD,51.765482,-1.258740,110.633149,5736389.326914,620157.800890,-110.633149,30U,0.646257,1.170911,0.022829,-0.074369,-0.000982,1.099663
1403537855791300,INS_SOLUTION_GOOD,51.765482,-1.258739,110.632737,5736389.340487,620157.824109,-110.632737,30U,0.650853,1.184847,0.018541,-0.074960,-0.001034,1.100128
1403537855805317,INS_SOLUTION_GOOD,51.765482,-1.258739,110.632408,5736389.354068,620157.847673,-110.632408,30U,0.653156,1.199976,0.013030,-0.075472,-0.001089,1.100571
1403537855823565,INS_SOLUTION_GOOD,51.765482,-1.258739,110.632259,5736389.367654,620157.871443,-110.632259,30U,0.652173,1.213813,0.002217,-0.075828,-0.001244,1.100958
1403537855843388,INS_SOLUTION_GOOD,51.765482,-1.258738,110.632276,5736389.381362,620157.895626,-110.632276,30U,0.651010,1.230827,-0.004199,-0.076117,-0.001453,1.101303
1403537855862980,INS_SOLUTION_GOOD,51.765483,-1.258738,110.632477,5736389.394852,620157.920020,-110.632477,30U,0.645221,1.243835,-0.016083,-0.076301,-0.001741,1.101604
1403537855885984,INS_SOLUTION_GOOD,51.765483,-1.258738,110.632900,5736389.408348,620157.944690,-110.632900,30U,0.641128,1.259025,-0.025555,-0.076471,-0.002133,1.101854
1403537855903105,INS_SOLUTION_GOOD,51.765483,-1.258737,110.633504,5736389.421741,620157.969708,-110.633504,30U,0.637492,1.271338,-0.035252,-0.076592,-0.002572,1.102082
1403537855923439,INS_SOLUTION_GOOD,51.765483,-1.258737,110.634291,5736389.435029,620157.994936,-110.634291,30U,0.638963,1.283285,-0.043578,-0.076713,-0.003042,1.102304
1403537855943116,INS_SOLUTION_GOOD,51.765483,-1.258737,110.635239,5736389.448543,620158.020366,-110.635239,30U,0.643119,1.294276,-0.050869,-0.076804,-0.003555,1.102559
1403537855963479,INS_SOLUTION_GOOD,51.765483,-1.258736,110.636320,5736389.462064,620158.046071,-110.636320,30U,0.649538,1.303732,-0.056178,-0.076860,-0.004082,1.102863
1403537855991439,INS_SOLUTION_GOOD,51.765483,-1.258736,110.637408,5736389.475700,620158.071912,-110.637408,30U,0.657154,1.313773,-0.052908,-0.076786,-0.004560,1.103214
1403537856005064,INS_SOLUTION_GOOD,51.765483,-1.258735,110.638408,5736389.489561,620158.097885,-110.638408,30U,0.666972,1.321325,-0.046390,-0.076605,-0.004965,1.103609
1403537856023493,INS_SOLUTION_GOOD,51.765483,-1.258735,110.639253,5736389.503651,620158.124130,-110.639253,30U,0.678567,1.330022,-0.037829,-0.076299,-0.005278,1.104065
1403537856043360,INS_SOLUTION_GOOD,51.765484,-1.258735,110.639937,5736389.517966,620158.150437,-110.639937,30U,0.688733,1.338982,-0.029253,-0.075970,-0.005513,1.104567
1403537856063193,INS_SOLUTION_GOOD,51.765484,-1.258734,110.640439,5736389.532508,620158.176947,-110.640439,30U,0.701795,1.348190,-0.020892,-0.075606,-0.005662,1.105117
1403537856086088,INS_SOLUTION_GOOD,51.765484,-1.258734,110.640749,5736389.547277,620158.203658,-110.640749,30U,0.713444,1.358902,-0.009148,-0.075237,-0.005750,1.105712
1403537856103212,INS_SOLUTION_GOOD,51.765484,-1.258733,110.640801,5736389.562275,620158.230640,-110.640801,30U,0.723825,1.370398,0.003681,-0.074951,-0.005740,1.106335
1403537856123696,INS_SOLUTION_GOOD,51.765484,-1.258733,110.640585,5736389.577500,620158.257824,-110.640585,30U,0.729689,1.383964,0.018001,-0.074811,-0.005648,1.106937
1403537856143349,INS_SOLUTION_GOOD,51.765484,-1.258733,110.640079,5736389.592843,620158.285281,-110.640079,30U,0.736973,1.398317,0.032690,-0.074852,-0.005475,1.107498
1403537856162953,INS_SOLUTION_GOOD,51.765484,-1.258732,110.639251,5736389.608305,620158.313011,-110.639251,30U,0.740520,1.415737,0.051029,-0.074998,-0.005228,1.108016
1403537856193176,INS_SOLUTION_GOOD,51.765484,-1.258732,110.638090,5736389.623775,620158.341155,-110.638090,30U,0.743597,1.431145,0.065377,-0.075336,-0.004898,1.108467
1403537856205114,INS_SOLUTION_GOOD,51.765485,-1.258731,110.636701,5736389.639363,620158.369504,-110.636701,30U,0.744376,1.444650,0.071879,-0.075751,-0.004469,1.108839
1403537856223998,INS_SOLUTION_GOOD,51.765485,-1.258731,110.635242,5736389.654845,620158.398132,-110.635242,30U,0.744391,1.455835,0.072326,-0.076315,-0.004077,1.109139
1403537856243449,INS_SOLUTION_GOOD,51.765485,-1.258731,110.633818,5736389.670555,620158.426961,-110.633818,30U,0.746736,1.463616,0.069833,-0.077002,-0.003751,1.109388
1403537856263355,INS_SOLUTION_GOOD,51.765485,-1.258730,110.632464,5736389.686158,620158.455999,-110.632464,30U,0.747587,1.472527,0.064978,-0.077634,-0.003462,1.109570
1403537856285752,INS_SOLUTION_GOOD,51.765485,-1.258730,110.631254,5736389.701764,620158.485107,-110.631254,30U,0.750885,1.479835,0.055932,-0.078113,-0.003208,1.109679
1403537856303076,INS_SOLUTION_GOOD,51.765485,-1.258729,110.630212,5736389.717596,620158.514416,-110.630212,30U,0.755754,1.490234,0.049332,-0.078425,-0.003059,1.109758
1403537856323496,INS_SOLUTION_GOOD,51.765486,-1.258729,110.786582,5736389.780082,620158.545028,-110.786582,30U,0.759773,1.498513,0.042421,-0.078725,-0.002910,1.109805
1403537856343092,INS_SOLUTION_GOOD,51.765486,-1.258728,110.785751,5736389.796034,620158.574680,-110.785751,30U,0.762895,1.507035,0.040878,-0.078972,-0.002771,1.109868
1403537856362871,INS_SOLUTION_GOOD,51.765486,-1.258728,110.785016,5736389.811989,620158.604470,-110.785016,30U,0.759394,1.510503,0.032219,-0.079006,-0.002619,1.109935
1403537856391392,INS_SOLUTION_GOOD,51.765486,-1.258727,110.784449,5736389.827837,620158.634400,-110.784449,30U,0.755097,1.514872,0.025448,-0.078862,-0.002447,1.109987
1403537856403363,INS_SOLUTION_GOOD,51.765486,-1.258727,110.784022,5736389.843573,620158.664333,-110.784022,30U,0.750462,1.518541,0.016573,-0.078612,-0.002289,1.110061
1403537856423608,INS_SOLUTION_GOOD,51.765487,-1.258727,110.783757,5736389.859312,620158.694404,-110.783757,30U,0.747410,1.524433,0.008815,-0.078408,-0.002125,1.110182
1403537856443498,INS_SOLUTION_GOOD,51.765487,-1.258726,110.783713,5736389.874942,620158.724547,-110.783713,30U,0.750129,1.530515,-0.004377,-0.077944,-0.002036,1.110387
1403537856463224,INS_SOLUTION_GOOD,51.765487,-1.258726,110.783938,5736389.890800,620158.754891,-110.783938,30U,0.756064,1.537677,-0.018385,-0.077388,-0.002007,1.110718
1403537856486112,INS_SOLUTION_GOOD,51.765487,-1.258725,110.784447,5736389.906659,620158.785305,-110.784447,30U,0.764690,1.544197,-0.032608,-0.076752,-0.002105,1.111215
1403537856503127,INS_SOLUTION_GOOD,51.765487,-1.258725,110.785181,5736389.922745,620158.815920,-110.785181,30U,0.770819,1.552344,-0.040583,-0.076115,-0.002348,1.111821
1403537856523235,INS_SOLUTION_GOOD,51.765487,-1.258724,110.786043,5736389.939055,620158.846599,-110.786043,30U,0.778479,1.558402,-0.044000,-0.075429,-0.002723,1.112508
1403537856543130,INS_SOLUTION_GOOD,51.765487,-1.258724,110.786945,5736389.955371,620158.877484,-110.786945,30U,0.783154,1.564488,-0.045845,-0.074727,-0.003135,1.113228
1403537856563209,INS_SOLUTION_GOOD,51.765487,-1.258723,110.787837,5736389.971797,620158.908368,-110.787837,30U,0.788493,1.569504,-0.042073,-0.073895,-0.003623,1.113936
1403537856592265,INS_SOLUTION_GOOD,51.765488,-1.258723,110.788583,5736389.988340,620158.939455,-110.788583,30U,0.792995,1.575628,-0.032949,-0.072947,-0.004065,1.114590
1403537856603232,INS_SOLUTION_GOOD,51.765488,-1.258723,110.789116,5736390.004995,620158.970609,-110.789116,30U,0.794879,1.582474,-0.019768,-0.071864,-0.004399,1.115186
1403537856623512,INS_SOLUTION_GOOD,51.765488,-1.258722,110.789355,5736390.021656,620159.001970,-110.789355,30U,0.796363,1.591473,-0.004287,-0.070773,-0.004577,1.115677
1403537856643338,INS_SOLUTION_GOOD,51.765488,-1.258722,110.789275,5736390.038319,620159.033469,-110.789275,30U,0.797918,1.600045,0.012173,-0.069849,-0.004585,1.116094
1403537856663241,INS_SOLUTION_GOOD,51.765488,-1.258721,110.788911,5736390.055099,620159.065172,-110.788911,30U,0.798691,1.609670,0.025154,-0.069120,-0.004415,1.116448
1403537856686271,INS_SOLUTION_GOOD,51.765488,-1.258721,110.788263,5736390.071884,620159.097082,-110.788263,30U,0.798202,1.621300,0.039766,-0.068635,-0.004142,1.116710
1403537856703142,INS_SOLUTION_GOOD,51.765488,-1.258720,110.787344,5736390.088564,620159.129271,-110.787344,30U,0.800809,1.632871,0.052190,-0.068423,-0.003830,1.116902
1403537856723241,INS_SOLUTION_GOOD,51.765489,-1.258720,110.786178,5736390.105361,620159.161664,-110.786178,30U,0.803444,1.646810,0.062852,-0.068566,-0.003478,1.117024
1403537856743133,INS_SOLUTION_GOOD,51.765489,-1.258719,110.784874,5736390.122273,620159.194262,-110.784874,30U,0.810415,1.657372,0.068485,-0.069090,-0.003203,1.117116
1403537856763015,INS_SOLUTION_GOOD,51.765489,-1.258719,110.783441,5736390.139415,620159.227130,-110.783441,30U,0.822184,1.665449,0.073860,-0.069761,-0.002951,1.117214
1403537856792057,INS_SOLUTION_GOOD,51.765489,-1.258718,110.781937,5736390.156780,620159.260062,-110.781937,30U,0.833432,1.668508,0.075957,-0.070404,-0.002776,1.117335
1403537856803281,INS_SOLUTION_GOOD,51.765489,-1.258718,110.780442,5736390.174368,620159.292988,-110.780442,30U,0.846004,1.668452,0.072405,-0.070914,-0.002673,1.117510
1403537856823523,INS_SOLUTION_GOOD,51.765489,-1.258717,110.779090,5736390.192179,620159.325910,-110.779090,30U,0.854557,1.669214,0.062410,-0.071194,-0.002673,1.117716
1403537856843469,INS_SOLUTION_GOOD,51.765490,-1.258717,110.777929,5736390.210102,620159.358897,-110.777929,30U,0.861949,1.670579,0.053453,-0.071284,-0.002798,1.117960
1403537856863516,INS_SOLUTION_GOOD,51.765490,-1.258716,110.777005,5736390.228137,620159.391882,-110.777005,30U,0.865160,1.673605,0.038913,-0.071226,-0.003026,1.118231
1403537856886142,INS_SOLUTION_GOOD,51.765490,-1.258716,110.776347,5736390.246285,620159.425003,-110.776347,30U,0.872103,1.681956,0.026199,-0.071302,-0.003382,1.118540
1403537856903248,INS_SOLUTION_GOOD,51.765490,-1.258715,110.775932,5736390.264662,620159.458325,-110.775932,30U,0.875474,1.689884,0.016658,-0.071498,-0.003879,1.118941
1403537856923638,INS_SOLUTION_GOOD,51.765490,-1.258715,110.775648,5736390.282930,620159.491788,-110.775648,30U,0.873765,1.698945,0.012523,-0.071810,-0.004356,1.119380
1403537856943395,INS_SOLUTION_GOOD,51.765490,-1.258714,110.775488,5736390.301091,620159.525391,-110.775488,30U,0.867633,1.706909,0.003705,-0.072118,-0.004842,1.119819
1403537856963283,INS_SOLUTION_GOOD,51.765490,-1.258714,110.775397,5736390.319256,620159.559201,-110.775397,30U,0.861698,1.714803,0.004714,-0.072596,-0.005289,1.120218
1403537856992378,INS_SOLUTION_GOOD,51.765491,-1.258713,110.775275,5736390.337201,620159.593086,-110.775275,30U,0.857788,1.720037,0.004903,-0.072939,-0.005667,1.120583
1403537857003372,INS_SOLUTION_GOOD,51.765491,-1.258713,110.775209,5736390.355149,620159.627109,-110.775209,30U,0.855081,1.727463,0.001447,-0.073038,-0.005943,1.120887
1403537857023526,INS_SOLUTION_GOOD,51.765491,-1.258712,110.775220,5736390.373100,620159.661269,-110.775220,30U,0.855900,1.728948,-0.003346,-0.072709,-0.006173,1.121182
1403537857043402,INS_SOLUTION_GOOD,51.765491,-1.258712,110.775359,5736390.390940,620159.695433,-110.775359,30U,0.850633,1.731481,-0.009229,-0.071998,-0.006338,1.121452
1403537857063272,INS_SOLUTION_GOOD,51.765491,-1.258711,110.775581,5736390.408784,620159.729734,-110.775581,30U,0.849954,1.736500,-0.014809,-0.071058,-0.006429,1.121698
1403537857085397,INS_SOLUTION_GOOD,51.765491,-1.258711,110.776013,5736390.426516,620159.764038,-110.776013,30U,0.841422,1.739543,-0.026309,-0.069886,-0.006523,1.121917
1403537857103497,INS_SOLUTION_GOOD,51.765492,-1.258710,110.776515,5736390.444142,620159.798552,-110.776515,30U,0.839319,1.750554,-0.023595,-0.068745,-0.006616,1.122101
1403537857123763,INS_SOLUTION_GOOD,51.765492,-1.258710,110.776983,5736390.461771,620159.833203,-110.776983,30U,0.831870,1.756210,-0.022215,-0.067528,-0.006592,1.122278
1403537857143237,INS_SOLUTION_GOOD,51.765492,-1.258709,110.777358,5736390.479181,620159.867998,-110.777358,30U,0.829852,1.768060,-0.014923,-0.066498,-0.006492,1.122416
1403537857163274,INS_SOLUTION_GOOD,51.765492,-1.258709,110.777590,5736390.496596,620159.903000,-110.777590,30U,0.828672,1.772988,-0.008792,-0.065590,-0.006334,1.122575
1403537857193165,INS_SOLUTION_GOOD,51.765492,-1.258708,110.777647,5736390.514014,620159.938140,-110.777647,30U,0.831421,1.779793,0.002510,-0.064921,-0.006086,1.122747
1403537857205163,INS_SOLUTION_GOOD,51.765492,-1.258708,110.777494,5736390.531545,620159.973346,-110.777494,30U,0.837860,1.781348,0.012299,-0.064403,-0.005798,1.122965
1403537857223953,INS_SOLUTION_GOOD,51.765492,-1.258707,110.777138,5736390.549188,620160.008550,-110.777138,30U,0.845721,1.784652,0.023410,-0.063982,-0.005426,1.123217
1403537857243530,INS_SOLUTION_GOOD,51.765493,-1.258707,110.776523,5736390.567165,620160.043815,-110.776523,30U,0.858076,1.784971,0.037455,-0.063621,-0.005001,1.123521
1403537857263733,INS_SOLUTION_GOOD,51.765493,-1.258706,110.775652,5736390.585254,620160.079077,-110.775652,30U,0.871379,1.786453,0.051151,-0.063237,-0.004508,1.123872
1403537857285412,INS_SOLUTION_GOOD,51.765493,-1.258706,110.774525,5736390.603678,620160.114400,-110.774525,30U,0.884675,1.783775,0.059597,-0.062869,-0.003909,1.124268
1403537857303282,INS_SOLUTION_GOOD,51.765493,-1.258705,110.773268,5736390.622322,620160.149580,-110.773268,30U,0.895872,1.783742,0.066760,-0.062485,-0.003349,1.124711
1403537857323611,INS_SOLUTION_GOOD,51.765493,-1.258705,110.915347,5736390.667723,620160.182325,-110.915347,30U,0.905399,1.784328,0.071004,-0.062336,-0.002770,1.125187
1403537857343400,INS_SOLUTION_GOOD,51.765494,-1.258704,110.913929,5736390.686701,620160.217566,-110.913929,30U,0.911756,1.787928,0.071055,-0.062401,-0.002266,1.125636
1403537857363164,INS_SOLUTION_GOOD,51.765494,-1.258704,110.912502,5736390.705906,620160.252940,-110.912502,30U,0.917715,1.793062,0.071101,-0.062696,-0.001836,1.126055
1403537857391841,INS_SOLUTION_GOOD,51.765494,-1.258703,110.911096,5736390.725111,620160.288382,-110.911096,30U,0.917282,1.797554,0.070180,-0.063097,-0.001486,1.126406
1403537857403415,INS_SOLUTION_GOOD,51.765494,-1.258703,110.909720,5736390.744209,620160.323965,-110.909720,30U,0.914508,1.802322,0.067848,-0.063683,-0.001199,1.126660
1403537857423538,INS_SOLUTION_GOOD,51.765494,-1.258702,110.908385,5736390.763309,620160.359618,-110.908385,30U,0.912388,1.808360,0.065331,-0.064223,-0.000925,1.126824
1403537857443406,INS_SOLUTION_GOOD,51.765494,-1.258702,110.907140,5736390.782410,620160.395339,-110.907140,30U,0.908817,1.814413,0.058713,-0.064826,-0.000748,1.126922
1403537857463777,INS_SOLUTION_GOOD,51.765495,-1.258701,110.906007,5736390.801405,620160.431269,-110.906007,30U,0.905158,1.823226,0.054436,-0.065482,-0.000590,1.126965
1403537857485537,INS_SOLUTION_GOOD,51.765495,-1.258701,110.904949,5736390.820404,620160.467338,-110.904949,30U,0.900736,1.829001,0.051059,-0.066243,-0.000482,1.126980
1403537857503129,INS_SOLUTION_GOOD,51.765495,-1.258700,110.903987,5736390.839183,620160.503550,-110.903987,30U,0.895859,1.834598,0.044625,-0.066917,-0.000366,1.126974
1403537857523165,INS_SOLUTION_GOOD,51.765495,-1.258700,110.903134,5736390.857963,620160.539832,-110.903134,30U,0.895066,1.839688,0.040478,-0.067499,-0.000272,1.126985
1403537857543160,INS_SOLUTION_GOOD,51.765495,-1.258699,110.902393,5736390.876748,620160.576251,-110.902393,30U,0.894330,1.842829,0.034386,-0.067885,-0.000173,1.127071
1403537857563411,INS_SOLUTION_GOOD,51.765495,-1.258698,110.901716,5736390.895532,620160.612670,-110.901716,30U,0.897473,1.848349,0.033790,-0.068066,-0.000072,1.127207
1403537857592376,INS_SOLUTION_GOOD,51.765496,-1.258698,110.901074,5736390.914430,620160.649224,-110.901074,30U,0.903436,1.850351,0.030837,-0.068061,0.000052,1.127440
1403537857603173,INS_SOLUTION_GOOD,51.765496,-1.258697,110.900449,5736390.933442,620160.685845,-110.900449,30U,0.910262,1.855944,0.030689,-0.068010,0.000157,1.127789
1403537857623336,INS_SOLUTION_GOOD,51.765496,-1.258697,110.899830,5736390.952566,620160.722532,-110.899830,30U,0.915270,1.859987,0.030633,-0.067875,0.000266,1.128218
1403537857643295,INS_SOLUTION_GOOD,51.765496,-1.258696,110.899206,5736390.971805,620160.759355,-110.899206,30U,0.920165,1.865485,0.031237,-0.067725,0.000360,1.128691
1403537857663790,INS_SOLUTION_GOOD,51.765496,-1.258696,110.898607,5736390.991045,620160.796246,-110.898607,30U,0.922811,1.868920,0.029056,-0.067576,0.000420,1.129196
1403537857685415,INS_SOLUTION_GOOD,51.765496,-1.258695,110.898047,5736391.010399,620160.833204,-110.898047,30U,0.922607,1.872912,0.026253,-0.067322,0.000489,1.129701
1403537857703167,INS_SOLUTION_GOOD,51.765497,-1.258695,110.897602,5736391.029754,620160.870231,-110.897602,30U,0.925860,1.875238,0.019613,-0.066877,0.000502,1.130187
1403537857723115,INS_SOLUTION_GOOD,51.765497,-1.258694,110.897281,5736391.049221,620160.907324,-110.897281,30U,0.927736,1.879865,0.012650,-0.066175,0.000529,1.130645
1403537857743291,INS_SOLUTION_GOOD,51.765497,-1.258694,110.897041,5736391.068691,620160.944486,-110.897041,30U,0.928502,1.883748,0.011054,-0.065319,0.000545,1.131110
1403537857763354,INS_SOLUTION_GOOD,51.765497,-1.258693,110.896843,5736391.088053,620160.981789,-110.896843,30U,0.925633,1.891431,0.006979,-0.064424,0.000573,1.131540
1403537857791123,INS_SOLUTION_GOOD,51.765497,-1.258692,110.896903,5736391.107416,620161.019161,-110.896903,30U,0.918444,1.891397,-0.014079,-0.063439,0.000480,1.131907
1403537857804510,INS_SOLUTION_GOOD,51.765497,-1.258692,110.897364,5736391.126669,620161.056605,-110.897364,30U,0.909539,1.902234,-0.031358,-0.062540,0.000220,1.132199
1403537857823426,INS_SOLUTION_GOOD,51.765498,-1.258691,110.898166,5736391.145596,620161.094332,-110.898166,30U,0.899126,1.913579,-0.046959,-0.061745,-0.000245,1.132443
1403537857843526,INS_SOLUTION_GOOD,51.765498,-1.258691,110.899148,5736391.164416,620161.132269,-110.899148,30U,0.889146,1.930904,-0.048780,-0.061330,-0.000762,1.132592
1403537857863183,INS_SOLUTION_GOOD,51.765498,-1.258690,110.900062,5736391.183135,620161.170623,-110.900062,30U,0.889065,1.945251,-0.041151,-0.061241,-0.001331,1.132706
1403537857885280,INS_SOLUTION_GOOD,51.765498,-1.258690,110.900723,5736391.201859,620161.209184,-110.900723,30U,0.892059,1.956924,-0.025421,-0.061343,-0.001761,1.132823
