timestamp,ins_status,latitude,longitude,altitude,northing,easting,down,utm_zone,velocity_north,velocity_east,velocity_down,roll,pitch,yaw
1403538149904435,INS_SOLUTION_GOOD,51.765469,-1.258783,110.443833,5736387.825246,620154.852467,-110.443833,30U,-0.010568,0.009960,0.000472,-0.067700,-0.007476,1.053109
1403538149923864,INS_SOLUTION_GOOD,51.765469,-1.258783,110.443820,5736387.825029,620154.852679,-110.443820,30U,-0.010730,0.009797,0.000870,-0.067703,-0.007477,1.053106
1403538149943853,INS_SOLUTION_GOOD,51.765469,-1.258783,110.443804,5736387.824811,620154.852891,-110.443804,30U,-0.010636,0.009870,0.000967,-0.067705,-0.007475,1.053104
1403538149963849,INS_SOLUTION_GOOD,51.765469,-1.258783,110.443784,5736387.824594,620154.853104,-110.443784,30U,-0.010650,0.009898,0.000997,-0.067708,-0.007475,1.053100
1403538149992937,INS_SOLUTION_GOOD,51.765469,-1.258783,110.443768,5736387.824375,620154.853247,-110.443768,30U,-0.010567,0.009700,0.000876,-0.067711,-0.007475,1.053096
1403538150003749,INS_SOLUTION_GOOD,51.765469,-1.258783,110.443754,5736387.824157,620154.853459,-110.443754,30U,-0.010375,0.009448,0.000548,-0.067715,-0.007475,1.053094
1403538150023825,INS_SOLUTION_GOOD,51.765469,-1.258783,110.443743,5736387.823940,620154.853672,-110.443743,30U,-0.010339,0.009469,0.000683,-0.067720,-0.007475,1.053094
1403538150043476,INS_SOLUTION_GOOD,51.765469,-1.258783,110.443733,5736387.823834,620154.853881,-110.443733,30U,-0.010265,0.009527,0.000364,-0.067724,-0.007477,1.053094
1403538150063721,INS_SOLUTION_GOOD,51.765469,-1.258783,110.443727,5736387.823615,620154.854025,-110.443727,30U,-0.010265,0.009482,0.000256,-0.067727,-0.007477,1.053098
1403538150086448,INS_SOLUTION_GOOD,51.765469,-1.258783,110.443724,5736387.823397,620154.854237,-110.443724,30U,-0.010446,0.009645,0.000153,-0.067724,-0.007477,1.053102
1403538150104819,INS_SOLUTION_GOOD,51.765469,-1.258783,110.443722,5736387.823180,620154.854449,-110.443722,30U,-0.010400,0.009444,-0.000068,-0.067723,-0.007474,1.053104
1403538150123463,INS_SOLUTION_GOOD,51.765469,-1.258783,110.443724,5736387.822962,620154.854662,-110.443724,30U,-0.010403,0.009520,0.000033,-0.067720,-0.007476,1.053108
1403538150143492,INS_SOLUTION_GOOD,51.765469,-1.258783,110.443724,5736387.822743,620154.854805,-110.443724,30U,-0.010594,0.009449,0.000035,-0.067717,-0.007478,1.053109
1403538150163865,INS_SOLUTION_GOOD,51.765469,-1.258783,110.443721,5736387.822526,620154.855017,-110.443721,30U,-0.010587,0.009436,0.000413,-0.067714,-0.007479,1.053109
1403538150193941,INS_SOLUTION_GOOD,51.765469,-1.258783,110.443715,5736387.822308,620154.855230,-110.443715,30U,-0.010994,0.009447,0.000307,-0.067709,-0.007481,1.053109
1403538150204250,INS_SOLUTION_GOOD,51.765469,-1.258783,110.443705,5736387.822091,620154.855442,-110.443705,30U,-0.011200,0.009483,0.000597,-0.067706,-0.007479,1.053108
1403538150224240,INS_SOLUTION_GOOD,51.765469,-1.258783,110.443692,5736387.821871,620154.855585,-110.443692,30U,-0.011272,0.009375,0.000929,-0.067702,-0.007477,1.053107
1403538150246089,INS_SOLUTION_GOOD,51.765469,-1.258783,110.443672,5736387.821654,620154.855797,-110.443672,30U,-0.011146,0.009284,0.001082,-0.067700,-0.007474,1.053106
1403538150263832,INS_SOLUTION_GOOD,51.765469,-1.258783,110.443650,5736387.821437,620154.856010,-110.443650,30U,-0.010939,0.009343,0.001320,-0.067697,-0.007470,1.053105
1403538150286905,INS_SOLUTION_GOOD,51.765469,-1.258783,110.443627,5736387.821217,620154.856153,-110.443627,30U,-0.010848,0.009524,0.001215,-0.067695,-0.007468,1.053103
1403538150304251,INS_SOLUTION_GOOD,51.765469,-1.258783,110.444358,5736387.831800,620154.847339,-110.444358,30U,-0.009157,0.008303,0.001051,-0.067708,-0.007461,1.053075
1403538150323870,INS_SOLUTION_GOOD,51.765469,-1.258783,110.444340,5736387.831581,620154.847483,-110.444340,30U,-0.008995,0.008263,0.000772,-0.067709,-0.007459,1.053075
1403538150343870,INS_SOLUTION_GOOD,51.765469,-1.258783,110.444532,5736387.831808,620154.847684,-110.444532,30U,-0.008746,0.008261,0.000603,-0.067713,-0.007459,1.053068
1403538150363846,INS_SOLUTION_GOOD,51.765469,-1.258783,110.444729,5736387.832147,620154.847883,-110.444729,30U,-0.008595,0.008275,0.000521,-0.067718,-0.007459,1.053060
1403538150392288,INS_SOLUTION_GOOD,51.765469,-1.258783,110.444722,5736387.831928,620154.848027,-110.444722,30U,-0.008594,0.008194,0.000275,-0.067724,-0.007461,1.053062
1403538150404339,INS_SOLUTION_GOOD,51.765469,-1.258783,110.444717,5736387.831710,620154.848239,-110.444717,30U,-0.008557,0.008207,0.000308,-0.067727,-0.007464,1.053063
1403538150423752,INS_SOLUTION_GOOD,51.765469,-1.258783,110.444713,5736387.831602,620154.848380,-110.444713,30U,-0.008695,0.008372,0.000132,-0.067728,-0.007468,1.053063
1403538150443875,INS_SOLUTION_GOOD,51.765469,-1.258783,110.444706,5736387.831383,620154.848523,-110.444706,30U,-0.008917,0.008349,0.000436,-0.067729,-0.007470,1.053064
1403538150464111,INS_SOLUTION_GOOD,51.765469,-1.258783,110.444698,5736387.831277,620154.848733,-110.444698,30U,-0.008884,0.008258,0.000562,-0.067730,-0.007472,1.053062
1403538150486876,INS_SOLUTION_GOOD,51.765469,-1.258783,110.444683,5736387.831058,620154.848876,-110.444683,30U,-0.009225,0.008432,0.000831,-0.067731,-0.007472,1.053062
1403538150504234,INS_SOLUTION_GOOD,51.765469,-1.258783,110.444663,5736387.830840,620154.849088,-110.444663,30U,-0.009609,0.008382,0.001169,-0.067733,-0.007470,1.053060
1403538150523492,INS_SOLUTION_GOOD,51.765469,-1.258783,110.444641,5736387.830733,620154.849229,-110.444641,30U,-0.009786,0.008310,0.001034,-0.067736,-0.007468,1.053057
1403538150543758,INS_SOLUTION_GOOD,51.765469,-1.258783,110.444618,5736387.830513,620154.849372,-110.444618,30U,-0.010016,0.008369,0.001263,-0.067739,-0.007467,1.053055
1403538150563707,INS_SOLUTION_GOOD,51.765469,-1.258783,110.444595,5736387.830296,620154.849585,-110.444595,30U,-0.009941,0.008152,0.001174,-0.067740,-0.007463,1.053051
1403538150592284,INS_SOLUTION_GOOD,51.765469,-1.258783,110.444572,5736387.830077,620154.849728,-110.444572,30U,-0.009946,0.007926,0.001003,-0.067740,-0.007461,1.053051
1403538150604051,INS_SOLUTION_GOOD,51.765469,-1.258783,110.444555,5736387.829969,620154.849869,-110.444555,30U,-0.009883,0.007934,0.000797,-0.067738,-0.007461,1.053052
1403538150623839,INS_SOLUTION_GOOD,51.765469,-1.258783,110.444542,5736387.829751,620154.850081,-110.444542,30U,-0.009766,0.008035,0.000469,-0.067734,-0.007460,1.053054
1403538150644032,INS_SOLUTION_GOOD,51.765469,-1.258783,110.444534,5736387.829532,620154.850224,-110.444534,30U,-0.009635,0.008173,0.000517,-0.067728,-0.007458,1.053057
1403538150663693,INS_SOLUTION_GOOD,51.765469,-1.258783,110.444528,5736387.829315,620154.850437,-110.444528,30U,-0.009563,0.008268,0.000210,-0.067723,-0.007460,1.053060
1403538150687215,INS_SOLUTION_GOOD,51.765469,-1.258783,110.444521,5736387.829207,620154.850577,-110.444521,30U,-0.009580,0.008363,0.000404,-0.067719,-0.007460,1.053062
1403538150704059,INS_SOLUTION_GOOD,51.765469,-1.258783,110.444515,5736387.828988,620154.850720,-110.444515,30U,-0.009604,0.008430,0.000268,-0.067718,-0.007458,1.053064
1403538150723719,INS_SOLUTION_GOOD,51.765469,-1.258783,110.444509,5736387.828770,620154.850933,-110.444509,30U,-0.009591,0.008398,0.000257,-0.067716,-0.007458,1.053062
1403538150743811,INS_SOLUTION_GOOD,51.765469,-1.258783,110.444503,5736387.828551,620154.851076,-110.444503,30U,-0.009583,0.008584,0.000358,-0.067717,-0.007459,1.053061
1403538150763754,INS_SOLUTION_GOOD,51.765469,-1.258783,110.444495,5736387.828445,620154.851286,-110.444495,30U,-0.009475,0.008549,0.000319,-0.067716,-0.007461,1.053059
1403538150793641,INS_SOLUTION_GOOD,51.765469,-1.258783,110.444488,5736387.828226,620154.851429,-110.444488,30U,-0.009469,0.008552,0.000443,-0.067714,-0.007464,1.053056
1403538150804264,INS_SOLUTION_GOOD,51.765469,-1.258783,110.444483,5736387.828008,620154.851641,-110.444483,30U,-0.009309,0.008458,0.000084,-0.067713,-0.007468,1.053051
1403538150823770,INS_SOLUTION_GOOD,51.765469,-1.258783,110.444480,5736387.827901,620154.851782,-110.444480,30U,-0.009243,0.008488,0.000165,-0.067713,-0.007472,1.053047
1403538150843881,INS_SOLUTION_GOOD,51.765469,-1.258783,110.444476,5736387.827683,620154.851994,-110.444476,30U,-0.009139,0.008245,0.000246,-0.067713,-0.007473,1.053048
1403538150863888,INS_SOLUTION_GOOD,51.765469,-1.258783,110.444470,5736387.827464,620154.852138,-110.444470,30U,-0.009126,0.008295,0.000347,-0.067714,-0.007473,1.053048
1403538150886848,INS_SOLUTION_GOOD,51.765469,-1.258783,110.444462,5736387.827356,620154.852278,-110.444462,30U,-0.009384,0.008380,0.000520,-0.067714,-0.007470,1.053047
1403538150904093,INS_SOLUTION_GOOD,51.765469,-1.258783,110.444453,5736387.827139,620154.852491,-110.444453,30U,-0.009248,0.008128,0.000336,-0.067718,-0.007469,1.053047
1403538150924001,INS_SOLUTION_GOOD,51.765469,-1.258783,110.444444,5736387.826919,620154.852634,-110.444444,30U,-0.009215,0.008235,0.000499,-0.067723,-0.007465,1.053048
1403538150943858,INS_SOLUTION_GOOD,51.765469,-1.258783,110.444437,5736387.826813,620154.852844,-110.444437,30U,-0.009079,0.008101,0.000233,-0.067726,-0.007465,1.053055
1403538150963893,INS_SOLUTION_GOOD,51.765469,-1.258783,110.444431,5736387.826594,620154.852987,-110.444431,30U,-0.009251,0.008355,0.000359,-0.067728,-0.007464,1.053058
1403538150992351,INS_SOLUTION_GOOD,51.765469,-1.258783,110.444428,5736387.826375,620154.853130,-110.444428,30U,-0.009360,0.008528,0.000117,-0.067729,-0.007465,1.053060
1403538151004022,INS_SOLUTION_GOOD,51.765469,-1.258783,110.444426,5736387.826269,620154.853340,-110.444426,30U,-0.009417,0.008475,-0.000184,-0.067729,-0.007467,1.053060
1403538151023900,INS_SOLUTION_GOOD,51.765469,-1.258783,110.444431,5736387.826050,620154.853483,-110.444431,30U,-0.009491,0.008606,-0.000274,-0.067728,-0.007469,1.053058
1403538151043850,INS_SOLUTION_GOOD,51.765469,-1.258783,110.444439,5736387.825832,620154.853696,-110.444439,30U,-0.009487,0.008739,-0.000577,-0.067727,-0.007473,1.053057
1403538151063851,INS_SOLUTION_GOOD,51.765469,-1.258783,110.444450,5736387.825724,620154.853836,-110.444450,30U,-0.009625,0.008842,-0.000505,-0.067725,-0.007477,1.053056
1403538151086815,INS_SOLUTION_GOOD,51.765469,-1.258783,110.444461,5736387.825507,620154.854049,-110.444461,30U,-0.009540,0.008795,-0.000569,-0.067724,-0.007479,1.053056
1403538151104038,INS_SOLUTION_GOOD,51.765469,-1.258783,110.444467,5736387.825288,620154.854192,-110.444467,30U,-0.009516,0.008749,-0.000050,-0.067723,-0.007480,1.053054
1403538151123680,INS_SOLUTION_GOOD,51.765469,-1.258783,110.444465,5736387.825070,620154.854404,-110.444465,30U,-0.009672,0.008619,0.000335,-0.067722,-0.007479,1.053051
1403538151143774,INS_SOLUTION_GOOD,51.765469,-1.258783,110.444454,5736387.824962,620154.854545,-110.444454,30U,-0.009551,0.008291,0.000579,-0.067722,-0.007478,1.053050
1403538151163897,INS_SOLUTION_GOOD,51.765469,-1.258783,110.444439,5736387.824745,620154.854757,-110.444439,30U,-0.009570,0.008313,0.001010,-0.067722,-0.007477,1.053054
1403538151193870,INS_SOLUTION_GOOD,51.765469,-1.258783,110.444417,5736387.824526,620154.854900,-110.444417,30U,-0.009526,0.008403,0.001098,-0.067720,-0.007477,1.053057
1403538151205280,INS_SOLUTION_GOOD,51.765469,-1.258783,110.444395,5736387.824419,620154.855110,-110.444395,30U,-0.009456,0.008470,0.001043,-0.067718,-0.007474,1.053060
1403538151224284,INS_SOLUTION_GOOD,51.765469,-1.258783,110.444377,5736387.824200,620154.855253,-110.444377,30U,-0.009426,0.008503,0.000796,-0.067717,-0.007473,1.053063
1403538151243967,INS_SOLUTION_GOOD,51.765469,-1.258783,110.444360,5736387.823983,620154.855466,-110.444360,30U,-0.009761,0.008411,0.000758,-0.067715,-0.007474,1.053064
1403538151263838,INS_SOLUTION_GOOD,51.765469,-1.258783,110.444349,5736387.823764,620154.855609,-110.444349,30U,-0.009839,0.008377,0.000400,-0.067715,-0.007474,1.053066
1403538151286856,INS_SOLUTION_GOOD,51.765469,-1.258783,110.445615,5736387.832590,620154.847804,-110.445615,30U,-0.008513,0.007344,0.000011,-0.067727,-0.007472,1.053053
1403538151304707,INS_SOLUTION_GOOD,51.765469,-1.258783,110.445613,5736387.832482,620154.847944,-110.445613,30U,-0.008634,0.007511,0.000195,-0.067728,-0.007471,1.053051
1403538151323733,INS_SOLUTION_GOOD,51.765469,-1.258783,110.445647,5736387.832378,620154.848223,-110.445647,30U,-0.008661,0.007356,-0.000002,-0.067729,-0.007471,1.053052
1403538151343734,INS_SOLUTION_GOOD,51.765469,-1.258783,110.445643,5736387.832158,620154.848366,-110.445643,30U,-0.008696,0.007496,0.000252,-0.067731,-0.007469,1.053050
1403538151363834,INS_SOLUTION_GOOD,51.765469,-1.258783,110.445675,5736387.832052,620154.848576,-110.445675,30U,-0.008838,0.007605,0.000146,-0.067732,-0.007467,1.053050
1403538151392978,INS_SOLUTION_GOOD,51.765469,-1.258783,110.445668,5736387.831944,620154.848717,-110.445668,30U,-0.008863,0.007417,0.000233,-0.067732,-0.007467,1.053047
1403538151403977,INS_SOLUTION_GOOD,51.765469,-1.258783,110.445662,5736387.831725,620154.848860,-110.445662,30U,-0.008743,0.007141,0.000398,-0.067732,-0.007465,1.053047
1403538151423850,INS_SOLUTION_GOOD,51.765469,-1.258783,110.445653,5736387.831619,620154.849070,-110.445653,30U,-0.008680,0.007142,0.000245,-0.067732,-0.007465,1.053046
1403538151443656,INS_SOLUTION_GOOD,51.765469,-1.258783,110.445647,5736387.831400,620154.849213,-110.445647,30U,-0.008680,0.006979,0.000271,-0.067732,-0.007467,1.053047
1403538151463890,INS_SOLUTION_GOOD,51.765469,-1.258783,110.445644,5736387.831292,620154.849354,-110.445644,30U,-0.008592,0.006965,0.000026,-0.067731,-0.007469,1.053051
1403538151486507,INS_SOLUTION_GOOD,51.765469,-1.258783,110.445641,5736387.831073,620154.849497,-110.445641,30U,-0.008640,0.007016,0.000095,-0.067731,-0.007472,1.053054
1403538151504634,INS_SOLUTION_GOOD,51.765469,-1.258783,110.445641,5736387.830854,620154.849640,-110.445641,30U,-0.008613,0.006933,0.000067,-0.067729,-0.007475,1.053057
1403538151523784,INS_SOLUTION_GOOD,51.765469,-1.258783,110.445637,5736387.830746,620154.849781,-110.445637,30U,-0.008749,0.007041,0.000072,-0.067729,-0.007477,1.053059
1403538151543911,INS_SOLUTION_GOOD,51.765469,-1.258783,110.445637,5736387.830527,620154.849924,-110.445637,30U,-0.008817,0.006982,0.000025,-0.067727,-0.007476,1.053060
1403538151563788,INS_SOLUTION_GOOD,51.765469,-1.258783,110.445636,5736387.830419,620154.850065,-110.445636,30U,-0.009027,0.007084,0.000009,-0.067726,-0.007475,1.053059
1403538151592881,INS_SOLUTION_GOOD,51.765469,-1.258783,110.445633,5736387.830200,620154.850208,-110.445633,30U,-0.009151,0.007006,0.000201,-0.067725,-0.007474,1.053055
1403538151604146,INS_SOLUTION_GOOD,51.765469,-1.258783,110.445630,5736387.829980,620154.850352,-110.445630,30U,-0.008907,0.006948,0.000125,-0.067723,-0.007472,1.053054
1403538151623880,INS_SOLUTION_GOOD,51.765469,-1.258783,110.445627,5736387.829873,620154.850492,-110.445627,30U,-0.008882,0.006871,0.000091,-0.067720,-0.007471,1.053050
1403538151643916,INS_SOLUTION_GOOD,51.765469,-1.258783,110.445623,5736387.829653,620154.850636,-110.445623,30U,-0.008971,0.006922,0.000220,-0.067716,-0.007471,1.053045
1403538151664166,INS_SOLUTION_GOOD,51.765469,-1.258783,110.445619,5736387.829546,620154.850776,-110.445619,30U,-0.008943,0.006736,-0.000012,-0.067713,-0.007472,1.053045
1403538151686887,INS_SOLUTION_GOOD,51.765469,-1.258783,110.445617,5736387.829326,620154.850920,-110.445617,30U,-0.008796,0.006624,0.000295,-0.067708,-0.007474,1.053044
1403538151704146,INS_SOLUTION_GOOD,51.765469,-1.258783,110.445612,5736387.829107,620154.851063,-110.445612,30U,-0.008663,0.006744,0.000183,-0.067708,-0.007477,1.053043
1403538151723413,INS_SOLUTION_GOOD,51.765469,-1.258783,110.445607,5736387.828999,620154.851203,-110.445607,30U,-0.008625,0.006510,0.000274,-0.067706,-0.007476,1.053047
1403538151743687,INS_SOLUTION_GOOD,51.765469,-1.258783,110.445603,5736387.828780,620154.851347,-110.445603,30U,-0.008732,0.006655,0.000103,-0.067709,-0.007477,1.053050
1403538151763925,INS_SOLUTION_GOOD,51.765469,-1.258783,110.445598,5736387.828671,620154.851418,-110.445598,30U,-0.008663,0.006395,0.000186,-0.067712,-0.007477,1.053053
1403538151793205,INS_SOLUTION_GOOD,51.765469,-1.258783,110.445593,5736387.828452,620154.851562,-110.445593,30U,-0.008550,0.006373,0.000384,-0.067715,-0.007477,1.053054
1403538151804087,INS_SOLUTION_GOOD,51.765469,-1.258783,110.445585,5736387.828344,620154.851702,-110.445585,30U,-0.008530,0.006306,0.000235,-0.067719,-0.007475,1.053058
1403538151823878,INS_SOLUTION_GOOD,51.765469,-1.258783,110.445578,5736387.828125,620154.851846,-110.445578,30U,-0.008606,0.006493,0.000384,-0.067719,-0.007473,1.053060
1403538151844007,INS_SOLUTION_GOOD,51.765469,-1.258783,110.445571,5736387.828017,620154.851986,-110.445571,30U,-0.008640,0.006792,0.000291,-0.067719,-0.007474,1.053059
1403538151863847,INS_SOLUTION_GOOD,51.765469,-1.258783,110.445563,5736387.827798,620154.852130,-110.445563,30U,-0.009050,0.006834,0.000412,-0.067718,-0.007473,1.053057
1403538151887002,INS_SOLUTION_GOOD,51.765469,-1.258783,110.445556,5736387.827578,620154.852273,-110.445556,30U,-0.009176,0.006857,0.000336,-0.067719,-0.007474,1.053056
1403538151904137,INS_SOLUTION_GOOD,51.765469,-1.258783,110.445551,5736387.827471,620154.852414,-110.445551,30U,-0.009253,0.007030,0.000050,-0.067718,-0.007475,1.053053
1403538151923727,INS_SOLUTION_GOOD,51.765469,-1.258783,110.445548,5736387.827251,620154.852557,-110.445548,30U,-0.009452,0.006984,0.000204,-0.067718,-0.007473,1.053048
1403538151943762,INS_SOLUTION_GOOD,51.765469,-1.258783,110.445543,5736387.827032,620154.852700,-110.445543,30U,-0.009548,0.006819,0.000202,-0.067717,-0.007473,1.053048
1403538151963762,INS_SOLUTION_GOOD,51.765469,-1.258783,110.445534,5736387.826924,620154.852841,-110.445534,30U,-0.009556,0.006709,0.000576,-0.067716,-0.007474,1.053049
1403538151992969,INS_SOLUTION_GOOD,51.765469,-1.258783,110.445523,5736387.826705,620154.852984,-110.445523,30U,-0.009411,0.006863,0.000627,-0.067715,-0.007471,1.053049
1403538152003881,INS_SOLUTION_GOOD,51.765469,-1.258783,110.445510,5736387.826486,620154.853128,-110.445510,30U,-0.009480,0.006935,0.000423,-0.067714,-0.007470,1.053052
1403538152023721,INS_SOLUTION_GOOD,51.765469,-1.258783,110.445502,5736387.826267,620154.853271,-110.445502,30U,-0.009520,0.006844,0.000366,-0.067714,-0.007470,1.053054
1403538152043640,INS_SOLUTION_GOOD,51.765469,-1.258783,110.445496,5736387.826159,620154.853412,-110.445496,30U,-0.009543,0.006835,0.000138,-0.067710,-0.007469,1.053058
1403538152063885,INS_SOLUTION_GOOD,51.765469,-1.258783,110.445492,5736387.825940,620154.853555,-110.445492,30U,-0.009594,0.006699,0.000090,-0.067707,-0.007469,1.053059
1403538152087133,INS_SOLUTION_GOOD,51.765469,-1.258783,110.445494,5736387.825721,620154.853698,-110.445494,30U,-0.009655,0.006809,-0.000184,-0.067706,-0.007472,1.053058
1403538152104097,INS_SOLUTION_GOOD,51.765469,-1.258783,110.445496,5736387.825613,620154.853839,-110.445496,30U,-0.009532,0.006795,-0.000231,-0.067705,-0.007472,1.053057
1403538152123746,INS_SOLUTION_GOOD,51.765469,-1.258783,110.445500,5736387.825394,620154.853982,-110.445500,30U,-0.009515,0.006799,-0.000211,-0.067703,-0.007473,1.053055
1403538152143613,INS_SOLUTION_GOOD,51.765469,-1.258783,110.445507,5736387.825175,620154.854125,-110.445507,30U,-0.009638,0.006780,-0.000555,-0.067704,-0.007475,1.053052
1403538152163773,INS_SOLUTION_GOOD,51.765469,-1.258783,110.445516,5736387.824956,620154.854269,-110.445516,30U,-0.009632,0.006666,-0.000444,-0.067703,-0.007476,1.053051
1403538152194015,INS_SOLUTION_GOOD,51.765469,-1.258783,110.445529,5736387.824848,620154.854409,-110.445529,30U,-0.009499,0.006777,-0.000775,-0.067703,-0.007477,1.053051
1403538152205986,INS_SOLUTION_GOOD,51.765469,-1.258783,110.445542,5736387.824629,620154.854553,-110.445542,30U,-0.009518,0.006804,-0.000830,-0.067704,-0.007478,1.053048
1403538152224235,INS_SOLUTION_GOOD,51.765469,-1.258783,110.445558,5736387.824409,620154.854696,-110.445558,30U,-0.009600,0.006644,-0.000775,-0.067704,-0.007477,1.053048
1403538152243773,INS_SOLUTION_GOOD,51.765469,-1.258783,110.445573,5736387.824189,620154.854770,-110.445573,30U,-0.009914,0.006494,-0.000901,-0.067707,-0.007477,1.053050
1403538152263724,INS_SOLUTION_GOOD,51.765469,-1.258783,110.445588,5736387.824081,620154.854911,-110.445588,30U,-0.009960,0.006455,-0.000657,-0.067709,-0.007474,1.053049
1403538152287142,INS_SOLUTION_GOOD,51.765469,-1.258783,110.445601,5736387.823862,620154.855054,-110.445601,30U,-0.010088,0.006191,-0.000637,-0.067714,-0.007474,1.053049
1403538152304901,INS_SOLUTION_GOOD,51.765469,-1.258783,110.445281,5736387.833065,620154.849035,-110.445281,30U,-0.008775,0.005175,-0.000453,-0.067730,-0.007470,1.053025
1403538152323732,INS_SOLUTION_GOOD,51.765469,-1.258783,110.445480,5736387.833299,620154.849513,-110.445480,30U,-0.008976,0.005305,-0.000476,-0.067732,-0.007467,1.053018
1403538152343770,INS_SOLUTION_GOOD,51.765469,-1.258783,110.445490,5736387.833189,620154.849585,-110.445490,30U,-0.008910,0.005287,-0.000821,-0.067732,-0.007467,1.053020
1403538152363900,INS_SOLUTION_GOOD,51.765469,-1.258783,110.445695,5736387.833423,620154.850062,-110.445695,30U,-0.008941,0.005465,-0.000742,-0.067729,-0.007470,1.053011
1403538152393022,INS_SOLUTION_GOOD,51.765469,-1.258783,110.445712,5736387.833315,620154.850203,-110.445712,30U,-0.008874,0.005620,-0.001082,-0.067722,-0.007469,1.053010
1403538152403769,INS_SOLUTION_GOOD,51.765469,-1.258783,110.445730,5736387.833096,620154.850346,-110.445730,30U,-0.008903,0.005629,-0.000935,-0.067720,-0.007471,1.053013
1403538152423898,INS_SOLUTION_GOOD,51.765469,-1.258783,110.445748,5736387.832875,620154.850421,-110.445748,30U,-0.009097,0.005540,-0.000948,-0.067719,-0.007471,1.053012
1403538152443531,INS_SOLUTION_GOOD,51.765469,-1.258783,110.445765,5736387.832767,620154.850561,-110.445765,30U,-0.009045,0.005570,-0.000991,-0.067720,-0.007471,1.053009
1403538152463657,INS_SOLUTION_GOOD,51.765469,-1.258783,110.445785,5736387.832546,620154.850636,-110.445785,30U,-0.009047,0.005564,-0.000928,-0.067720,-0.007475,1.053010
1403538152487021,INS_SOLUTION_GOOD,51.765469,-1.258783,110.445801,5736387.832439,620154.850776,-110.445801,30U,-0.009197,0.005510,-0.000807,-0.067720,-0.007477,1.053010
1403538152504031,INS_SOLUTION_GOOD,51.765469,-1.258783,110.445814,5736387.832219,620154.850919,-110.445814,30U,-0.009174,0.005353,-0.000515,-0.067716,-0.007477,1.053009
1403538152523525,INS_SOLUTION_GOOD,51.765469,-1.258783,110.445823,5736387.831999,620154.850994,-110.445823,30U,-0.009262,0.005271,-0.000462,-0.067712,-0.007476,1.053006
1403538152543774,INS_SOLUTION_GOOD,51.765469,-1.258783,110.445829,5736387.831891,620154.851134,-110.445829,30U,-0.009123,0.005230,-0.000384,-0.067709,-0.007473,1.053006
1403538152563783,INS_SOLUTION_GOOD,51.765469,-1.258783,110.445837,5736387.831670,620154.851209,-110.445837,30U,-0.008908,0.005232,-0.000508,-0.067705,-0.007474,1.053009
1403538152592866,INS_SOLUTION_GOOD,51.765469,-1.258783,110.445848,5736387.831451,620154.851352,-110.445848,30U,-0.008717,0.005150,-0.000710,-0.067706,-0.007470,1.053011
1403538152603867,INS_SOLUTION_GOOD,51.765469,-1.258783,110.445861,5736387.831341,620154.851424,-110.445861,30U,-0.008790,0.005252,-0.000623,-0.067710,-0.007467,1.053012
1403538152623907,INS_SOLUTION_GOOD,51.765469,-1.258783,110.445877,5736387.831122,620154.851567,-110.445877,30U,-0.008571,0.005273,-0.001000,-0.067713,-0.007466,1.053011
1403538152643492,INS_SOLUTION_GOOD,51.765469,-1.258783,110.445897,5736387.831013,620154.851639,-110.445897,30U,-0.008569,0.005273,-0.001138,-0.067720,-0.007465,1.053013
1403538152663526,INS_SOLUTION_GOOD,51.765469,-1.258783,110.445924,5736387.830794,620154.851782,-110.445924,30U,-0.008613,0.005414,-0.001510,-0.067723,-0.007466,1.053015
1403538152686538,INS_SOLUTION_GOOD,51.765469,-1.258783,110.445953,5736387.830684,620154.851854,-110.445953,30U,-0.008687,0.005622,-0.001515,-0.067725,-0.007466,1.053013
1403538152704123,INS_SOLUTION_GOOD,51.765469,-1.258783,110.445981,5736387.830465,620154.851997,-110.445981,30U,-0.008910,0.005660,-0.001334,-0.067727,-0.007465,1.053012
1403538152723667,INS_SOLUTION_GOOD,51.765469,-1.258783,110.446010,5736387.830246,620154.852140,-110.446010,30U,-0.008906,0.005730,-0.001616,-0.067726,-0.007464,1.053012
1403538152743708,INS_SOLUTION_GOOD,51.765469,-1.258783,110.446035,5736387.830136,620154.852212,-110.446035,30U,-0.009037,0.005644,-0.000917,-0.067723,-0.007466,1.053010
1403538152763659,INS_SOLUTION_GOOD,51.765469,-1.258783,110.446054,5736387.829917,620154.852355,-110.446054,30U,-0.009229,0.005627,-0.000890,-0.067722,-0.007467,1.053010
1403538152793462,INS_SOLUTION_GOOD,51.765469,-1.258783,110.446069,5736387.829809,620154.852496,-110.446069,30U,-0.009198,0.005687,-0.000672,-0.067722,-0.007466,1.053012
1403538152803962,INS_SOLUTION_GOOD,51.765469,-1.258783,110.446082,5736387.829588,620154.852570,-110.446082,30U,-0.009332,0.005714,-0.000566,-0.067724,-0.007467,1.053010
1403538152823717,INS_SOLUTION_GOOD,51.765469,-1.258783,110.446092,5736387.829369,620154.852714,-110.446092,30U,-0.009579,0.005726,-0.000591,-0.067724,-0.007467,1.053013
1403538152843833,INS_SOLUTION_GOOD,51.765469,-1.258783,110.446104,5736387.829150,620154.852857,-110.446104,30U,-0.009747,0.005663,-0.000690,-0.067727,-0.007465,1.053014
1403538152863945,INS_SOLUTION_GOOD,51.765469,-1.258783,110.446121,5736387.829041,620154.852929,-110.446121,30U,-0.009816,0.005713,-0.001016,-0.067727,-0.007463,1.053016
1403538152886212,INS_SOLUTION_GOOD,51.765469,-1.258783,110.446141,5736387.828821,620154.853072,-110.446141,30U,-0.009829,0.005839,-0.001049,-0.067724,-0.007463,1.053019
1403538152904168,INS_SOLUTION_GOOD,51.765469,-1.258783,110.446162,5736387.828602,620154.853215,-110.446162,30U,-0.009881,0.005856,-0.001021,-0.067724,-0.007461,1.053022
1403538152923341,INS_SOLUTION_GOOD,51.765469,-1.258783,110.446181,5736387.828382,620154.853289,-110.446181,30U,-0.009725,0.005789,-0.001164,-0.067720,-0.007460,1.053021
1403538152943710,INS_SOLUTION_GOOD,51.765469,-1.258783,110.446203,5736387.828274,620154.853430,-110.446203,30U,-0.009683,0.005927,-0.000985,-0.067717,-0.007461,1.053022
1403538152963805,INS_SOLUTION_GOOD,51.765469,-1.258783,110.446224,5736387.828055,620154.853573,-110.446224,30U,-0.009780,0.005784,-0.001146,-0.067717,-0.007462,1.053021
1403538152992860,INS_SOLUTION_GOOD,51.765469,-1.258783,110.446243,5736387.827834,620154.853648,-110.446243,30U,-0.009673,0.006009,-0.000980,-0.067715,-0.007463,1.053021
1403538153003843,INS_SOLUTION_GOOD,51.765469,-1.258783,110.446264,5736387.827615,620154.853791,-110.446264,30U,-0.009594,0.005926,-0.000991,-0.067713,-0.007462,1.053018
1403538153023649,INS_SOLUTION_GOOD,51.765469,-1.258783,110.446283,5736387.827507,620154.853932,-110.446283,30U,-0.009412,0.005681,-0.001070,-0.067713,-0.007461,1.053014
1403538153043563,INS_SOLUTION_GOOD,51.765469,-1.258783,110.446302,5736387.827286,620154.854006,-110.446302,30U,-0.009395,0.005561,-0.000722,-0.067713,-0.007461,1.053012
1403538153064084,INS_SOLUTION_GOOD,51.765469,-1.258783,110.446315,5736387.827067,620154.854149,-110.446315,30U,-0.009142,0.005462,-0.000734,-0.067711,-0.007464,1.053012
1403538153087050,INS_SOLUTION_GOOD,51.765469,-1.258783,110.446330,5736387.826959,620154.854290,-110.446330,30U,-0.009004,0.005379,-0.000704,-0.067712,-0.007466,1.053013
1403538153103966,INS_SOLUTION_GOOD,51.765469,-1.258783,110.446345,5736387.826738,620154.854364,-110.446345,30U,-0.008833,0.005325,-0.000781,-0.067711,-0.007464,1.053016
1403538153123954,INS_SOLUTION_GOOD,51.765469,-1.258783,110.446357,5736387.826519,620154.854508,-110.446357,30U,-0.008970,0.005295,-0.000573,-0.067710,-0.007465,1.053017
1403538153143945,INS_SOLUTION_GOOD,51.765469,-1.258783,110.446369,5736387.826410,620154.854579,-110.446369,30U,-0.009062,0.005260,-0.000501,-0.067712,-0.007465,1.053015
1403538153163859,INS_SOLUTION_GOOD,51.765469,-1.258783,110.446377,5736387.826190,620154.854723,-110.446377,30U,-0.008889,0.005147,-0.000474,-0.067714,-0.007466,1.053016
1403538153193856,INS_SOLUTION_GOOD,51.765469,-1.258783,110.446383,5736387.826081,620154.854794,-110.446383,30U,-0.008840,0.004858,-0.000257,-0.067716,-0.007468,1.053021
1403538153205815,INS_SOLUTION_GOOD,51.765469,-1.258783,110.446392,5736387.825862,620154.854938,-110.446392,30U,-0.008926,0.004755,-0.000620,-0.067719,-0.007466,1.053023
1403538153224288,INS_SOLUTION_GOOD,51.765469,-1.258783,110.446402,5736387.825641,620154.855012,-110.446402,30U,-0.009096,0.004831,-0.000609,-0.067721,-0.007467,1.053024
1403538153243935,INS_SOLUTION_GOOD,51.765469,-1.258783,110.446415,5736387.825531,620154.855084,-110.446415,30U,-0.009292,0.004903,-0.000653,-0.067723,-0.007467,1.053020
1403538153263884,INS_SOLUTION_GOOD,51.765469,-1.258783,110.446428,5736387.825312,620154.855227,-110.446428,30U,-0.009330,0.004817,-0.000890,-0.067723,-0.007465,1.053017
1403538153286925,INS_SOLUTION_GOOD,51.765469,-1.258783,110.446320,5736387.833439,620154.850752,-110.446320,30U,-0.008251,0.004467,-0.000695,-0.067734,-0.007465,1.052997
1403538153304684,INS_SOLUTION_GOOD,51.765469,-1.258783,110.446334,5736387.833219,620154.850827,-110.446334,30U,-0.008399,0.004328,-0.000747,-0.067733,-0.007462,1.052997
1403538153323935,INS_SOLUTION_GOOD,51.765469,-1.258783,110.446304,5736387.833001,620154.851039,-110.446304,30U,-0.008420,0.004569,-0.000631,-0.067731,-0.007462,1.052991
1403538153344182,INS_SOLUTION_GOOD,51.765469,-1.258783,110.446315,5736387.832893,620154.851180,-110.446315,30U,-0.008268,0.004558,-0.000425,-0.067729,-0.007460,1.052989
1403538153363813,INS_SOLUTION_GOOD,51.765469,-1.258783,110.446279,5736387.832676,620154.851392,-110.446279,30U,-0.008226,0.004655,-0.000252,-0.067724,-0.007461,1.052984
1403538153392813,INS_SOLUTION_GOOD,51.765469,-1.258783,110.446284,5736387.832568,620154.851533,-110.446284,30U,-0.008415,0.004727,-0.000180,-0.067720,-0.007460,1.052986
1403538153403800,INS_SOLUTION_GOOD,51.765469,-1.258783,110.446291,5736387.832347,620154.851607,-110.446291,30U,-0.008338,0.004798,-0.000453,-0.067717,-0.007459,1.052988
1403538153423804,INS_SOLUTION_GOOD,51.765469,-1.258783,110.446301,5736387.832239,620154.851748,-110.446301,30U,-0.008511,0.004680,-0.000587,-0.067713,-0.007458,1.052992
1403538153443976,INS_SOLUTION_GOOD,51.765469,-1.258783,110.446317,5736387.832018,620154.851822,-110.446317,30U,-0.008466,0.004698,-0.000920,-0.067712,-0.007461,1.052992
1403538153463956,INS_SOLUTION_GOOD,51.765469,-1.258783,110.446335,5736387.831909,620154.851893,-110.446335,30U,-0.008419,0.004483,-0.001030,-0.067709,-0.007465,1.052995
1403538153486828,INS_SOLUTION_GOOD,51.765469,-1.258783,110.446356,5736387.831690,620154.852037,-110.446356,30U,-0.008436,0.004581,-0.000975,-0.067711,-0.007466,1.052996
1403538153504073,INS_SOLUTION_GOOD,51.765469,-1.258783,110.446376,5736387.831580,620154.852108,-110.446376,30U,-0.008140,0.004552,-0.001074,-0.067712,-0.007469,1.052995
1403538153523612,INS_SOLUTION_GOOD,51.765469,-1.258783,110.446397,5736387.831359,620154.852183,-110.446397,30U,-0.008200,0.004404,-0.001060,-0.067712,-0.007471,1.052995
1403538153543962,INS_SOLUTION_GOOD,51.765469,-1.258783,110.446419,5736387.831250,620154.852254,-110.446419,30U,-0.008340,0.004339,-0.001028,-0.067715,-0.007473,1.052996
1403538153563953,INS_SOLUTION_GOOD,51.765469,-1.258783,110.446438,5736387.831031,620154.852398,-110.446438,30U,-0.008381,0.004293,-0.000853,-0.067716,-0.007474,1.052995
1403538153592743,INS_SOLUTION_GOOD,51.765469,-1.258783,110.446457,5736387.830921,620154.852469,-110.446457,30U,-0.008591,0.004179,-0.000953,-0.067717,-0.007472,1.052995
1403538153603853,INS_SOLUTION_GOOD,51.765469,-1.258783,110.446473,5736387.830700,620154.852544,-110.446473,30U,-0.008532,0.004311,-0.000725,-0.067717,-0.007470,1.052996
1403538153623965,INS_SOLUTION_GOOD,51.765469,-1.258783,110.446483,5736387.830591,620154.852615,-110.446483,30U,-0.008402,0.004270,-0.000210,-0.067719,-0.007469,1.052995
1403538153643654,INS_SOLUTION_GOOD,51.765469,-1.258783,110.446489,5736387.830372,620154.852759,-110.446489,30U,-0.008293,0.004220,-0.000359,-0.067722,-0.007466,1.052995
1403538153663735,INS_SOLUTION_GOOD,51.765469,-1.258783,110.446495,5736387.830262,620154.852830,-110.446495,30U,-0.008355,0.004093,-0.000346,-0.067726,-0.007463,1.052995
1403538153686970,INS_SOLUTION_GOOD,51.765469,-1.258783,110.446504,5736387.830041,620154.852905,-110.446504,30U,-0.008344,0.004276,-0.000465,-0.067728,-0.007462,1.052995
1403538153703991,INS_SOLUTION_GOOD,51.765469,-1.258783,110.446512,5736387.829932,620154.852976,-110.446512,30U,-0.008239,0.004301,-0.000483,-0.067730,-0.007461,1.052997
1403538153723603,INS_SOLUTION_GOOD,51.765469,-1.258783,110.446520,5736387.829713,620154.853120,-110.446520,30U,-0.008262,0.004634,-0.000240,-0.067732,-0.007458,1.052999
1403538153743636,INS_SOLUTION_GOOD,51.765469,-1.258783,110.446528,5736387.829603,620154.853191,-110.446528,30U,-0.008354,0.004829,-0.000528,-0.067731,-0.007458,1.053000
1403538153763742,INS_SOLUTION_GOOD,51.765469,-1.258783,110.446537,5736387.829382,620154.853266,-110.446537,30U,-0.008411,0.005024,-0.000352,-0.067730,-0.007461,1.053001
1403538153793338,INS_SOLUTION_GOOD,51.765469,-1.258783,110.446546,5736387.829275,620154.853406,-110.446546,30U,-0.008533,0.005232,-0.000553,-0.067727,-0.007464,1.053004
1403538153803844,INS_SOLUTION_GOOD,51.765469,-1.258783,110.446555,5736387.829054,620154.853481,-110.446555,30U,-0.008581,0.005361,-0.000464,-0.067725,-0.007467,1.053005
1403538153823827,INS_SOLUTION_GOOD,51.765469,-1.258783,110.446564,5736387.828835,620154.853624,-110.446564,30U,-0.008676,0.005320,-0.000418,-0.067721,-0.007472,1.053002
1403538153843595,INS_SOLUTION_GOOD,51.765469,-1.258783,110.446574,5736387.828727,620154.853765,-110.446574,30U,-0.008706,0.005453,-0.000495,-0.067716,-0.007474,1.053000
1403538153863738,INS_SOLUTION_GOOD,51.765469,-1.258783,110.446583,5736387.828506,620154.853839,-110.446583,30U,-0.009022,0.005675,-0.000356,-0.067711,-0.007477,1.053000
1403538153886219,INS_SOLUTION_GOOD,51.765469,-1.258783,110.446591,5736387.828398,620154.853979,-110.446591,30U,-0.009346,0.005632,-0.000544,-0.067709,-0.007481,1.052997
1403538153904598,INS_SOLUTION_GOOD,51.765469,-1.258783,110.446599,5736387.828177,620154.854054,-110.446599,30U,-0.009239,0.005550,-0.000341,-0.067707,-0.007481,1.052996
1403538153924008,INS_SOLUTION_GOOD,51.765469,-1.258783,110.446603,5736387.827958,620154.854197,-110.446603,30U,-0.009468,0.005400,0.000012,-0.067705,-0.007479,1.052997
1403538153943896,INS_SOLUTION_GOOD,51.765469,-1.258783,110.446601,5736387.827850,620154.854338,-110.446601,30U,-0.009364,0.005247,-0.000034,-0.067704,-0.007476,1.052997
1403538153963967,INS_SOLUTION_GOOD,51.765469,-1.258783,110.446601,5736387.827629,620154.854412,-110.446601,30U,-0.009287,0.005008,0.000163,-0.067702,-0.007473,1.052998
1403538153992707,INS_SOLUTION_GOOD,51.765469,-1.258783,110.446598,5736387.827409,620154.854486,-110.446598,30U,-0.009066,0.004990,0.000109,-0.067700,-0.007469,1.052998
1403538154003793,INS_SOLUTION_GOOD,51.765469,-1.258783,110.446595,5736387.827301,620154.854627,-110.446595,30U,-0.008959,0.004994,0.000199,-0.067701,-0.007466,1.053000
1403538154023964,INS_SOLUTION_GOOD,51.765469,-1.258783,110.446593,5736387.827080,620154.854701,-110.446593,30U,-0.008842,0.005054,0.000115,-0.067702,-0.007463,1.053002
1403538154043838,INS_SOLUTION_GOOD,51.765469,-1.258783,110.446592,5736387.826972,620154.854842,-110.446592,30U,-0.008604,0.005042,-0.000241,-0.067701,-0.007464,1.053000
1403538154063586,INS_SOLUTION_GOOD,51.765469,-1.258783,110.446599,5736387.826751,620154.854916,-110.446599,30U,-0.008460,0.004960,-0.000474,-0.067707,-0.007464,1.053000
1403538154086335,INS_SOLUTION_GOOD,51.765469,-1.258783,110.446612,5736387.826532,620154.855060,-110.446612,30U,-0.008509,0.004954,-0.000833,-0.067710,-0.007465,1.052999
1403538154104561,INS_SOLUTION_GOOD,51.765469,-1.258783,110.446628,5736387.826423,620154.855131,-110.446628,30U,-0.008472,0.005108,-0.000816,-0.067715,-0.007468,1.052999
1403538154123896,INS_SOLUTION_GOOD,51.765469,-1.258783,110.446645,5736387.826204,620154.855275,-110.446645,30U,-0.008390,0.005072,-0.000815,-0.067717,-0.007471,1.052997
1403538154143843,INS_SOLUTION_GOOD,51.765469,-1.258783,110.446660,5736387.826094,620154.855346,-110.446660,30U,-0.008604,0.005052,-0.000868,-0.067718,-0.007476,1.052992
1403538154163965,INS_SOLUTION_GOOD,51.765469,-1.258783,110.446677,5736387.825875,620154.855490,-110.446677,30U,-0.008606,0.005140,-0.000743,-0.067719,-0.007478,1.052992
1403538154193819,INS_SOLUTION_GOOD,51.765469,-1.258783,110.446691,5736387.825765,620154.855561,-110.446691,30U,-0.008689,0.005238,-0.000717,-0.067716,-0.007481,1.052990
1403538154206418,INS_SOLUTION_GOOD,51.765469,-1.258783,110.446700,5736387.825546,620154.855705,-110.446700,30U,-0.008870,0.005177,-0.000115,-0.067714,-0.007483,1.052990
1403538154224216,INS_SOLUTION_GOOD,51.765469,-1.258783,110.446702,5736387.825437,620154.855776,-110.446702,30U,-0.008889,0.005298,-0.000114,-0.067712,-0.007482,1.052990
1403538154243842,INS_SOLUTION_GOOD,51.765469,-1.258783,110.446700,5736387.825218,620154.855920,-110.446700,30U,-0.009017,0.005153,0.000257,-0.067711,-0.007481,1.052990
1403538154263711,INS_SOLUTION_GOOD,51.765469,-1.258783,110.446697,5736387.824997,620154.855994,-110.446697,30U,-0.009057,0.004940,0.000200,-0.067712,-0.007477,1.052991
1403538154286969,INS_SOLUTION_GOOD,51.765469,-1.258783,110.446694,5736387.824887,620154.856065,-110.446694,30U,-0.009158,0.004869,0.000138,-0.067714,-0.007476,1.052993
1403538154304460,INS_SOLUTION_GOOD,51.765469,-1.258783,110.446390,5736387.833225,620154.851103,-110.446390,30U,-0.007895,0.004190,0.000124,-0.067724,-0.007474,1.052972
1403538154323974,INS_SOLUTION_GOOD,51.765469,-1.258783,110.446590,5736387.833449,620154.851166,-110.446590,30U,-0.007818,0.004082,-0.000109,-0.067725,-0.007472,1.052965
1403538154343970,INS_SOLUTION_GOOD,51.765469,-1.258783,110.446591,5736387.833340,620154.851238,-110.446591,30U,-0.008198,0.004013,0.000031,-0.067724,-0.007469,1.052965
1403538154363928,INS_SOLUTION_GOOD,51.765469,-1.258783,110.446792,5736387.833565,620154.851371,-110.446792,30U,-0.007991,0.004012,-0.000079,-0.067723,-0.007467,1.052958
1403538154393303,INS_SOLUTION_GOOD,51.765469,-1.258783,110.446795,5736387.833345,620154.851445,-110.446795,30U,-0.008055,0.004197,-0.000131,-0.067720,-0.007465,1.052955
1403538154404220,INS_SOLUTION_GOOD,51.765469,-1.258783,110.446797,5736387.833235,620154.851517,-110.446797,30U,-0.007974,0.004409,-0.000010,-0.067719,-0.007466,1.052954
1403538154423937,INS_SOLUTION_GOOD,51.765469,-1.258783,110.446798,5736387.833014,620154.851591,-110.446798,30U,-0.008001,0.004542,0.000034,-0.067719,-0.007467,1.052955
1403538154444106,INS_SOLUTION_GOOD,51.765469,-1.258783,110.446794,5736387.832906,620154.851732,-110.446794,30U,-0.007934,0.004469,0.000214,-0.067720,-0.007467,1.052951
1403538154463977,INS_SOLUTION_GOOD,51.765469,-1.258783,110.446790,5736387.832797,620154.851803,-110.446790,30U,-0.007824,0.004361,0.000226,-0.067723,-0.007466,1.052951
1403538154486724,INS_SOLUTION_GOOD,51.765469,-1.258783,110.446786,5736387.832576,620154.851878,-110.446786,30U,-0.007880,0.004244,0.000178,-0.067726,-0.007466,1.052949
1403538154504059,INS_SOLUTION_GOOD,51.765469,-1.258783,110.446782,5736387.832467,620154.851949,-110.446782,30U,-0.008009,0.004060,0.000325,-0.067728,-0.007467,1.052949
1403538154523731,INS_SOLUTION_GOOD,51.765469,-1.258783,110.446773,5736387.832246,620154.852024,-110.446773,30U,-0.007789,0.003791,0.000402,-0.067730,-0.007468,1.052948
1403538154543856,INS_SOLUTION_GOOD,51.765469,-1.258783,110.446766,5736387.832138,620154.852164,-110.446766,30U,-0.007919,0.003823,0.000363,-0.067732,-0.007470,1.052949
1403538154563686,INS_SOLUTION_GOOD,51.765469,-1.258783,110.446763,5736387.832028,620154.852236,-110.446763,30U,-0.007961,0.003822,0.000052,-0.067731,-0.007472,1.052950
1403538154592182,INS_SOLUTION_GOOD,51.765469,-1.258783,110.446760,5736387.831808,620154.852310,-110.446760,30U,-0.007996,0.003874,0.000234,-0.067734,-0.007474,1.052952
1403538154606969,INS_SOLUTION_GOOD,51.765469,-1.258783,110.446757,5736387.831698,620154.852382,-110.446757,30U,-0.008096,0.003910,0.000256,-0.067734,-0.007472,1.052952
1403538154624109,INS_SOLUTION_GOOD,51.765469,-1.258783,110.446755,5736387.831477,620154.852456,-110.446755,30U,-0.008162,0.003715,-0.000079,-0.067734,-0.007473,1.052952
1403538154643603,INS_SOLUTION_GOOD,51.765469,-1.258783,110.446753,5736387.831368,620154.852528,-110.446753,30U,-0.008339,0.003682,0.000172,-0.067734,-0.007471,1.052951
1403538154663568,INS_SOLUTION_GOOD,51.765469,-1.258783,110.446750,5736387.831147,620154.852602,-110.446750,30U,-0.008524,0.003776,0.000186,-0.067732,-0.007469,1.052951
1403538154686362,INS_SOLUTION_GOOD,51.765469,-1.258783,110.446747,5736387.831037,620154.852674,-110.446747,30U,-0.008580,0.003670,0.000073,-0.067730,-0.007466,1.052951
1403538154704112,INS_SOLUTION_GOOD,51.765469,-1.258783,110.446746,5736387.830817,620154.852748,-110.446746,30U,-0.008618,0.003678,0.000134,-0.067728,-0.007462,1.052950
1403538154723729,INS_SOLUTION_GOOD,51.765469,-1.258783,110.446744,5736387.830707,620154.852820,-110.446744,30U,-0.008776,0.003704,-0.000034,-0.067728,-0.007460,1.052949
1403538154743776,INS_SOLUTION_GOOD,51.765469,-1.258783,110.446744,5736387.830486,620154.852894,-110.446744,30U,-0.008832,0.003680,0.000149,-0.067730,-0.007461,1.052950
1403538154764027,INS_SOLUTION_GOOD,51.765469,-1.258783,110.446742,5736387.830267,620154.853037,-110.446742,30U,-0.008672,0.003731,0.000055,-0.067731,-0.007462,1.052949
1403538154793364,INS_SOLUTION_GOOD,51.765469,-1.258783,110.446740,5736387.830158,620154.853109,-110.446740,30U,-0.008721,0.003680,0.000250,-0.067729,-0.007464,1.052950
1403538154804032,INS_SOLUTION_GOOD,51.765469,-1.258783,110.446733,5736387.829937,620154.853183,-110.446733,30U,-0.008436,0.003670,0.000409,-0.067729,-0.007466,1.052953
1403538154824008,INS_SOLUTION_GOOD,51.765469,-1.258783,110.446725,5736387.829827,620154.853255,-110.446725,30U,-0.008554,0.003874,0.000355,-0.067726,-0.007469,1.052955
1403538154843529,INS_SOLUTION_GOOD,51.765469,-1.258783,110.446716,5736387.829606,620154.853329,-110.446716,30U,-0.008685,0.003868,0.000599,-0.067726,-0.007470,1.052954
1403538154863656,INS_SOLUTION_GOOD,51.765469,-1.258783,110.446704,5736387.829497,620154.853401,-110.446704,30U,-0.008855,0.003977,0.000601,-0.067726,-0.007471,1.052955
1403538154886778,INS_SOLUTION_GOOD,51.765469,-1.258783,110.446691,5736387.829276,620154.853475,-110.446691,30U,-0.008855,0.004173,0.000896,-0.067723,-0.007475,1.052956
1403538154904112,INS_SOLUTION_GOOD,51.765469,-1.258783,110.446676,5736387.829055,620154.853550,-110.446676,30U,-0.008910,0.004081,0.000777,-0.067723,-0.007474,1.052955
1403538154923155,INS_SOLUTION_GOOD,51.765469,-1.258783,110.446660,5736387.828947,620154.853690,-110.446660,30U,-0.009043,0.003975,0.000770,-0.067720,-0.007476,1.052956
1403538154943658,INS_SOLUTION_GOOD,51.765469,-1.258783,110.446645,5736387.828727,620154.853765,-110.446645,30U,-0.009141,0.003873,0.000860,-0.067718,-0.007476,1.052954
1403538154963617,INS_SOLUTION_GOOD,51.765469,-1.258783,110.446632,5736387.828617,620154.853836,-110.446632,30U,-0.009277,0.003710,0.000453,-0.067716,-0.007477,1.052952
1403538154992751,INS_SOLUTION_GOOD,51.765469,-1.258783,110.446620,5736387.828396,620154.853910,-110.446620,30U,-0.009277,0.003518,0.000816,-0.067713,-0.007478,1.052949
1403538155003906,INS_SOLUTION_GOOD,51.765469,-1.258783,110.446605,5736387.828176,620154.853985,-110.446605,30U,-0.009239,0.003196,0.000799,-0.067712,-0.007477,1.052947
1403538155024169,INS_SOLUTION_GOOD,51.765469,-1.258783,110.446587,5736387.828066,620154.854056,-110.446587,30U,-0.009260,0.003121,0.000885,-0.067710,-0.007477,1.052949
1403538155043889,INS_SOLUTION_GOOD,51.765469,-1.258783,110.446568,5736387.827845,620154.854131,-110.446568,30U,-0.009265,0.003158,0.001092,-0.067709,-0.007475,1.052950
1403538155063907,INS_SOLUTION_GOOD,51.765469,-1.258783,110.446545,5736387.827623,620154.854136,-110.446545,30U,-0.009146,0.002908,0.001171,-0.067706,-0.007470,1.052953
1403538155086746,INS_SOLUTION_GOOD,51.765469,-1.258783,110.446519,5736387.827513,620154.854208,-110.446519,30U,-0.008964,0.002795,0.001456,-0.067709,-0.007465,1.052956
1403538155104120,INS_SOLUTION_GOOD,51.765469,-1.258783,110.446493,5736387.827293,620154.854282,-110.446493,30U,-0.008982,0.003094,0.001282,-0.067714,-0.007462,1.052960
1403538155123672,INS_SOLUTION_GOOD,51.765469,-1.258783,110.446467,5736387.827072,620154.854356,-110.446467,30U,-0.009226,0.003404,0.001078,-0.067724,-0.007461,1.052962
1403538155143660,INS_SOLUTION_GOOD,51.765469,-1.258783,110.446447,5736387.826962,620154.854428,-110.446447,30U,-0.009259,0.003577,0.000960,-0.067731,-0.007462,1.052962
1403538155163624,INS_SOLUTION_GOOD,51.765469,-1.258783,110.446429,5736387.826741,620154.854502,-110.446429,30U,-0.009493,0.003678,0.000529,-0.067736,-0.007466,1.052962
1403538155193829,INS_SOLUTION_GOOD,51.765469,-1.258783,110.446419,5736387.826521,620154.854577,-110.446419,30U,-0.009454,0.003705,0.000542,-0.067738,-0.007473,1.052961
1403538155205803,INS_SOLUTION_GOOD,51.765469,-1.258783,110.446407,5736387.826411,620154.854648,-110.446407,30U,-0.009266,0.003641,0.000587,-0.067737,-0.007477,1.052959
1403538155224427,INS_SOLUTION_GOOD,51.765469,-1.258783,110.446394,5736387.826190,620154.854723,-110.446394,30U,-0.009312,0.003670,0.000787,-0.067733,-0.007482,1.052957
1403538155244007,INS_SOLUTION_GOOD,51.765469,-1.258783,110.446379,5736387.825970,620154.854797,-110.446379,30U,-0.009507,0.003699,0.000846,-0.067727,-0.007487,1.052955
1403538155264086,INS_SOLUTION_GOOD,51.765469,-1.258783,110.446357,5736387.825862,620154.854938,-110.446357,30U,-0.009665,0.003829,0.001416,-0.067724,-0.007489,1.052951
1403538155287002,INS_SOLUTION_GOOD,51.765469,-1.258783,110.446867,5736387.834341,620154.851214,-110.446867,30U,-0.008509,0.003189,0.001440,-0.067733,-0.007494,1.052930
1403538155304634,INS_SOLUTION_GOOD,51.765469,-1.258783,110.446840,5736387.834120,620154.851288,-110.446840,30U,-0.008502,0.003042,0.001358,-0.067734,-0.007496,1.052926
1403538155323969,INS_SOLUTION_GOOD,51.765469,-1.258783,110.446724,5736387.833785,620154.851227,-110.446724,30U,-0.008402,0.002990,0.001629,-0.067739,-0.007496,1.052922
1403538155344010,INS_SOLUTION_GOOD,51.765469,-1.258783,110.446695,5736387.833675,620154.851299,-110.446695,30U,-0.008293,0.002916,0.001485,-0.067741,-0.007494,1.052923
1403538155364015,INS_SOLUTION_GOOD,51.765469,-1.258783,110.446579,5736387.833340,620154.851238,-110.446579,30U,-0.008384,0.002784,0.001331,-0.067741,-0.007492,1.052922
1403538155391962,INS_SOLUTION_GOOD,51.765469,-1.258783,110.446554,5736387.833119,620154.851312,-110.446554,30U,-0.008479,0.002846,0.001523,-0.067741,-0.007491,1.052926
1403538155406592,INS_SOLUTION_GOOD,51.765469,-1.258783,110.446526,5736387.832898,620154.851387,-110.446526,30U,-0.008366,0.003018,0.001455,-0.067735,-0.007493,1.052929
1403538155424010,INS_SOLUTION_GOOD,51.765469,-1.258783,110.446494,5736387.832789,620154.851458,-110.446494,30U,-0.008055,0.003762,0.001903,-0.067727,-0.007494,1.052929
1403538155443927,INS_SOLUTION_GOOD,51.765469,-1.258783,110.446453,5736387.832679,620154.851530,-110.446453,30U,-0.007595,0.004720,0.002447,-0.067723,-0.007489,1.052932
1403538155464054,INS_SOLUTION_GOOD,51.765469,-1.258783,110.446394,5736387.832460,620154.851673,-110.446394,30U,-0.007431,0.005567,0.003488,-0.067722,-0.007465,1.052934
1403538155487033,INS_SOLUTION_GOOD,51.765469,-1.258783,110.446321,5736387.832350,620154.851745,-110.446321,30U,-0.006529,0.006516,0.004050,-0.067725,-0.007427,1.052933
1403538155504307,INS_SOLUTION_GOOD,51.765469,-1.258783,110.446232,5736387.832242,620154.851886,-110.446232,30U,-0.004548,0.008614,0.005055,-0.067728,-0.007383,1.052944
1403538155523133,INS_SOLUTION_GOOD,51.765469,-1.258783,110.446103,5736387.832138,620154.852164,-110.446103,30U,-0.002218,0.013415,0.007868,-0.067730,-0.007323,1.052960
1403538155543556,INS_SOLUTION_GOOD,51.765469,-1.258783,110.445917,5736387.832144,620154.852440,-110.445917,30U,0.000806,0.019038,0.010516,-0.067741,-0.007224,1.052971
1403538155563682,INS_SOLUTION_GOOD,51.765469,-1.258783,110.445683,5736387.832267,620154.852921,-110.445683,30U,0.004215,0.024972,0.012531,-0.067749,-0.007104,1.052981
1403538155591888,INS_SOLUTION_GOOD,51.765469,-1.258783,110.445420,5736387.832392,620154.853470,-110.445420,30U,0.007220,0.031170,0.013691,-0.067753,-0.006974,1.052992
1403538155607010,INS_SOLUTION_GOOD,51.765469,-1.258783,110.445136,5736387.832519,620154.854157,-110.445136,30U,0.010427,0.037668,0.014359,-0.067749,-0.006839,1.053001
1403538155623817,INS_SOLUTION_GOOD,51.765469,-1.258783,110.444838,5736387.832761,620154.854980,-110.444838,30U,0.013932,0.045027,0.015296,-0.067746,-0.006698,1.053002
1403538155643786,INS_SOLUTION_GOOD,51.765469,-1.258783,110.444530,5736387.833118,620154.855938,-110.444530,30U,0.017582,0.052650,0.015382,-0.067740,-0.006555,1.052997
1403538155663450,INS_SOLUTION_GOOD,51.765469,-1.258783,110.444222,5736387.833589,620154.857031,-110.444222,30U,0.021432,0.060033,0.015080,-0.067738,-0.006412,1.052990
1403538155686804,INS_SOLUTION_GOOD,51.765469,-1.258783,110.443933,5736387.834065,620154.858332,-110.443933,30U,0.024702,0.066636,0.013712,-0.067731,-0.006280,1.052980
1403538155704165,INS_SOLUTION_GOOD,51.765469,-1.258783,110.443672,5736387.834654,620154.859699,-110.443672,30U,0.028534,0.073819,0.012296,-0.067719,-0.006169,1.052970
1403538155723923,INS_SOLUTION_GOOD,51.765469,-1.258783,110.443436,5736387.835247,620154.861203,-110.443436,30U,0.032444,0.080612,0.011430,-0.067705,-0.006076,1.052963
1403538155743925,INS_SOLUTION_GOOD,51.765469,-1.258783,110.443230,5736387.835954,620154.862843,-110.443230,30U,0.036094,0.086501,0.009235,-0.067689,-0.005994,1.052959
1403538155763818,INS_SOLUTION_GOOD,51.765469,-1.258783,110.443069,5736387.836775,620154.864619,-110.443069,30U,0.040291,0.093059,0.007289,-0.067666,-0.005947,1.052962
1403538155793020,INS_SOLUTION_GOOD,51.765469,-1.258783,110.442941,5736387.837711,620154.866530,-110.442941,30U,0.044727,0.099689,0.005989,-0.067638,-0.005915,1.052970
1403538155803957,INS_SOLUTION_GOOD,51.765469,-1.258783,110.442839,5736387.838650,620154.868578,-110.442839,30U,0.048501,0.105886,0.004261,-0.067611,-0.005881,1.052988
1403538155823791,INS_SOLUTION_GOOD,51.765469,-1.258783,110.442767,5736387.839703,620154.870763,-110.442767,30U,0.052718,0.112637,0.003242,-0.067577,-0.005864,1.053010
1403538155843651,INS_SOLUTION_GOOD,51.765469,-1.258783,110.442722,5736387.840870,620154.873013,-110.442722,30U,0.056274,0.118450,0.001165,-0.067548,-0.005854,1.053037
1403538155863670,INS_SOLUTION_GOOD,51.765469,-1.258783,110.442708,5736387.842152,620154.875468,-110.442708,30U,0.059959,0.125057,0.000196,-0.067517,-0.005852,1.053069
1403538155886168,INS_SOLUTION_GOOD,51.765469,-1.258783,110.442705,5736387.843436,620154.877992,-110.442705,30U,0.063650,0.131626,-0.000279,-0.067499,-0.005833,1.053101
1403538155904562,INS_SOLUTION_GOOD,51.765469,-1.258783,110.442719,5736387.844835,620154.880651,-110.442719,30U,0.067148,0.137495,-0.001410,-0.067486,-0.005821,1.053137
1403538155924062,INS_SOLUTION_GOOD,51.765469,-1.258782,110.442748,5736387.846236,620154.883379,-110.442748,30U,0.070780,0.143545,-0.001473,-0.067470,-0.005805,1.053170
1403538155944046,INS_SOLUTION_GOOD,51.765469,-1.258782,110.442773,5736387.847752,620154.886312,-110.442773,30U,0.074703,0.149721,-0.000688,-0.067445,-0.005787,1.053206
1403538155963905,INS_SOLUTION_GOOD,51.765469,-1.258782,110.442785,5736387.849382,620154.889311,-110.442785,30U,0.078409,0.155350,-0.000087,-0.067412,-0.005764,1.053243
1403538155987578,INS_SOLUTION_GOOD,51.765469,-1.258782,110.442795,5736387.851014,620154.892447,-110.442795,30U,0.082181,0.160874,-0.000112,-0.067367,-0.005742,1.053282
1403538156004061,INS_SOLUTION_GOOD,51.765469,-1.258782,110.442796,5736387.852760,620154.895651,-110.442796,30U,0.085678,0.166862,0.000135,-0.067324,-0.005729,1.053323
1403538156023711,INS_SOLUTION_GOOD,51.765469,-1.258782,110.442794,5736387.854621,620154.899058,-110.442794,30U,0.089100,0.172592,0.000579,-0.067286,-0.005719,1.053360
1403538156043704,INS_SOLUTION_GOOD,51.765469,-1.258782,110.442786,5736387.856483,620154.902466,-110.442786,30U,0.092595,0.178132,0.000007,-0.067264,-0.005702,1.053394
1403538156063696,INS_SOLUTION_GOOD,51.765469,-1.258782,110.442778,5736387.858461,620154.906078,-110.442778,30U,0.095622,0.184211,0.000702,-0.067248,-0.005709,1.053427
1403538156086807,INS_SOLUTION_GOOD,51.765469,-1.258782,110.442761,5736387.860552,620154.909756,-110.442761,30U,0.098803,0.189392,0.000466,-0.067254,-0.005712,1.053460
1403538156104171,INS_SOLUTION_GOOD,51.765469,-1.258782,110.442746,5736387.862646,620154.913572,-110.442746,30U,0.102311,0.195135,0.000759,-0.067273,-0.005722,1.053492
1403538156123209,INS_SOLUTION_GOOD,51.765469,-1.258782,110.442723,5736387.864741,620154.917458,-110.442723,30U,0.105942,0.200948,0.001393,-0.067304,-0.005736,1.053525
1403538156143575,INS_SOLUTION_GOOD,51.765469,-1.258782,110.442697,5736387.867063,620154.921476,-110.442697,30U,0.109271,0.206492,0.001386,-0.067341,-0.005746,1.053561
1403538156163474,INS_SOLUTION_GOOD,51.765469,-1.258782,110.442664,5736387.869387,620154.925631,-110.442664,30U,0.113203,0.212749,0.002290,-0.067377,-0.005749,1.053595
1403538156193924,INS_SOLUTION_GOOD,51.765469,-1.258782,110.442621,5736387.871713,620154.929856,-110.442621,30U,0.116492,0.218601,0.002547,-0.067412,-0.005743,1.053637
1403538156206188,INS_SOLUTION_GOOD,51.765469,-1.258782,110.442571,5736387.874267,620154.934283,-110.442571,30U,0.120490,0.224534,0.002753,-0.067453,-0.005737,1.053687
1403538156224535,INS_SOLUTION_GOOD,51.765470,-1.258782,110.442516,5736387.876821,620154.938710,-110.442516,30U,0.124462,0.230237,0.003176,-0.067499,-0.005719,1.053746
1403538156243936,INS_SOLUTION_GOOD,51.765470,-1.258782,110.442455,5736387.879491,620154.943341,-110.442455,30U,0.128395,0.236310,0.003082,-0.067564,-0.005700,1.053813
1403538156263822,INS_SOLUTION_GOOD,51.765470,-1.258782,110.442391,5736387.882162,620154.948041,-110.442391,30U,0.132339,0.242412,0.002989,-0.067638,-0.005676,1.053891
1403538156286827,INS_SOLUTION_GOOD,51.765470,-1.258781,110.442336,5736387.884948,620154.952876,-110.442336,30U,0.136644,0.248665,0.002035,-0.067727,-0.005656,1.053981
1403538156304555,INS_SOLUTION_GOOD,51.765470,-1.258781,110.442304,5736387.887848,620154.957847,-110.442304,30U,0.140773,0.254392,0.000843,-0.067811,-0.005645,1.054081
1403538156323947,INS_SOLUTION_GOOD,51.765470,-1.258781,110.442298,5736387.890863,620154.962953,-110.442298,30U,0.145176,0.260868,-0.000121,-0.067893,-0.005651,1.054191
1403538156344086,INS_SOLUTION_GOOD,51.765470,-1.258781,110.448149,5736387.899057,620154.965933,-110.448149,30U,0.149259,0.267695,-0.000725,-0.067957,-0.005661,1.054302
1403538156363822,INS_SOLUTION_GOOD,51.765470,-1.258781,110.448162,5736387.902190,620154.971313,-110.448162,30U,0.152549,0.274682,-0.000269,-0.067990,-0.005664,1.054407
1403538156391907,INS_SOLUTION_GOOD,51.765470,-1.258781,110.448171,5736387.905324,620154.976761,-110.448171,30U,0.155680,0.281551,-0.000034,-0.067992,-0.005651,1.054506
1403538156406675,INS_SOLUTION_GOOD,51.765470,-1.258781,110.448173,5736387.908686,620154.982411,-110.448173,30U,0.158221,0.288519,0.000151,-0.067971,-0.005629,1.054597
1403538156423875,INS_SOLUTION_GOOD,51.765470,-1.258781,110.448172,5736387.911940,620154.988202,-110.448172,30U,0.160350,0.296065,0.000386,-0.067956,-0.005593,1.054673
1403538156443915,INS_SOLUTION_GOOD,51.765470,-1.258781,110.448163,5736387.915307,620154.994059,-110.448163,30U,0.162707,0.303345,0.000368,-0.067954,-0.005550,1.054734
1403538156463968,INS_SOLUTION_GOOD,51.765470,-1.258781,110.448158,5736387.918789,620155.000120,-110.448158,30U,0.165485,0.310158,0.000128,-0.067995,-0.005506,1.054792
1403538156486717,INS_SOLUTION_GOOD,51.765470,-1.258781,110.448155,5736387.922275,620155.006320,-110.448155,30U,0.169203,0.317035,0.000241,-0.068051,-0.005475,1.054852
1403538156504107,INS_SOLUTION_GOOD,51.765470,-1.258781,110.448144,5736387.925876,620155.012655,-110.448144,30U,0.173593,0.323492,0.000586,-0.068137,-0.005445,1.054924
1403538156523588,INS_SOLUTION_GOOD,51.765470,-1.258781,110.448127,5736387.929478,620155.019058,-110.448127,30U,0.178769,0.329498,0.001110,-0.068217,-0.005427,1.055017
1403538156543820,INS_SOLUTION_GOOD,51.765470,-1.258780,110.448107,5736387.933308,620155.025664,-110.448107,30U,0.184366,0.335246,0.001012,-0.068285,-0.005425,1.055137
1403538156563692,INS_SOLUTION_GOOD,51.765470,-1.258780,110.448087,5736387.937251,620155.032336,-110.448087,30U,0.190278,0.341151,0.001081,-0.068331,-0.005432,1.055283
1403538156591888,INS_SOLUTION_GOOD,51.765470,-1.258780,110.448070,5736387.941195,620155.039077,-110.448070,30U,0.195789,0.347105,0.000838,-0.068356,-0.005443,1.055457
1403538156606556,INS_SOLUTION_GOOD,51.765470,-1.258780,110.448049,5736387.945366,620155.046019,-110.448049,30U,0.201095,0.353927,0.001275,-0.068377,-0.005461,1.055655
1403538156623977,INS_SOLUTION_GOOD,51.765470,-1.258780,110.448027,5736387.949652,620155.053097,-110.448027,30U,0.205627,0.361788,0.001182,-0.068397,-0.005487,1.055871
1403538156643802,INS_SOLUTION_GOOD,51.765470,-1.258780,110.448001,5736387.953941,620155.060313,-110.448001,30U,0.209580,0.370337,0.001389,-0.068425,-0.005514,1.056094
1403538156664016,INS_SOLUTION_GOOD,51.765470,-1.258780,110.447965,5736387.958345,620155.067664,-110.447965,30U,0.213089,0.379322,0.002264,-0.068459,-0.005532,1.056315
1403538156686812,INS_SOLUTION_GOOD,51.765470,-1.258780,110.447905,5736387.962754,620155.075222,-110.447905,30U,0.216360,0.389151,0.003498,-0.068488,-0.005528,1.056526
1403538156704228,INS_SOLUTION_GOOD,51.765470,-1.258780,110.447826,5736387.967392,620155.083051,-110.447826,30U,0.219826,0.399263,0.004599,-0.068467,-0.005502,1.056712
1403538156723598,INS_SOLUTION_GOOD,51.765470,-1.258779,110.447736,5736387.971921,620155.091021,-110.447736,30U,0.223755,0.409338,0.004429,-0.068394,-0.005445,1.056876
1403538156743587,INS_SOLUTION_GOOD,51.765470,-1.258779,110.447653,5736387.976679,620155.099192,-110.447653,30U,0.227993,0.420175,0.003690,-0.068280,-0.005374,1.057020
1403538156763841,INS_SOLUTION_GOOD,51.765470,-1.258779,110.447585,5736387.981441,620155.107570,-110.447585,30U,0.232221,0.431518,0.003180,-0.068146,-0.005305,1.057142
1403538156793179,INS_SOLUTION_GOOD,51.765470,-1.258779,110.447529,5736387.986432,620155.116219,-110.447529,30U,0.237332,0.443044,0.002627,-0.068034,-0.005244,1.057255
1403538156804080,INS_SOLUTION_GOOD,51.765471,-1.258779,110.447471,5736387.991428,620155.125075,-110.447471,30U,0.242729,0.454845,0.002973,-0.067981,-0.005180,1.057365
1403538156823828,INS_SOLUTION_GOOD,51.765471,-1.258779,110.447399,5736387.996540,620155.134136,-110.447399,30U,0.249010,0.466474,0.004209,-0.067983,-0.005130,1.057471
1403538156843602,INS_SOLUTION_GOOD,51.765471,-1.258779,110.447307,5736388.001770,620155.143469,-110.447307,30U,0.256297,0.478295,0.005005,-0.068017,-0.005085,1.057588
1403538156863818,INS_SOLUTION_GOOD,51.765471,-1.258779,110.447207,5736388.007229,620155.153074,-110.447207,30U,0.263801,0.489462,0.005167,-0.068063,-0.005038,1.057713
1403538156886429,INS_SOLUTION_GOOD,51.765471,-1.258778,110.447103,5736388.012803,620155.162814,-110.447103,30U,0.271788,0.500828,0.005227,-0.068110,-0.004994,1.057839
1403538156904237,INS_SOLUTION_GOOD,51.765471,-1.258778,110.447002,5736388.018605,620155.172824,-110.447002,30U,0.279495,0.511047,0.005168,-0.068119,-0.004960,1.057977
1403538156923734,INS_SOLUTION_GOOD,51.765471,-1.258778,110.446900,5736388.024522,620155.182970,-110.446900,30U,0.286771,0.522060,0.005376,-0.068120,-0.004921,1.058116
1403538156943850,INS_SOLUTION_GOOD,51.765471,-1.258778,110.446780,5736388.030557,620155.193389,-110.446780,30U,0.295056,0.533312,0.006561,-0.068091,-0.004890,1.058266
1403538156963626,INS_SOLUTION_GOOD,51.765471,-1.258778,110.446638,5736388.036819,620155.204010,-110.446638,30U,0.302842,0.544935,0.007538,-0.068046,-0.004858,1.058426
1403538156991644,INS_SOLUTION_GOOD,51.765471,-1.258778,110.446478,5736388.043199,620155.214904,-110.446478,30U,0.310866,0.556232,0.008150,-0.067991,-0.004830,1.058599
1403538157006008,INS_SOLUTION_GOOD,51.765471,-1.258777,110.446307,5736388.049695,620155.226002,-110.446307,30U,0.318373,0.567935,0.008804,-0.067924,-0.004802,1.058786
