source_timestamp,destination_timestamp,x,y,z,roll,pitch,yaw
1418381152915431,1418381152852941,9.354865e-06,-1.812641e-05,6.315727e-06,-8.438589e-06,-3.078946e-06,9.354927e-07
1418381152977923,1418381152915431,-1.431407e-05,-1.493897e-05,-1.657967e-05,4.483775e-07,-3.362238e-06,4.842293e-07
1418381153040411,1418381152977923,2.478800e-05,6.993855e-06,-2.760869e-06,-7.359275e-06,1.370167e-06,-6.339562e-07
1418381153102900,1418381153040411,3.613998e-05,2.491476e-05,-1.253964e-05,9.504715e-06,-5.422971e-07,-1.768359e-06
1418381153165386,1418381153102900,-1.551473e-05,-7.893487e-06,1.153995e-06,-4.553490e-06,-3.059395e-06,3.962420e-07
1418381153227875,1418381153165386,9.188554e-07,2.157623e-06,-2.067526e-06,6.219584e-06,-3.203356e-06,-1.588732e-06
1418381153290366,1418381153227875,1.056853e-05,8.801680e-06,3.794774e-06,1.802627e-06,1.839920e-06,1.109557e-06
1418381153352853,1418381153290366,1.754932e-05,1.141632e-05,3.463997e-06,-2.279869e-06,1.395714e-06,-1.602214e-06
1418381153415343,1418381153352853,-7.656441e-06,-3.311008e-06,-3.646472e-06,1.157093e-06,-3.387664e-06,-1.782118e-06
1418381153477832,1418381153415343,1.287616e-05,-1.648430e-06,9.031212e-06,8.764424e-06,-2.515836e-06,6.640753e-06
1418381153540317,1418381153477832,-6.822410e-07,1.272155e-06,1.028751e-07,8.009244e-07,-7.485626e-07,-3.142782e-06
1418381153602808,1418381153540317,5.459813e-06,2.152401e-06,-2.146116e-06,1.738171e-06,1.470544e-06,6.124094e-07
1418381153665298,1418381153602808,5.247867e-06,1.756401e-05,-9.943929e-07,1.400260e-05,-1.282168e-06,-6.068592e-06
1418381153727784,1418381153665298,-5.942179e-06,3.645524e-06,1.697900e-06,-4.817144e-06,9.252042e-07,3.186179e-07
1418381153790275,1418381153727784,-9.178650e-06,-5.709117e-06,-3.381955e-06,3.335802e-06,-1.158950e-06,5.359050e-07
1418381153852764,1418381153790275,7.427597e-06,1.171603e-06,-1.671674e-06,5.589218e-06,-9.357299e-08,-1.462097e-06
1418381153915253,1418381153852764,2.091443e-05,1.451662e-05,-1.764152e-06,-5.736328e-06,-1.510571e-06,-2.191375e-06
1418381153977740,1418381153915253,-1.492379e-06,-7.639011e-06,2.076376e-07,-5.089661e-06,-2.689586e-07,7.335155e-07
1418381154040232,1418381153977740,7.624227e-06,9.772534e-08,-3.438370e-06,-5.013289e-06,7.911885e-07,-1.334836e-06
1418381154102720,1418381154040232,-4.254589e-05,1.666620e-05,-6.772279e-06,3.388318e-06,-2.269062e-06,-9.646425e-07
1418381154165207,1418381154102720,1.204107e-05,5.324503e-06,3.415036e-06,-4.514510e-06,-5.155321e-06,-1.615248e-07
1418381154227696,1418381154165207,4.554832e-06,2.261332e-06,-7.301755e-07,3.257701e-06,-2.256595e-06,-3.580120e-07
1418381154290183,1418381154227696,-1.245629e-05,7.404809e-06,1.015542e-05,6.544513e-06,2.416171e-06,-6.042680e-07
1418381154352673,1418381154290183,-3.244074e-06,-1.118828e-05,-1.986181e-06,1.292078e-06,8.488145e-07,4.155383e-06
1418381154415162,1418381154352673,-1.544065e-06,3.017764e-06,-2.841234e-07,-1.851535e-07,-3.216289e-07,-2.774534e-06
1418381154477650,1418381154415162,1.328775e-05,9.589106e-06,6.703269e-06,8.879275e-06,-1.249322e-06,-1.250784e-06
1418381154540140,1418381154477650,6.892965e-06,-4.088915e-06,5.224588e-06,7.234287e-06,-1.623603e-06,3.786461e-08
1418381154602629,1418381154540140,-2.930295e-05,5.842343e-06,-7.172246e-06,6.367504e-06,6.284913e-07,-1.108048e-06
1418381154665117,1418381154602629,2.502969e-05,-1.233648e-05,2.388032e-05,-1.502928e-06,5.436971e-07,7.438456e-07
1418381154727605,1418381154665117,1.869778e-05,-1.013989e-05,7.919209e-06,1.254481e-06,7.940715e-07,1.517456e-06
1418381154790096,1418381154727605,4.277388e-05,9.744085e-06,3.751975e-05,-4.430889e-06,3.940277e-06,-2.490196e-06
1418381154852583,1418381154790096,-7.764302e-06,-7.927013e-06,-8.590921e-07,-8.741699e-06,-2.749389e-07,4.215487e-06
1418381154915074,1418381154852583,-1.671469e-06,-3.206397e-06,-3.903636e-06,1.665723e-05,2.445037e-06,3.813339e-06
1418381154977563,1418381154915074,-7.650213e-06,-1.917089e-06,-6.187167e-06,-6.838930e-06,-4.160577e-06,-1.720343e-06
1418381155040052,1418381154977563,-3.566403e-06,7.406669e-06,5.040613e-06,-2.923352e-06,-2.126079e-06,-5.641490e-07
1418381155102540,1418381155040052,-2.418817e-06,-1.537124e-06,-1.304023e-06,-7.937137e-06,-1.353909e-06,-5.966430e-07
1418381155165031,1418381155102540,6.063036e-06,4.058379e-06,1.340138e-06,2.812676e-06,1.888471e-06,-7.226606e-07
1418381155227518,1418381155165031,-7.289843e-06,3.753858e-06,-3.195081e-06,1.161704e-05,2.898915e-06,-7.646575e-07
1418381155290007,1418381155227518,1.937870e-05,9.401050e-06,-1.346170e-06,-1.534113e-06,-5.666249e-07,1.211057e-06
1418381155352496,1418381155290007,-1.350980e-05,-2.902962e-05,5.490574e-06,1.043939e-06,-9.588439e-07,-1.531363e-06
1418381155414982,1418381155352496,6.128521e-05,-3.511534e-05,2.155290e-05,-6.419988e-06,2.428240e-06,2.666479e-06
1418381155477470,1418381155414982,4.473838e-06,2.724753e-06,3.294076e-07,4.720911e-06,2.199675e-07,1.162845e-06
1418381155539957,1418381155477470,-3.108468e-05,1.843447e-05,-1.757367e-05,-2.262242e-06,-2.313847e-06,-3.622718e-06
1418381155602447,1418381155539957,-2.437758e-05,-5.527635e-06,-3.530978e-06,-9.457628e-07,1.942929e-06,-1.696786e-06
1418381155664936,1418381155602447,8.153818e-07,9.184183e-06,-7.978786e-08,1.908816e-06,-5.436695e-07,-7.443634e-07
1418381155727425,1418381155664936,-1.609007e-05,-1.176115e-06,-4.922263e-06,-1.385465e-06,-1.442420e-06,1.431533e-06
1418381155789912,1418381155727425,-1.555123e-05,-7.114202e-06,-3.964083e-06,4.429294e-06,-2.815554e-06,-1.181394e-06
1418381155852401,1418381155789912,-2.334780e-05,-1.196488e-05,-6.670863e-06,-5.360350e-06,8.662064e-07,-1.689881e-06
1418381155914890,1418381155852401,1.325041e-05,-4.405412e-06,4.334531e-06,5.398177e-07,-9.413050e-07,7.335882e-06
1418381155977378,1418381155914890,6.881508e-06,4.805148e-06,7.145284e-06,6.582156e-06,5.860029e-07,-4.025259e-06
1418381156039866,1418381155977378,-4.213762e-06,-1.984309e-06,1.634763e-06,-9.281250e-06,8.595513e-07,-3.016324e-06
1418381156102355,1418381156039866,-8.855473e-06,-2.529378e-05,2.231711e-06,3.759202e-06,7.058361e-07,1.937814e-06
1418381156164843,1418381156102355,-1.409134e-05,-8.012121e-06,-5.155021e-06,-4.798584e-06,-6.908621e-07,1.666385e-06
1418381156227331,1418381156164843,6.944396e-06,-7.128846e-06,2.765889e-06,-3.437860e-07,-1.536872e-07,4.884660e-06
1418381156289820,1418381156227331,1.171881e-05,3.540267e-06,7.879504e-07,-4.827656e-07,-1.364282e-06,-1.658692e-06
1418381156352307,1418381156289820,-2.102789e-05,-6.649070e-06,-3.843077e-06,-6.203049e-06,-2.034351e-06,1.592912e-07
1418381156414799,1418381156352307,-3.717706e-05,-6.167455e-07,1.298541e-05,8.799109e-06,3.212553e-06,7.743467e-07
1418381156477287,1418381156414799,-5.629031e-06,-4.014155e-06,2.243303e-06,-8.345162e-06,3.443251e-07,3.050492e-07
1418381156539776,1418381156477287,-1.763109e-05,-8.711073e-06,-6.766006e-06,-2.152309e-06,-1.199133e-06,-8.280047e-07
1418381156602263,1418381156539776,-4.817740e-05,-1.928848e-05,-1.934360e-05,4.421013e-06,-2.271861e-06,2.218240e-06
1418381156664754,1418381156602263,5.080538e-05,-4.763954e-05,1.563478e-05,1.558857e-06,4.472234e-06,1.088890e-05
1418381156727242,1418381156664754,-1.628629e-05,-1.127211e-06,3.665418e-06,4.288424e-06,3.123958e-06,-2.049443e-06
1418381156789733,1418381156727242,-2.351560e-05,-9.480701e-06,-8.986076e-06,-4.701680e-06,-6.607185e-06,-9.321294e-07
1418381156852219,1418381156789733,-1.265642e-06,2.900064e-07,-5.185622e-06,-1.565128e-05,-4.198710e-06,-4.312484e-06
1418381156977210,1418381156852219,-3.850304e-05,-2.656019e-06,3.124905e-07,1.352588e-05,1.343717e-05,1.425876e-06
1418381157039698,1418381156977210,-3.818415e-05,-1.475026e-05,-1.491135e-05,1.524485e-06,-6.580695e-07,6.110387e-06
1418381157102186,1418381157039698,3.677493e-05,1.918116e-05,1.393141e-05,2.326714e-07,-1.498323e-06,3.953429e-07
1418381157227175,1418381157102186,2.256362e-05,1.062508e-05,9.530658e-06,-4.644933e-06,-8.372508e-07,-8.662500e-06
1418381157289666,1418381157227175,-4.120969e-05,-2.203820e-05,-1.388509e-05,-7.037928e-06,2.053171e-06,6.201369e-06
1418381157352157,1418381157289666,4.800684e-06,2.898647e-05,-3.381848e-06,3.562376e-06,1.207974e-06,-4.192565e-06
1418381157477145,1418381157352157,2.119082e-06,1.284776e-05,1.563583e-06,-1.519528e-06,-6.789177e-06,2.546885e-06
1418381157539631,1418381157477145,5.029779e-06,1.445606e-06,3.913693e-06,-2.549403e-06,4.249941e-06,8.225349e-07
1418381157602122,1418381157539631,-1.316690e-06,2.616837e-07,-5.465363e-07,6.329582e-06,-2.120154e-07,-1.175036e-06
1418381157727111,1418381157602122,3.736905e-06,-4.777634e-07,-2.647156e-07,-1.643561e-05,-2.289495e-06,-2.043089e-07
1418381157789602,1418381157727111,-2.487966e-05,-1.862723e-05,6.532551e-06,-4.811682e-06,-1.004123e-06,4.869043e-06
1418381157852087,1418381157789602,-2.743025e-05,1.010108e-05,5.667451e-06,-3.942498e-06,1.226928e-06,-1.242747e-06
1418381157914578,1418381157852087,9.046429e-06,1.163059e-06,7.950354e-06,5.808583e-06,1.561096e-06,2.150850e-06
1418381158039568,1418381157914578,-4.015001e-06,1.093990e-05,-7.601133e-07,9.845368e-08,-2.540064e-06,-1.840488e-06
1418381158102053,1418381158039568,2.128697e-05,1.130029e-05,6.974410e-06,1.721983e-07,-2.550708e-07,-4.396047e-06
1418381158164543,1418381158102053,-1.106221e-05,1.332574e-05,-1.143133e-05,-6.810093e-07,3.535272e-07,-7.935869e-07
1418381158227032,1418381158164543,-1.026552e-05,-3.443798e-06,-3.643489e-06,8.112466e-06,-7.095390e-07,-6.778126e-07
1418381158352022,1418381158227032,-4.214220e-06,-1.869874e-05,-4.528177e-06,-4.908616e-06,-2.172435e-06,-1.378953e-06
1418381158414509,1418381158352022,9.370142e-05,-2.093684e-05,2.644261e-05,-5.739310e-06,-5.057622e-07,5.461872e-06
1418381158476996,1418381158414509,-9.624441e-06,-6.366196e-06,-4.339364e-06,4.045152e-06,1.878240e-06,2.985342e-06
1418381158601988,1418381158476996,4.589476e-05,2.238857e-05,1.542768e-05,2.534358e-06,-1.788117e-06,-2.329678e-06
1418381158664475,1418381158601988,-3.009882e-06,3.469061e-06,-3.565206e-06,3.044409e-06,7.192096e-07,-1.857124e-06
1418381158726965,1418381158664475,-4.416483e-06,-1.741306e-05,1.539333e-06,3.073790e-06,2.829134e-07,1.389362e-06
1418381158789455,1418381158726965,4.887219e-06,8.835675e-06,1.380764e-06,-3.985615e-06,-8.783220e-07,-3.003856e-06
1418381158914440,1418381158789455,3.311962e-06,-9.186232e-06,-6.856233e-06,-3.417618e-06,-3.400669e-06,4.051395e-06
1418381158976929,1418381158914440,-4.373059e-06,-6.474923e-06,-2.072227e-06,-1.997973e-06,5.473133e-08,-2.149009e-06
1418381159039417,1418381158976929,-2.022177e-05,-8.522528e-07,-9.185267e-06,-3.476056e-06,-1.064342e-06,-9.550675e-07
1418381159164408,1418381159039417,-6.090650e-05,2.569905e-05,-2.212708e-05,-1.525631e-06,-4.284946e-06,4.900008e-07
1418381159226896,1418381159164408,1.484039e-05,8.486150e-06,1.065112e-05,8.199544e-08,2.114299e-06,-3.324890e-06
1418381159289384,1418381159226896,-1.911230e-06,-1.839443e-07,-8.623329e-07,2.680973e-06,-9.205297e-07,-3.554959e-06
1418381159414372,1418381159289384,1.226855e-05,1.439986e-06,6.009097e-06,9.078656e-07,-1.834747e-06,7.591843e-07
1418381159476859,1418381159414372,2.303009e-05,1.179680e-05,6.713009e-06,6.430616e-06,8.517904e-07,-1.537559e-06
1418381159539348,1418381159476859,-7.166145e-06,-7.336168e-06,1.823172e-05,1.915784e-06,2.906578e-06,5.656533e-07
1418381159664336,1418381159539348,4.730439e-06,1.108014e-05,2.213079e-06,-9.296190e-07,-7.990828e-07,-2.416030e-08
1418381159726826,1418381159664336,5.564161e-06,9.008490e-07,-8.835828e-07,7.175041e-07,-2.453553e-08,-3.500844e-06
1418381159789314,1418381159726826,2.781664e-06,5.762027e-06,2.521179e-06,-4.727279e-06,-2.240363e-06,-2.140811e-06
1418381159851802,1418381159789314,2.470493e-05,-7.525998e-06,2.336845e-05,-1.839221e-06,3.736992e-06,-3.017540e-06
1418381159976791,1418381159851802,2.819474e-05,-4.253171e-06,4.540241e-06,4.685826e-06,-2.992162e-06,2.725979e-06
1418381160039278,1418381159976791,-3.202204e-05,1.086927e-05,-3.349654e-06,5.059856e-06,8.434798e-07,-1.890218e-06
1418381160101767,1418381160039278,2.393142e-06,-1.417625e-07,2.195303e-06,-9.337985e-06,-3.471506e-06,9.266282e-07
1418381160226757,1418381160101767,-3.565050e-05,5.120570e-06,-2.116410e-06,-6.168961e-06,-2.167449e-06,-1.339274e-06
1418381160289246,1418381160226757,-2.525086e-06,-1.916617e-06,3.438519e-07,1.990721e-06,1.239820e-06,1.002418e-07
1418381160414235,1418381160289246,-8.028913e-05,-5.218340e-05,-1.281163e-05,3.793554e-07,3.658535e-07,6.944765e-06
1418381160476724,1418381160414235,3.080798e-05,2.808745e-06,-2.349124e-06,5.318162e-06,-9.000564e-07,-7.583002e-07
1418381160539213,1418381160476724,-9.771482e-06,1.522784e-05,-2.181823e-06,-1.151471e-07,-6.644162e-07,-1.709385e-06
1418381160601702,1418381160539213,4.098919e-05,1.246158e-05,1.164264e-05,5.403341e-06,2.315956e-07,-3.283562e-07
1418381160726688,1418381160601702,-1.137887e-05,1.382279e-06,6.022349e-06,2.021464e-06,1.858335e-06,-4.005238e-06
1418381160789176,1418381160726688,2.471683e-06,3.095917e-06,-3.792457e-07,8.546422e-06,-4.881458e-06,-2.401886e-06
1418381160914166,1418381160789176,2.741361e-05,-1.086003e-05,7.604546e-06,3.114417e-06,-2.181472e-06,1.216447e-06
1418381160976654,1418381160914166,-3.291849e-06,-6.267802e-06,3.129279e-06,-9.109213e-07,2.303069e-07,2.624031e-06
1418381161039144,1418381160976654,-1.124960e-05,-4.244287e-06,-4.489156e-06,8.070007e-06,-9.415676e-07,3.083217e-06
1418381161164134,1418381161039144,6.595882e-05,1.839954e-05,1.930232e-05,4.253750e-06,2.810695e-06,-3.921654e-06
1418381161226624,1418381161164134,1.009768e-05,9.119661e-06,1.025442e-05,-1.400454e-05,6.171937e-06,-4.318120e-06
1418381161289111,1418381161226624,-1.040620e-04,3.561949e-05,-3.245300e-05,5.669860e-06,-1.577884e-06,-5.331279e-06
1418381161414100,1418381161289111,-4.824520e-06,-3.529843e-06,-5.027115e-06,4.318223e-06,-1.119886e-05,2.685056e-06
1418381161476588,1418381161414100,-3.227785e-06,2.022816e-06,7.442936e-07,5.742652e-06,-8.023500e-07,-1.365023e-06
1418381161539078,1418381161476588,6.262640e-06,6.006435e-06,3.646258e-06,1.033369e-05,3.895230e-06,2.356117e-08
1418381161601569,1418381161539078,6.983276e-07,3.913875e-06,-1.428537e-05,-1.835103e-06,1.895099e-06,3.231770e-07
1418381161726555,1418381161601569,3.353674e-05,1.808370e-05,5.789069e-06,-1.575133e-05,-4.732054e-06,-3.752326e-06
1418381161789046,1418381161726555,2.008510e-06,6.448541e-07,-1.354911e-06,-2.202819e-07,-3.396033e-06,-1.384471e-06
1418381161851536,1418381161789046,-9.033234e-06,-2.955748e-06,-3.997423e-06,4.182300e-06,9.427298e-07,-3.940618e-07
1418381161976524,1418381161851536,-6.747046e-06,-7.543019e-06,-1.933374e-06,1.626062e-05,1.523301e-07,7.348801e-06
1418381162039014,1418381161976524,-5.062617e-14,7.993606e-14,3.508305e-14,4.152928e-15,3.143319e-15,-5.440093e-15
1418381162101501,1418381162039014,-5.944940e-07,-3.964163e-08,7.346586e-07,-7.621986e-07,9.348781e-07,2.535047e-06
1418381162226490,1418381162101501,-2.756129e-05,-3.389285e-05,-8.974275e-06,-1.487990e-05,-4.609838e-06,5.383827e-06
1418381162288977,1418381162226490,3.374803e-06,6.708976e-06,-1.171644e-06,1.827075e-06,-2.873852e-06,-8.327483e-07
1418381162351464,1418381162288977,-3.079548e-05,-1.311007e-05,4.012633e-06,4.638925e-07,3.033487e-06,-1.575405e-07
1418381162413952,1418381162351464,1.710496e-05,7.670809e-06,4.275212e-06,-1.063256e-06,5.496126e-06,-9.685072e-07
1418381162538942,1418381162413952,-5.463694e-06,-7.854826e-06,2.184495e-05,-2.385091e-05,-6.580829e-06,3.222868e-07
1418381162601429,1418381162538942,-3.451651e-06,-4.014420e-06,1.929738e-07,4.552331e-07,-2.988088e-08,2.659294e-06
1418381162663919,1418381162601429,-7.280013e-06,-3.039652e-06,-1.840825e-07,8.660254e-06,6.166900e-06,-1.319140e-06
1418381162788907,1418381162663919,7.108843e-06,3.560995e-06,-1.566310e-06,1.993046e-05,-1.623034e-06,1.565366e-06
1418381162851396,1418381162788907,-9.306268e-06,5.039502e-06,1.300288e-06,-5.421734e-06,-9.022798e-08,-2.282278e-07
1418381162913886,1418381162851396,-1.162719e-05,-7.109746e-06,9.667590e-06,-3.749248e-06,1.745818e-06,-7.161997e-06
1418381162976372,1418381162913886,-7.740059e-06,-6.058412e-06,6.640866e-06,1.038542e-07,2.564748e-06,4.304626e-06
1418381163101362,1418381162976372,-1.463422e-05,2.596833e-05,5.829262e-06,1.161877e-05,4.631148e-06,-1.941627e-06
1418381163163851,1418381163101362,-1.794267e-05,-7.734377e-06,-1.087527e-05,1.070521e-05,-4.681591e-06,-2.822281e-06
1418381163226339,1418381163163851,3.775541e-05,-3.639644e-05,-2.322327e-05,2.793594e-06,-1.801566e-06,4.612685e-06
1418381163351327,1418381163226339,-3.630083e-06,8.565981e-06,4.627642e-06,1.925509e-06,5.103369e-06,1.026654e-06
1418381163413814,1418381163351327,1.615213e-05,1.168528e-05,1.097124e-06,-8.387844e-06,-4.017881e-06,-4.224658e-06
1418381163476304,1418381163413814,-1.726079e-05,-2.075433e-05,2.707110e-06,-6.933296e-06,5.683379e-09,5.974866e-06
1418381163601293,1418381163476304,-1.040449e-04,-2.975639e-05,-2.183563e-05,5.960619e-06,-2.617920e-06,4.923266e-06
1418381163663782,1418381163601293,5.919710e-05,7.689413e-05,-1.688763e-05,5.772980e-07,-3.290396e-07,-1.041708e-05
1418381163788777,1418381163663782,2.394983e-05,1.243059e-05,8.092135e-06,-3.124553e-06,-1.428463e-07,1.248503e-06
1418381163851257,1418381163788777,-2.171310e-05,-1.201557e-05,-6.400046e-06,-1.668321e-07,1.435808e-07,-1.661586e-06
1418381163913747,1418381163851257,6.844689e-05,3.254763e-05,2.958234e-05,2.500280e-06,2.065513e-06,3.718197e-07
1418381163976234,1418381163913747,2.053515e-05,8.163517e-06,8.990245e-06,9.933631e-06,1.093193e-06,-2.332576e-06
1418381164101223,1418381163976234,1.856473e-05,-1.516548e-05,3.056400e-06,3.695019e-06,1.452411e-06,2.710939e-06
1418381164163711,1418381164101223,2.613335e-06,1.756870e-06,6.667920e-07,-7.423805e-06,-1.193390e-06,2.174653e-06
1418381164226198,1418381164163711,-7.846482e-06,-4.513143e-06,-9.871111e-06,-1.402458e-06,-3.659203e-06,-4.218054e-06
1418381164351186,1418381164226198,-1.901286e-05,-1.553664e-05,-8.050978e-06,-5.998135e-07,8.289655e-07,4.141168e-06
1418381164413675,1418381164351186,-1.364196e-05,2.618057e-07,-3.187919e-06,-3.488064e-06,1.851964e-07,-3.139781e-06
1418381164476164,1418381164413675,9.517824e-05,2.048623e-05,4.047516e-05,7.557269e-06,6.691782e-06,-6.572102e-07
1418381164601152,1418381164476164,1.590040e-05,1.028686e-05,6.188506e-06,-3.277656e-06,5.669132e-07,-3.810589e-06
1418381164663641,1418381164601152,-3.240896e-05,-1.628265e-05,-1.181263e-05,-2.207222e-06,-1.250666e-06,1.200419e-06
1418381164726130,1418381164663641,5.038452e-06,4.219927e-06,-1.277353e-07,-1.004780e-06,-2.913731e-06,-2.503461e-07
1418381164851118,1418381164726130,-1.167764e-05,-1.312039e-05,1.530745e-06,-3.063537e-06,1.354697e-07,4.039173e-06
1418381164913603,1418381164851118,-5.375613e-06,2.383729e-06,-4.668855e-06,-1.174363e-06,-1.579255e-06,-2.025289e-07
1418381165038590,1418381164913603,-8.209985e-05,2.441421e-05,-2.559700e-05,2.238402e-06,5.399069e-07,-2.218169e-06
1418381165101079,1418381165038590,1.303577e-05,6.243632e-06,4.927351e-06,3.653414e-06,2.701437e-06,5.094308e-07
1418381165163567,1418381165101079,-2.441325e-06,-6.880804e-07,6.669878e-07,-3.703298e-06,1.740335e-07,5.710204e-07
1418381165288557,1418381165163567,-3.454486e-05,-1.596542e-05,8.549673e-06,-1.405986e-05,-2.162497e-06,1.037243e-06
1418381165351046,1418381165288557,8.365398e-06,4.440383e-06,-4.463722e-06,6.301651e-06,-8.588280e-07,-6.465381e-07
1418381165413535,1418381165351046,-3.131018e-05,-1.668327e-05,-1.329612e-05,3.894521e-06,-1.627706e-06,2.429980e-06
1418381165538523,1418381165413535,-8.596774e-06,-3.610841e-05,-4.183319e-06,-5.205542e-06,2.298477e-06,4.057649e-06
1418381165601011,1418381165538523,2.988202e-05,9.963204e-06,1.283589e-06,-1.239242e-05,-4.943700e-06,3.852489e-06
1418381165663499,1418381165601011,-7.194909e-06,-8.407729e-07,4.997438e-06,4.351697e-06,2.304699e-07,-2.425769e-06
1418381165788487,1418381165663499,-1.159067e-05,-6.580746e-07,7.058397e-07,-3.283100e-06,1.486514e-06,1.743373e-07
1418381165850977,1418381165788487,-3.936732e-06,4.101124e-06,-1.429638e-05,-5.345095e-07,-9.602075e-08,-1.730625e-06
1418381165913464,1418381165850977,3.506577e-06,-1.103153e-06,5.066353e-06,-1.333737e-06,2.527624e-07,4.565664e-06
1418381166038453,1418381165913464,-2.788812e-06,1.194456e-05,3.704831e-06,2.240434e-06,2.004277e-06,-4.844276e-06
1418381166100942,1418381166038453,4.016275e-06,2.804765e-06,3.956186e-08,3.489473e-06,5.290782e-07,2.350002e-06
1418381166225931,1418381166100942,-5.387512e-05,-2.510722e-05,-1.721302e-05,-5.862489e-06,-4.167736e-06,3.349125e-06
1418381166288420,1418381166225931,-7.250437e-06,7.408694e-06,-3.196251e-06,2.855887e-06,-4.570477e-07,5.109673e-07
1418381166413408,1418381166288420,-5.979605e-06,1.730725e-06,4.014186e-06,-2.078816e-06,4.628869e-06,-3.092760e-06
1418381166475895,1418381166413408,1.662277e-07,-8.447249e-07,5.433416e-08,-1.583347e-06,1.544453e-06,1.691634e-06
1418381166538384,1418381166475895,-5.792085e-06,-4.371796e-05,1.094876e-05,-2.151442e-06,-7.922787e-07,6.237085e-07
1418381166663372,1418381166538384,3.168190e-05,5.076325e-06,1.846370e-05,9.146296e-06,-8.665754e-07,-2.381102e-06
1418381166725861,1418381166663372,-1.088938e-05,-4.457158e-06,1.666446e-05,4.471817e-06,2.197656e-06,1.521466e-06
1418381166788346,1418381166725861,-6.339942e-05,2.063867e-05,-3.574538e-05,-4.559547e-06,-3.426149e-06,-1.039776e-06
1418381166850834,1418381166788346,2.613594e-06,-1.228812e-07,-1.570406e-06,4.952137e-06,-1.480980e-06,3.655591e-06
1418381166975823,1418381166850834,-1.235690e-05,-7.481198e-06,5.295199e-06,-1.110458e-05,1.738661e-07,2.326894e-06
1418381167038312,1418381166975823,9.145254e-06,4.527762e-06,-3.031622e-06,9.889782e-06,1.234216e-07,-1.294336e-06
1418381167163301,1418381167038312,-6.302954e-05,-5.802869e-05,-3.973789e-05,-5.754037e-06,-2.373895e-06,7.876189e-06
1418381167225788,1418381167163301,-2.685424e-05,-1.676840e-05,3.455723e-07,-3.878473e-06,1.614592e-06,-5.222169e-07
1418381167288278,1418381167225788,-4.766763e-06,-1.661915e-06,-4.139999e-06,6.611036e-06,-1.011163e-06,-1.803166e-06
1418381167413266,1418381167288278,1.053624e-05,-2.837920e-05,-3.142820e-06,-3.022175e-06,-2.257308e-06,1.957113e-06
1418381167475753,1418381167413266,-3.868370e-06,-8.394760e-07,2.664180e-06,-2.962856e-06,1.137132e-06,1.195617e-06
1418381167538243,1418381167475753,-3.551549e-06,5.892820e-07,2.601641e-07,4.109587e-06,-1.664112e-06,-4.105609e-06
1418381167663232,1418381167538243,5.663022e-07,1.990492e-06,2.016108e-06,-1.026936e-05,7.257249e-07,1.949919e-06
1418381167725719,1418381167663232,-4.955914e-05,-3.426380e-05,-8.180485e-06,1.580353e-06,-1.996941e-06,3.383041e-06
1418381167788208,1418381167725719,7.731172e-06,-3.849158e-06,-4.956860e-06,2.686262e-06,-3.890377e-06,-1.946905e-06
1418381167913197,1418381167788208,5.199926e-07,-6.655475e-06,3.938024e-06,-1.475178e-06,2.154575e-06,-1.072145e-06
1418381167975688,1418381167913197,-3.663181e-05,-7.960884e-06,-1.035188e-05,1.219488e-08,-2.555916e-06,3.453054e-06
1418381168038176,1418381167975688,3.167481e-05,1.643510e-05,-1.180379e-06,5.804964e-06,-1.544920e-08,-2.953699e-06
1418381168163166,1418381168038176,-1.271688e-04,5.383895e-05,-3.897428e-05,8.259410e-06,-4.251941e-06,-4.731131e-06
1418381168225656,1418381168163166,6.043407e-05,4.218531e-06,1.326609e-05,3.768666e-07,-5.303476e-07,-1.609668e-07
1418381168350642,1418381168225656,-3.422567e-06,3.874488e-10,-1.373406e-06,7.281092e-06,1.666307e-06,2.197301e-06
1418381168413133,1418381168350642,4.111590e-06,3.703683e-06,4.375451e-07,-7.227392e-06,1.782630e-07,-4.838106e-06
1418381168475620,1418381168413133,-3.297826e-05,-1.688975e-06,1.478356e-05,7.659754e-06,1.481451e-06,1.333268e-06
1418381168600608,1418381168475620,8.448197e-05,-7.237850e-05,3.331456e-05,-4.134213e-06,-3.407841e-07,5.778561e-06
1418381168663098,1418381168600608,-1.232875e-04,-1.253699e-06,-5.637302e-05,1.087398e-05,-8.146073e-06,2.408631e-06
1418381168725587,1418381168663098,-1.608206e-05,-7.104289e-06,5.178537e-06,4.594297e-06,-2.473689e-07,-8.495801e-07
1418381168850575,1418381168725587,-1.932306e-05,-7.191479e-07,2.826270e-05,-3.901799e-06,5.923883e-06,-1.721510e-06
1418381168913065,1418381168850575,3.590658e-06,1.729225e-06,-3.345147e-06,6.588850e-06,-5.332662e-06,-5.021213e-06
1418381168975553,1418381168913065,-1.227399e-05,8.048095e-06,3.368226e-06,2.167558e-06,-4.971581e-07,3.729583e-07
1418381169100543,1418381168975553,-4.912352e-07,-1.568661e-06,1.985694e-06,-2.627267e-06,4.718547e-06,-2.733166e-07
1418381169163031,1418381169100543,-2.794488e-05,1.449479e-05,3.541284e-06,2.801104e-06,-3.226655e-06,-1.072703e-06
1418381169225520,1418381169163031,-5.820947e-06,-3.348826e-06,-1.034850e-06,2.699534e-06,8.439050e-07,1.738081e-06
1418381169288009,1418381169225520,7.058733e-06,4.719964e-06,1.187951e-06,-8.450771e-06,-1.338733e-06,-2.460041e-06
1418381169412995,1418381169288009,-3.000324e-05,1.413335e-05,-5.870197e-06,-6.131875e-07,2.472902e-06,-2.186778e-07
1418381169475485,1418381169412995,-6.837115e-06,5.414871e-06,2.065978e-06,4.146414e-07,-4.884742e-07,-2.138803e-06
1418381169537973,1418381169475485,2.783802e-05,9.561989e-06,1.970059e-06,-1.186203e-06,-8.604141e-07,7.029331e-07
1418381169662961,1418381169537973,1.273461e-06,9.406377e-06,-2.321991e-06,3.021603e-06,-1.297654e-06,-4.679077e-06
1418381169725450,1418381169662961,-4.611166e-06,-6.026782e-06,3.307468e-06,4.830484e-06,1.673083e-06,-1.085626e-06
1418381169787937,1418381169725450,1.486585e-05,7.065717e-06,5.068623e-06,-4.865927e-06,-1.994192e-06,2.509051e-06
1418381169850427,1418381169787937,-4.630794e-06,-1.827043e-06,1.942860e-06,-3.186979e-06,5.264471e-07,2.837620e-07
1418381169975415,1418381169850427,-4.941819e-05,2.186688e-05,-1.114914e-05,4.561667e-06,-1.975146e-06,-2.753712e-06
1418381170037904,1418381169975415,-1.648541e-05,5.141023e-06,-5.456140e-06,-3.045249e-06,4.078203e-07,-2.553397e-07
1418381170100395,1418381170037904,-2.904825e-06,9.838496e-07,8.829215e-07,-2.294955e-06,-1.622251e-06,-1.834687e-08
1418381170225384,1418381170100395,-1.226687e-05,-4.836203e-06,1.382602e-06,6.848344e-07,-2.349989e-06,1.529215e-06
1418381170287872,1418381170225384,-4.753196e-06,-7.381075e-06,-4.218067e-06,2.393207e-06,-2.018916e-06,2.551738e-06
1418381170412861,1418381170287872,-1.435020e-06,-1.715844e-06,6.325383e-07,3.129343e-06,3.318164e-07,1.786905e-06
1418381170475348,1418381170412861,-3.449370e-06,-1.643144e-05,-4.696185e-08,7.368323e-07,1.262988e-06,-2.761427e-08
1418381170537838,1418381170475348,-9.617292e-06,2.303701e-06,1.251179e-05,-4.241373e-06,2.598118e-06,-2.394026e-06
1418381170600328,1418381170537838,-1.391906e-05,-1.533775e-05,4.009667e-07,8.896335e-06,3.430066e-07,1.834753e-06
1418381170725313,1418381170600328,-3.489844e-05,2.363827e-05,1.090036e-06,-5.699633e-06,2.583491e-06,-3.730585e-06
1418381170787803,1418381170725313,5.634317e-05,2.767769e-05,1.792855e-05,1.134955e-05,-2.025575e-06,3.322069e-08
1418381170850290,1418381170787803,7.161056e-05,-5.240843e-07,3.159786e-05,-6.170196e-07,2.492037e-06,1.391971e-07
1418381170975278,1418381170850290,-3.629312e-06,2.126298e-06,3.136600e-06,-6.564951e-06,4.511406e-06,-1.398373e-06
1418381171037767,1418381170975278,-2.438395e-06,1.058413e-06,2.154393e-06,-7.400541e-06,2.611783e-06,-2.279008e-06
1418381171100256,1418381171037767,1.555521e-05,1.002281e-05,-5.107034e-06,6.283914e-06,1.331398e-06,-3.122977e-07
1418381171225245,1418381171100256,1.408626e-06,2.102715e-05,-1.567084e-06,2.691985e-06,-3.314664e-06,-1.443421e-06
1418381171287731,1418381171225245,1.222683e-05,-5.322797e-06,1.832499e-06,1.963090e-06,-4.836182e-07,1.896792e-06
1418381171350222,1418381171287731,-1.517486e-05,-6.720382e-06,-8.646876e-07,6.819773e-07,-1.113475e-06,1.024385e-06
1418381171412710,1418381171350222,-1.200071e-05,-5.118501e-06,5.138541e-06,-3.469504e-06,6.163069e-07,-3.128003e-06
1418381171537700,1418381171412710,1.790093e-05,3.316745e-06,6.416790e-06,-3.197547e-06,-4.753714e-06,1.108916e-06
1418381171600188,1418381171537700,1.366059e-05,9.568376e-06,1.781729e-08,1.813248e-06,2.855664e-06,-1.749330e-06
1418381171662678,1418381171600188,-1.405484e-05,-1.126032e-05,1.568262e-06,4.805628e-06,7.370496e-06,5.485358e-06
1418381171787667,1418381171662678,-4.989923e-05,1.786846e-06,-3.905598e-05,-1.076284e-06,-1.125546e-05,7.225549e-07
1418381171850156,1418381171787667,-6.767359e-05,-1.892477e-05,-2.982188e-05,-9.740828e-06,-3.601372e-06,1.777890e-06
1418381171912643,1418381171850156,-2.482071e-05,-6.254539e-06,-2.420752e-06,3.010721e-06,1.851004e-06,-1.186850e-06
1418381172037632,1418381171912643,-8.599196e-06,7.392424e-06,6.581647e-07,5.437566e-06,-2.208066e-07,-2.339453e-06
1418381172100122,1418381172037632,3.961102e-05,1.062518e-06,1.662532e-05,1.067184e-06,-2.322066e-07,2.234061e-06
1418381172225110,1418381172100122,-7.307850e-06,-6.188193e-06,-2.293344e-06,1.780743e-06,1.685313e-06,4.770683e-06
1418381172287598,1418381172225110,-2.288810e-06,5.184348e-07,1.161943e-05,-2.918252e-06,5.151570e-06,6.024198e-07
1418381172350088,1418381172287598,2.283776e-05,1.377642e-05,8.648232e-06,-7.807273e-07,-4.046553e-06,-4.399913e-06
1418381172475088,1418381172350088,-9.432354e-06,-5.088890e-06,-1.997913e-06,6.777143e-06,3.084597e-06,8.934457e-07
1418381172537563,1418381172475088,5.244185e-06,5.434486e-07,1.353274e-06,-1.303525e-06,-9.352937e-07,1.270373e-06
1418381172600052,1418381172537563,-6.764402e-05,3.938464e-06,-2.285374e-05,-4.130264e-07,8.295955e-07,-4.323801e-06
1418381172725042,1418381172600052,5.974483e-06,5.598009e-06,-3.266923e-06,-5.506975e-06,8.628228e-07,-9.854198e-07
1418381172787531,1418381172725042,6.253032e-06,1.280133e-07,-5.179674e-06,-2.652758e-07,-8.186663e-06,1.529000e-07
1418381172850019,1418381172787531,6.607512e-06,4.140954e-06,5.096218e-06,2.254568e-07,7.920047e-06,5.225398e-07
1418381172912507,1418381172850019,-6.230322e-06,9.167567e-06,1.373780e-06,3.471441e-06,3.962866e-06,-6.466630e-07
1418381173037498,1418381172912507,1.152862e-05,8.118585e-06,1.471493e-05,1.016202e-05,-5.866285e-06,1.956145e-06
1418381173099987,1418381173037498,4.135281e-06,-3.872525e-05,-3.682721e-06,-7.843388e-06,-1.658007e-06,1.317610e-06
1418381173162476,1418381173099987,3.957792e-05,8.097498e-06,1.581342e-05,-3.399901e-06,2.278989e-06,-5.724719e-06
1418381173287464,1418381173162476,-2.999858e-05,-1.512465e-05,1.042604e-05,2.384927e-06,9.173800e-06,1.951086e-06
1418381173349954,1418381173287464,7.643221e-06,4.655331e-06,-3.577755e-06,4.011756e-06,-3.099291e-06,-3.578395e-06
1418381173412442,1418381173349954,-5.977773e-05,-3.931161e-05,-2.421864e-05,6.268247e-06,-8.005160e-06,7.045897e-06
1418381173537434,1418381173412442,-1.403702e-05,1.903738e-06,1.616702e-06,-2.978653e-06,2.392777e-06,-1.663483e-06
1418381173599920,1418381173537434,8.605567e-06,3.161756e-06,2.155090e-06,2.594202e-06,1.034948e-06,-1.061096e-06
1418381173662410,1418381173599920,-2.657076e-05,4.320751e-06,-1.299348e-05,-3.209950e-06,-2.504057e-06,-6.414665e-07
1418381173787398,1418381173662410,3.288184e-05,1.588038e-05,2.152307e-05,-5.133041e-06,2.682439e-06,2.720183e-07
1418381173849886,1418381173787398,2.404855e-05,1.209982e-05,-6.233661e-06,-3.733656e-06,-7.189137e-07,-1.138125e-06
1418381173912374,1418381173849886,-2.454674e-06,-1.548465e-06,-4.231485e-06,1.745456e-05,-4.459150e-06,1.308446e-06
1418381174037364,1418381173912374,-3.786040e-05,5.631794e-06,-1.478372e-05,4.383419e-06,8.876509e-07,-2.771501e-06
1418381174099852,1418381174037364,5.129401e-05,1.876001e-05,2.189625e-05,2.601301e-06,1.177537e-06,-3.756608e-06
1418381174162342,1418381174099852,2.073071e-05,-2.241792e-06,-6.013490e-06,-6.477024e-06,-3.071792e-06,4.185824e-06
1418381174224832,1418381174162342,-1.139746e-06,2.445851e-07,-1.533345e-06,1.072940e-05,-2.625081e-06,7.235330e-09
1418381174349818,1418381174224832,-4.642856e-05,-2.411000e-05,-1.380096e-05,-8.711968e-07,2.624230e-06,4.009317e-06
1418381174412308,1418381174349818,2.037670e-05,1.079736e-05,-4.194471e-06,1.260101e-05,-3.163524e-06,8.579884e-07
1418381174474796,1418381174412308,-8.820920e-06,-2.822189e-06,2.720875e-06,3.551393e-07,-2.189057e-06,-2.569313e-06
1418381174537283,1418381174474796,4.486386e-06,9.631342e-06,5.930053e-06,-1.242403e-06,4.735613e-06,-4.811305e-06
1418381174662274,1418381174537283,5.104526e-05,-2.129591e-05,6.106339e-06,4.058810e-06,-1.360997e-06,2.776947e-06
1418381174724762,1418381174662274,-1.798823e-05,4.749648e-06,-2.849670e-05,-1.310421e-07,-4.023338e-06,-2.015096e-06
1418381174787250,1418381174724762,-3.002437e-05,1.994112e-05,2.213494e-05,-1.116358e-05,4.463760e-06,-3.093021e-06
1418381174849740,1418381174787250,1.513540e-05,-1.807036e-06,1.079170e-05,-3.842003e-06,-9.437068e-07,8.048317e-07
1418381174974726,1418381174849740,-2.035504e-06,-5.229761e-06,-4.310541e-07,7.627292e-06,3.616575e-06,2.386646e-06
1418381175037217,1418381174974726,-4.013837e-06,-2.271249e-06,-3.580216e-08,-8.115391e-06,-2.706941e-06,9.358759e-08
1418381175162203,1418381175037217,-3.207332e-06,8.073856e-07,-2.591887e-06,2.708852e-06,-5.307028e-06,6.764843e-06
1418381175224693,1418381175162203,-1.105530e-05,-4.593905e-06,2.856936e-06,9.802306e-08,3.935256e-06,-1.347011e-06
1418381175287180,1418381175224693,-9.755154e-06,-1.529407e-06,-7.077698e-07,3.342836e-06,5.881224e-06,-6.516751e-07
1418381175349670,1418381175287180,2.653344e-05,-1.824230e-05,4.339362e-06,2.600688e-07,-2.275399e-06,2.717568e-06
1418381175474658,1418381175349670,9.024129e-06,3.907913e-06,3.106596e-06,-1.505347e-05,-8.239458e-06,-5.296477e-06
1418381175537148,1418381175474658,-4.848620e-06,-2.506168e-06,4.493846e-06,1.172839e-05,8.097073e-06,1.239081e-06
1418381175599635,1418381175537148,2.382017e-05,1.319782e-05,7.545119e-06,5.499746e-06,4.217043e-06,3.152134e-06
1418381175724624,1418381175599635,6.174428e-05,-2.634557e-05,3.566045e-06,-1.953559e-05,-1.047492e-05,1.722348e-07
1418381175787113,1418381175724624,-4.004149e-05,3.109446e-05,5.596135e-06,7.918134e-07,-2.138944e-06,-4.186952e-06
1418381175912102,1418381175787113,-7.670472e-06,-3.992318e-08,-1.017285e-05,7.164556e-07,7.349232e-06,3.620736e-06
1418381175974592,1418381175912102,3.215109e-06,5.263441e-06,-8.758451e-07,1.719757e-06,-3.881579e-07,2.072202e-06
1418381176037079,1418381175974592,-7.109481e-06,8.004642e-07,-3.438290e-06,7.387649e-06,-5.369559e-06,-2.750589e-06
1418381176099569,1418381176037079,-7.735358e-06,-7.678426e-07,3.008640e-06,-7.052499e-06,-3.856347e-06,4.947026e-06
1418381176224557,1418381176099569,1.222720e-05,6.822266e-06,6.522765e-06,3.952202e-06,7.004436e-06,-5.203488e-06
1418381176287049,1418381176224557,-2.452178e-06,-3.273453e-06,-1.458299e-05,7.445989e-07,-2.089765e-06,-1.436099e-06
1418381176349535,1418381176287049,-9.510766e-05,-4.528304e-05,-3.750477e-05,-6.456922e-06,-9.315088e-06,5.671498e-06
1418381176474526,1418381176349535,2.072802e-06,8.678604e-07,8.698295e-09,3.753404e-06,1.172869e-06,2.195854e-06
1418381176537013,1418381176474526,2.605928e-06,3.003199e-06,1.072936e-07,-9.102196e-07,6.670842e-07,-2.384661e-06
1418381176662004,1418381176537013,2.272236e-05,-1.526201e-05,2.263286e-06,4.318685e-06,-5.647065e-06,2.497202e-06
1418381176724491,1418381176662004,-1.221945e-05,-1.077597e-05,-7.685050e-07,5.132441e-06,-2.799059e-06,6.002876e-06
1418381176786981,1418381176724491,-2.533851e-05,-6.268054e-06,4.125482e-07,3.926746e-06,-1.518252e-07,-4.268657e-06
1418381176849469,1418381176786981,-2.757021e-05,-1.544236e-05,-7.472568e-06,-2.978041e-06,3.346963e-06,6.561723e-07
1418381176974462,1418381176849469,9.776894e-06,-7.609920e-06,-2.356658e-07,-5.929932e-06,-2.674561e-06,6.259648e-06
1418381177036948,1418381176974462,4.611040e-05,1.572109e-05,1.248376e-05,2.692853e-06,-5.643368e-06,-4.161933e-06
1418381177099438,1418381177036948,-8.823747e-07,3.445456e-06,3.188918e-06,9.975651e-06,3.288647e-06,-3.835115e-07
1418381177224425,1418381177099438,-2.432249e-05,1.820220e-05,9.561411e-06,8.585191e-06,8.751618e-06,3.354049e-06
1418381177286917,1418381177224425,-7.765616e-07,1.214259e-06,-2.920763e-07,-6.231270e-06,-4.556146e-06,-3.091193e-06
1418381177349405,1418381177286917,3.221411e-06,1.677616e-06,1.430786e-06,-4.441513e-06,-2.943746e-06,-3.110114e-06
1418381177411892,1418381177349405,1.313409e-05,6.080166e-06,-1.031825e-06,-3.510761e-06,-7.819143e-07,-2.146839e-06
1418381177536882,1418381177411892,3.018853e-06,-2.596035e-06,1.157218e-06,2.157277e-06,3.458252e-06,5.105929e-06
1418381177599371,1418381177536882,-6.317597e-05,-3.543996e-06,-2.742771e-05,1.494007e-05,-9.050396e-06,3.697855e-06
1418381177661858,1418381177599371,1.069728e-05,-9.361312e-07,1.898107e-05,4.270427e-06,2.401000e-06,-5.572429e-07
1418381177724349,1418381177661858,1.470159e-05,3.580632e-06,-3.764672e-06,6.596631e-07,-6.924917e-07,2.409790e-06
1418381177849338,1418381177724349,-5.995737e-06,-6.125803e-06,1.485976e-06,-5.241135e-06,5.218521e-06,-2.378339e-06
1418381177911829,1418381177849338,-1.042205e-05,-5.417261e-06,8.104210e-07,-2.197289e-06,-9.294382e-07,5.061425e-06
1418381177974315,1418381177911829,4.855295e-06,-1.048201e-06,-2.132175e-06,1.885009e-06,-3.465839e-06,6.779125e-06
1418381178099306,1418381177974315,3.100063e-06,7.565527e-06,4.119911e-07,7.430472e-06,2.958086e-06,-1.964439e-06
1418381178161793,1418381178099306,-1.442682e-06,-7.154299e-07,-1.245013e-07,1.386547e-06,-8.150213e-07,-1.223135e-06
1418381178224282,1418381178161793,1.013542e-05,1.317732e-05,5.465021e-07,4.944002e-06,-3.529016e-06,-3.833284e-06
1418381178286770,1418381178224282,2.659580e-05,-5.188090e-05,4.977966e-06,-3.324430e-06,-1.700863e-06,5.193658e-06
1418381178411758,1418381178286770,-1.731429e-05,-2.623363e-06,-1.086347e-05,1.033939e-06,-6.992181e-07,2.784121e-06
1418381178474246,1418381178411758,-2.298143e-06,2.366292e-06,-9.156165e-06,7.657749e-07,-3.859573e-06,-2.150801e-07
1418381178536738,1418381178474246,2.960930e-05,-1.079320e-05,2.025026e-05,2.566629e-06,2.218028e-06,-3.569108e-06
1418381178661726,1418381178536738,8.941761e-05,8.469849e-07,3.419888e-05,-5.173913e-06,8.048012e-08,-3.259348e-06
1418381178724213,1418381178661726,-8.539470e-05,2.284565e-05,-2.061481e-05,-3.483562e-06,3.392409e-07,-4.518683e-07
1418381178786705,1418381178724213,-7.837100e-05,-3.644127e-05,-2.846842e-05,-2.085307e-06,1.601572e-06,1.112051e-07
1418381178911694,1418381178786705,5.476508e-05,2.879396e-05,2.650825e-05,1.756552e-06,-1.800163e-06,-1.620131e-06
1418381178974181,1418381178911694,3.148938e-06,3.788343e-07,1.320757e-06,-4.230033e-06,1.087418e-06,-1.122494e-06
1418381179036670,1418381178974181,-3.307179e-05,-2.329994e-05,-2.994074e-05,8.353680e-06,-2.914306e-06,1.379671e-06
1418381179099158,1418381179036670,2.589247e-06,1.946803e-06,6.734013e-06,-4.104552e-06,1.546323e-06,-2.920935e-07
1418381179224147,1418381179099158,2.446802e-05,1.390823e-05,-1.839701e-05,-3.001560e-06,-1.508901e-06,-1.150415e-06
1418381179286635,1418381179224147,-4.727543e-05,8.045276e-06,-6.282763e-06,1.085869e-06,-5.677828e-08,4.852931e-07
1418381179349124,1418381179286635,-3.244524e-06,1.045320e-06,-1.665782e-06,4.048823e-06,6.392838e-07,1.549648e-06
1418381179474114,1418381179349124,-1.104463e-05,-5.664488e-06,3.843468e-06,-1.414419e-05,-2.321208e-06,-7.381393e-08
1418381179536606,1418381179474114,-1.479964e-04,3.115984e-07,-6.055227e-05,-2.898999e-06,-6.524051e-06,2.151624e-06
1418381179599093,1418381179536606,5.204374e-05,-2.617613e-05,2.519204e-05,1.730981e-06,2.674873e-06,4.703580e-06
1418381179724083,1418381179599093,3.858310e-05,-2.228799e-06,8.806741e-06,-6.016274e-06,-3.950966e-07,1.721285e-06
1418381179786570,1418381179724083,3.790705e-07,-1.587747e-06,7.828443e-08,6.187426e-06,-4.022198e-06,-6.867641e-07
1418381179849059,1418381179786570,1.019798e-06,1.103541e-06,-5.961842e-07,5.098403e-06,-1.641461e-06,2.453808e-07
1418381179911548,1418381179849059,1.935344e-07,1.930993e-06,1.150733e-06,-3.678164e-06,2.101056e-06,-2.972527e-06
1418381180036536,1418381179911548,1.452369e-05,8.613704e-06,3.645740e-06,-5.395105e-06,-4.414550e-07,-1.892037e-06
1418381180099025,1418381180036536,4.041664e-06,1.955133e-06,5.198871e-07,6.346619e-07,2.439385e-06,1.093565e-06
1418381180161515,1418381180099025,-8.242646e-05,-4.242969e-05,-3.019594e-05,-6.803715e-06,-3.884627e-06,1.029445e-06
1418381180286502,1418381180161515,-5.359515e-05,-3.373414e-05,1.566620e-05,4.497718e-06,-8.272114e-07,1.757780e-06
1418381180348991,1418381180286502,9.265409e-06,2.530311e-05,1.519032e-06,-2.700658e-06,2.244718e-08,-3.964723e-06
1418381180411478,1418381180348991,-5.304895e-06,-1.716650e-05,-3.828200e-06,-6.754234e-07,-1.131947e-06,1.524336e-06
1418381180473970,1418381180411478,-1.518599e-04,-2.609973e-05,-5.217017e-05,-6.453294e-06,-7.300620e-06,3.842306e-06
1418381180598958,1418381180473970,6.070503e-05,2.849900e-05,2.238587e-05,-2.288523e-06,2.784901e-06,-9.969851e-07
1418381180661448,1418381180598958,6.488514e-06,4.237887e-06,-8.169226e-07,-7.553064e-07,-3.427860e-06,-1.612667e-06
1418381180723937,1418381180661448,-3.984279e-05,-6.943957e-05,-4.541445e-05,-3.147750e-06,-3.664799e-06,8.644623e-06
1418381180786426,1418381180723937,1.020873e-05,5.456456e-06,7.457191e-06,-1.253127e-05,-8.479518e-07,-1.515761e-06
1418381180911415,1418381180786426,-2.094725e-05,9.576326e-07,-1.011763e-05,2.524996e-06,-3.456018e-06,2.604348e-06
1418381180973904,1418381180911415,-4.042877e-06,2.616389e-06,2.066912e-06,-5.011238e-06,-5.595762e-07,4.302923e-07
1418381181036392,1418381180973904,-5.085183e-06,4.680913e-06,2.526327e-06,-3.744488e-06,1.803477e-06,3.422072e-10
1418381181161381,1418381181036392,-6.763640e-06,-4.635265e-06,-1.784767e-06,-1.671285e-06,-2.079263e-06,5.085468e-08
1418381181223870,1418381181161381,-4.718081e-05,-2.352229e-05,-2.030607e-05,2.090107e-06,-4.607554e-06,5.835197e-06
1418381181286361,1418381181223870,2.569500e-06,1.493496e-07,-7.408838e-07,-4.659304e-06,-7.748990e-07,1.062172e-06
1418381181411348,1418381181286361,7.745066e-06,-7.031659e-06,2.658182e-06,-4.557384e-06,2.046964e-06,-4.677174e-07
1418381181473837,1418381181411348,6.014274e-07,-2.029059e-05,1.745300e-05,-8.445082e-06,-9.488165e-07,7.192110e-06
1418381181536326,1418381181473837,5.145505e-06,6.289941e-06,-8.420986e-06,-2.711145e-06,-6.002506e-07,7.281234e-07
1418381181661315,1418381181536326,4.598474e-05,-9.162769e-06,2.485041e-05,5.236630e-06,3.536555e-06,1.778840e-06
1418381181723804,1418381181661315,3.524960e-05,1.282836e-05,1.351178e-05,4.962954e-06,3.531100e-06,-5.368199e-06
1418381181786293,1418381181723804,5.326247e-05,-3.037961e-05,1.839169e-05,1.254409e-06,3.022110e-06,3.137460e-06
1418381181848781,1418381181786293,-5.354212e-06,-3.948972e-06,-1.395019e-06,-2.191050e-06,-3.133750e-06,1.792829e-06
1418381181973771,1418381181848781,3.658826e-05,2.741815e-05,3.651681e-05,1.331836e-05,-6.565839e-07,-3.521475e-06
1418381182036258,1418381181973771,-3.355140e-05,-1.767736e-05,7.782223e-06,-2.484060e-06,3.854258e-06,4.264406e-06
1418381182098749,1418381182036258,-4.168809e-06,7.176852e-06,8.064805e-06,4.686315e-06,1.298856e-06,-8.080109e-07
1418381182223735,1418381182098749,1.305487e-05,1.537365e-06,-7.990710e-06,-1.344946e-05,-6.122143e-06,4.118507e-06
1418381182286227,1418381182223735,7.728551e-06,3.356647e-06,2.245028e-06,1.002523e-06,2.634643e-06,-3.716202e-07
1418381182348727,1418381182286227,1.960815e-05,2.971884e-05,1.082306e-05,1.958715e-06,4.209549e-06,-2.457648e-06
1418381182411202,1418381182348727,-5.355534e-06,-4.394638e-06,4.018363e-08,6.958097e-07,7.687489e-07,2.344689e-06
1418381182536192,1418381182411202,-5.772675e-05,1.282957e-06,-5.104940e-05,-5.115664e-07,-1.380178e-05,-1.194426e-06
1418381182598680,1418381182536192,3.726214e-06,-1.543445e-06,-1.643703e-06,3.844877e-06,-2.053528e-06,2.436718e-06
1418381182661169,1418381182598680,9.233705e-06,2.806006e-06,1.749800e-06,-5.023633e-08,2.138007e-06,3.009691e-06
1418381182786156,1418381182661169,-9.490745e-06,-5.904881e-06,2.206058e-06,-6.508167e-06,8.772497e-07,3.515718e-07
1418381182848644,1418381182786156,2.627816e-06,-5.210485e-07,-4.302886e-07,2.842691e-06,-4.569405e-06,-8.426372e-07
1418381182911134,1418381182848644,1.421085e-14,-1.187939e-14,2.664536e-15,-1.110219e-16,1.665335e-16,4.163337e-16
1418381182973622,1418381182911134,-2.409245e-05,-1.088983e-05,7.420063e-06,5.595900e-07,7.843793e-06,-3.571801e-06
1418381183098613,1418381182973622,1.804467e-06,2.195931e-06,-3.477438e-07,-5.872270e-06,-1.163728e-05,-1.510180e-07
1418381183161101,1418381183098613,-4.684662e-05,9.640405e-06,-3.297789e-05,1.925044e-06,-1.108871e-05,2.435385e-06
1418381183223591,1418381183161101,-1.284823e-05,-4.908930e-06,-2.147855e-06,1.188910e-05,9.795334e-06,8.125307e-08
1418381183348580,1418381183223591,-6.683508e-06,-2.168460e-08,4.446044e-06,2.268036e-07,6.031740e-06,-2.940110e-06
1418381183411069,1418381183348580,-1.478894e-05,-8.389044e-06,-3.972366e-07,4.914811e-06,-5.430290e-06,3.631978e-07
1418381183473558,1418381183411069,-9.063602e-06,-5.253851e-06,9.201446e-07,-4.575460e-06,-5.993799e-06,4.267134e-06
1418381183536049,1418381183473558,-7.214743e-06,-1.765636e-05,-1.369281e-05,2.361587e-06,-2.482048e-06,2.897271e-06
1418381183661037,1418381183536049,-1.944760e-05,-3.428846e-06,9.509664e-06,-6.575961e-06,1.563575e-05,-6.842110e-06
1418381183723526,1418381183661037,2.938873e-05,-2.645640e-05,6.066005e-06,-3.271829e-06,-6.203650e-07,3.805430e-06
1418381183848513,1418381183723526,-1.573511e-05,1.419136e-05,-1.451319e-05,1.857878e-05,-1.219385e-05,-2.434978e-06
1418381183911005,1418381183848513,-6.223485e-06,-3.486472e-06,8.975533e-06,3.102351e-07,4.326954e-06,8.069609e-07
1418381183973492,1418381183911005,2.632248e-07,-1.376295e-06,-5.183262e-07,3.016273e-06,-1.406104e-06,1.765997e-06
1418381184098481,1418381183973492,5.309448e-05,-2.898753e-05,-1.214625e-07,-1.508028e-05,-2.737489e-06,-2.057355e-07
1418381184160969,1418381184098481,-2.090907e-05,-1.129902e-05,-9.785860e-06,-4.367084e-06,-2.907413e-06,-1.564729e-07
1418381184223458,1418381184160969,-2.138605e-06,-1.508837e-06,-4.233975e-07,3.654442e-06,2.596605e-06,2.804754e-06
1418381184285949,1418381184223458,6.717954e-07,-1.545665e-06,-2.403816e-07,7.146796e-06,4.292735e-06,5.297123e-07
1418381184410935,1418381184285949,-2.326252e-07,9.315189e-07,-8.724409e-07,-5.148518e-06,-5.028764e-06,-2.896254e-06
1418381184473424,1418381184410935,-1.804258e-05,-9.919274e-06,-4.394661e-06,-7.155424e-06,4.174307e-07,1.578310e-06
1418381184535914,1418381184473424,-1.145433e-05,3.874715e-06,-4.276636e-06,4.889735e-07,9.155283e-07,-2.598246e-06
1418381184598402,1418381184535914,1.892979e-05,1.404627e-05,1.323580e-06,1.218390e-05,1.834576e-06,4.114485e-07
1418381184723391,1418381184598402,-4.877065e-06,-2.154899e-06,-2.293937e-06,7.696333e-06,-3.988784e-06,2.267120e-06
1418381184785880,1418381184723391,3.885069e-05,7.454829e-06,-5.029605e-06,8.101443e-06,-5.775593e-07,6.378079e-06
1418381184848369,1418381184785880,1.947275e-05,4.921610e-05,8.676339e-06,3.271179e-06,1.067025e-06,-4.132791e-06
1418381184973358,1418381184848369,-1.305891e-05,4.652997e-06,-3.520299e-06,-1.089570e-05,1.219388e-06,-4.122324e-06
1418381185035847,1418381184973358,2.015333e-05,-3.297138e-05,-5.426082e-06,1.690633e-06,-1.659146e-06,5.444868e-06
1418381185098336,1418381185035847,-1.119151e-06,4.924728e-06,2.092384e-06,-8.797776e-07,-8.948352e-07,6.808734e-07
1418381185160825,1418381185098336,2.000165e-07,-2.104432e-07,-9.486861e-07,5.800056e-06,-8.543562e-07,-1.424903e-07
1418381185285815,1418381185160825,2.241398e-06,-2.618927e-07,1.408698e-06,-1.748305e-06,3.547826e-06,1.547407e-06
1418381185348303,1418381185285815,-3.284550e-08,7.428322e-07,2.029536e-06,-7.071309e-06,-2.032227e-06,1.413707e-06
1418381185410793,1418381185348303,-3.226113e-06,-1.000428e-06,2.643384e-07,-5.006730e-06,-3.336612e-06,-2.034709e-06
1418381185535781,1418381185410793,4.106527e-06,-1.187328e-06,-1.378064e-06,1.815452e-06,-5.964716e-07,2.268681e-06
1418381185598270,1418381185535781,5.757870e-05,-2.784201e-05,1.763130e-05,3.253136e-06,2.781053e-06,4.002077e-06
1418381185660758,1418381185598270,-7.447477e-05,-4.258611e-06,-2.044552e-05,7.063523e-06,-3.190504e-06,1.101236e-06
1418381185785747,1418381185660758,-9.515127e-06,-5.412873e-06,8.125713e-07,2.133525e-06,-5.115393e-06,1.124823e-06
1418381185848237,1418381185785747,-6.734984e-05,-1.752419e-05,-4.174287e-06,-1.340078e-06,-6.928864e-07,3.531559e-06
1418381185910724,1418381185848237,-1.102340e-05,-6.685908e-06,4.609011e-06,-4.708672e-06,5.030695e-06,1.673767e-06
1418381185973214,1418381185910724,7.589913e-05,-4.853884e-05,3.920650e-05,-3.398714e-06,3.867813e-06,4.032225e-06
1418381186098202,1418381185973214,2.344887e-06,1.053691e-05,-4.025862e-06,9.348512e-06,-4.714612e-06,3.184693e-07
1418381186160689,1418381186098202,-2.846191e-06,-1.691816e-06,2.339393e-06,-8.298279e-06,2.901526e-06,1.768609e-06
1418381186223179,1418381186160689,7.556073e-06,-5.561907e-06,4.164417e-06,-4.780659e-06,1.091784e-06,2.577795e-06
1418381186348166,1418381186223179,1.338953e-05,7.539919e-06,1.388653e-06,-8.840111e-07,-2.552491e-06,1.724144e-06
1418381186410656,1418381186348166,5.141931e-05,1.209109e-05,1.950934e-05,3.468448e-06,2.355242e-06,-1.584357e-06
1418381186473145,1418381186410656,3.188990e-06,3.682249e-06,-1.333245e-06,-1.012894e-05,2.172043e-06,1.297715e-06
1418381186535634,1418381186473145,-4.696048e-06,-4.557189e-06,-4.615503e-07,-9.469664e-06,-3.451188e-06,2.480794e-06
1418381186660621,1418381186535634,-2.675408e-06,-2.784829e-06,1.144670e-06,-8.876815e-06,-7.473372e-07,-1.882595e-06
1418381186723112,1418381186660621,7.473796e-07,7.906940e-06,-9.231073e-07,3.477476e-07,-5.918741e-07,-1.568908e-06
1418381186785601,1418381186723112,1.964331e-05,7.953888e-06,-6.256061e-06,6.195749e-06,6.116209e-07,4.280794e-06
1418381186910588,1418381186785601,1.585559e-05,-8.192504e-06,-7.887621e-06,-2.891980e-07,-4.675324e-06,-5.276930e-06
1418381186973078,1418381186910588,-1.113112e-06,-1.664947e-06,1.013206e-06,-5.243705e-06,1.036418e-06,3.228758e-06
1418381187035566,1418381186973078,9.723816e-05,1.989170e-05,3.511874e-05,3.807914e-06,4.332451e-06,-3.431647e-06
1418381187098053,1418381187035566,1.205941e-06,2.461492e-06,1.563881e-08,1.383641e-07,-3.783285e-06,-1.392943e-06
1418381187223042,1418381187098053,-5.631521e-06,-2.166313e-06,-2.972315e-06,6.258896e-06,-1.450447e-06,-7.765268e-07
1418381187285532,1418381187223042,-2.314790e-05,-2.012702e-05,-2.310558e-06,8.608487e-06,9.489469e-07,8.812924e-06
1418381187348019,1418381187285532,4.457469e-06,4.106369e-06,-5.173966e-06,3.322009e-06,-1.556453e-06,-3.523102e-06
1418381187473009,1418381187348019,2.183595e-07,-2.005541e-06,3.456632e-06,-1.505311e-05,2.012444e-06,-2.742025e-06
1418381187535498,1418381187473009,7.989492e-05,1.536704e-05,4.211030e-05,-9.847329e-07,4.246850e-06,2.032450e-06
1418381187660486,1418381187535498,3.089958e-04,1.595583e-04,1.135808e-04,7.908371e-06,4.980398e-06,-2.380978e-05
1418381187722974,1418381187660486,3.345086e-05,2.754017e-05,2.475052e-05,7.709074e-06,4.760742e-06,-3.742800e-06
1418381187785465,1418381187722974,-2.691703e-06,-1.835905e-06,-1.327199e-06,7.949968e-06,-1.188243e-06,2.014345e-06
1418381187847954,1418381187785465,-2.244764e-05,-1.366107e-05,4.598563e-06,-2.496702e-06,-2.227009e-06,-2.723040e-07
1418381187972943,1418381187847954,6.702946e-06,7.884178e-06,-8.684907e-07,-7.713490e-07,-1.518873e-06,-1.676547e-06
1418381188035433,1418381187972943,3.526998e-06,1.342393e-06,2.689215e-06,-2.486854e-06,-1.839817e-06,-5.882559e-07
1418381188097919,1418381188035433,-9.138206e-05,-2.331132e-05,-3.280237e-05,-9.641250e-06,-2.488323e-06,3.821756e-06
1418381188222907,1418381188097919,6.134817e-05,-4.499969e-05,2.577427e-05,1.155588e-05,8.312265e-07,6.704014e-06
1418381188285394,1418381188222907,-7.078213e-06,1.480750e-05,7.268831e-06,2.921475e-06,3.963247e-06,5.917613e-07
1418381188347883,1418381188285394,-4.352600e-06,2.744131e-06,-1.614744e-06,6.759641e-06,-4.592579e-06,1.587267e-07
1418381188472871,1418381188347883,3.366423e-05,1.028754e-05,6.848790e-07,-3.057198e-06,-4.618921e-06,-2.361467e-06
1418381188535359,1418381188472871,3.009364e-06,-9.522551e-06,1.839492e-05,-1.648061e-05,6.414152e-06,-2.278815e-06
1418381188597850,1418381188535359,-5.894410e-05,-2.940771e-05,-2.308818e-05,-2.372144e-06,-1.725101e-06,4.786157e-06
1418381188660338,1418381188597850,-2.429756e-06,-7.369349e-07,-2.396938e-06,1.031301e-05,-4.032608e-06,-2.704471e-06
1418381188785328,1418381188660338,-7.040352e-06,-3.886922e-06,1.597252e-06,1.071807e-05,1.024829e-06,6.210522e-06
1418381188847816,1418381188785328,-2.622045e-06,-1.345733e-06,-2.274919e-06,-8.035943e-07,-4.768776e-06,-1.761061e-07
1418381188910306,1418381188847816,2.613103e-05,1.345300e-05,7.354289e-06,-8.459749e-06,4.140123e-06,-1.642617e-06
1418381189035294,1418381188910306,9.429357e-06,3.552158e-06,5.883133e-06,-6.514626e-06,3.697671e-06,-1.648461e-06
1418381189097783,1418381189035294,1.883720e-05,8.024621e-06,4.974070e-06,9.371092e-06,-1.806817e-06,-1.052582e-06
1418381189160271,1418381189097783,-1.086805e-05,-5.597142e-06,2.136856e-06,5.484955e-07,-9.505160e-07,1.020253e-06
1418381189285260,1418381189160271,-5.271605e-05,-4.607980e-06,-1.032470e-05,-4.689299e-06,-5.211669e-07,3.715675e-06
1418381189347748,1418381189285260,-3.356935e-07,2.058100e-06,3.305194e-06,1.834248e-06,4.852335e-06,-4.354836e-06
1418381189410237,1418381189347748,5.964852e-05,2.912640e-05,2.120600e-05,1.331722e-06,6.537800e-06,-6.536224e-06
1418381189535227,1418381189410237,-6.253542e-06,-1.565388e-05,8.451043e-07,1.223637e-06,6.285811e-08,2.867201e-06
1418381189597717,1418381189535227,-5.533377e-06,3.996465e-06,-9.159541e-06,-4.208077e-07,-4.945987e-06,-2.740703e-07
1418381189722704,1418381189597717,-1.149281e-05,-9.467107e-06,-4.311248e-06,1.026885e-05,-1.009358e-05,4.915607e-06
1418381189785194,1418381189722704,4.088881e-05,4.745914e-06,8.919241e-06,-6.038043e-06,2.579085e-06,-4.403434e-06
1418381189847683,1418381189785194,-5.835495e-06,-1.204765e-05,4.959520e-06,-1.218374e-06,-1.032963e-07,-1.051947e-06
1418381189910171,1418381189847683,-3.763333e-06,-2.939123e-06,1.168501e-06,6.291956e-06,2.491031e-06,2.068101e-06
1418381190035156,1418381189910171,-5.014537e-05,-3.591599e-06,-2.287031e-05,-2.730237e-06,-4.463356e-06,4.119068e-06
1418381190097645,1418381190035156,6.812935e-05,-1.807279e-05,2.022707e-05,3.690129e-06,1.510965e-06,5.634018e-06
1418381190160132,1418381190097645,-2.783140e-05,3.229887e-06,6.716247e-06,5.074087e-06,5.174639e-06,-3.496466e-06
1418381190285122,1418381190160132,1.983434e-06,-4.480533e-06,-1.969216e-06,5.935575e-07,1.457025e-07,4.575741e-06
1418381190347612,1418381190285122,-4.614659e-06,-1.119795e-06,-1.445285e-06,3.483285e-06,-5.353831e-06,-1.342479e-06
1418381190410101,1418381190347612,1.111688e-06,4.869213e-05,-2.568699e-06,-3.022053e-06,1.476302e-06,-4.525534e-06
1418381190472590,1418381190410101,-2.129428e-05,-1.153620e-05,-6.336951e-06,2.504828e-06,6.420462e-07,4.025992e-06
1418381190597577,1418381190472590,1.699485e-05,-1.395580e-05,-8.046216e-06,-1.041020e-05,-1.220415e-06,-4.969361e-07
1418381190660066,1418381190597577,1.095165e-05,1.620273e-06,5.951133e-06,1.974306e-06,-1.048829e-06,1.198136e-06
1418381190722555,1418381190660066,5.107523e-05,-8.547380e-05,2.785285e-05,4.251074e-06,5.269968e-06,8.569509e-06
1418381190847556,1418381190722555,-7.535754e-06,-2.182267e-05,4.440293e-07,2.102607e-06,1.940149e-06,1.431244e-06
1418381190910033,1418381190847556,-4.280156e-05,2.028901e-05,-1.135062e-05,2.637573e-06,-1.627958e-06,-3.658980e-06
1418381190972521,1418381190910033,5.420055e-05,2.231703e-05,1.817516e-05,-3.999404e-06,-1.370425e-06,-5.628075e-07
1418381191097511,1418381190972521,-1.128781e-05,-5.589241e-06,-1.415627e-06,-8.270699e-06,2.205836e-07,-2.396187e-06
1418381191160000,1418381191097511,1.342998e-06,-3.922331e-06,3.814930e-06,-4.287821e-06,9.254239e-07,-2.882736e-06
1418381191222489,1418381191160000,1.897820e-05,1.030921e-05,1.650263e-07,8.743345e-06,4.022994e-07,7.383754e-07
1418381191347477,1418381191222489,1.096505e-05,2.807882e-06,-2.504676e-06,-5.193894e-06,-3.604550e-06,3.275513e-06
1418381191409966,1418381191347477,2.966223e-06,8.987975e-07,-8.650973e-07,-1.920784e-06,1.264997e-06,1.266606e-06
1418381191472455,1418381191409966,-4.991461e-05,-1.975305e-06,-1.656641e-05,-3.650874e-06,-5.655620e-07,2.782483e-06
1418381191597442,1418381191472455,-5.238644e-07,-2.428552e-06,2.528460e-06,1.112730e-06,2.748431e-06,1.292261e-06
1418381191659932,1418381191597442,1.076728e-06,2.707802e-05,3.057822e-06,-1.310741e-07,3.900323e-06,-6.809484e-06
1418381191722418,1418381191659932,-1.230264e-05,-7.450584e-06,3.856379e-06,-5.801983e-07,1.668794e-06,7.354549e-07
1418381191847407,1418381191722418,-6.569787e-06,-5.507052e-06,-2.566275e-06,-4.182005e-07,-1.578370e-06,4.869000e-07
1418381191909893,1418381191847407,-2.175090e-07,6.572972e-06,2.470842e-06,-2.281817e-06,6.814398e-07,1.371020e-06
1418381191972380,1418381191909893,2.949369e-05,6.100711e-07,-9.083258e-06,-1.556083e-06,-3.085069e-06,4.580076e-07
1418381192097372,1418381191972380,-2.440687e-06,-4.102046e-06,5.250427e-06,1.202978e-06,-1.685832e-07,2.103263e-07
1418381192159858,1418381192097372,3.206342e-05,-3.041435e-05,7.947332e-06,5.488182e-08,1.139031e-06,8.058721e-07
1418381192222349,1418381192159858,-1.650230e-05,-6.710278e-06,-7.767518e-07,3.003856e-06,-1.219613e-07,1.353628e-06
1418381192347337,1418381192222349,-2.727865e-05,3.827837e-05,-6.772100e-05,1.138340e-06,-6.118354e-06,-3.576098e-06
1418381192409826,1418381192347337,-2.961367e-06,-1.613959e-06,1.281673e-06,2.366807e-06,-9.896396e-07,1.853461e-06
1418381192472315,1418381192409826,-1.881909e-05,-3.980380e-05,3.758780e-06,-3.012586e-06,-1.081657e-06,4.181845e-06
1418381192534804,1418381192472315,-1.001240e-05,-6.995929e-06,-2.164093e-06,-1.525338e-06,5.645031e-07,8.738273e-07
1418381192659789,1418381192534804,-1.101931e-05,-1.481800e-06,-6.363936e-06,3.540746e-07,-1.845325e-07,1.410331e-06
1418381192722278,1418381192659789,1.972461e-05,-2.668628e-05,2.432606e-06,-4.011874e-08,-4.693507e-09,2.670189e-06
1418381192784766,1418381192722278,-3.495674e-06,-1.322622e-05,-8.134704e-09,8.605927e-06,-2.977831e-06,2.239828e-06
1418381192909753,1418381192784766,3.611163e-07,-2.323342e-07,-6.555873e-07,-2.667347e-06,1.360356e-06,1.526738e-06
1418381192972241,1418381192909753,2.153736e-05,-1.130408e-05,1.281064e-05,-2.691105e-06,1.402671e-06,-1.571440e-06
1418381193034730,1418381192972241,1.676680e-06,2.844551e-06,-1.881256e-06,1.841930e-06,-2.521729e-06,1.038239e-06
1418381193159719,1418381193034730,-1.727354e-05,9.525022e-06,9.996020e-06,-2.271406e-06,2.127049e-06,-2.118411e-06
1418381193284707,1418381193159719,4.575481e-06,5.222783e-07,-9.141995e-07,-2.365736e-07,-6.043419e-07,-1.156612e-06
1418381193347206,1418381193284707,-3.617983e-05,1.889528e-05,3.612648e-06,5.405130e-06,3.724547e-06,-7.442121e-07
1418381193409683,1418381193347206,-4.340194e-06,1.995659e-06,1.238681e-06,1.569091e-06,-1.728208e-06,5.247438e-07
1418381193472173,1418381193409683,-1.494448e-07,-1.373810e-06,5.588815e-07,-8.424507e-06,1.645781e-07,-3.927810e-06
1418381193597162,1418381193472173,-2.430934e-05,2.697806e-05,7.401525e-06,1.035323e-05,5.810047e-06,-4.464634e-06
1418381193659649,1418381193597162,-1.543345e-05,-4.216293e-06,-8.894144e-06,6.076064e-07,-3.973910e-06,1.262831e-06
1418381193722138,1418381193659649,-2.143545e-05,1.274516e-05,-1.085447e-05,-8.440978e-07,-4.968126e-06,-4.037792e-07
1418381193847124,1418381193722138,2.226612e-05,1.267581e-05,-3.937664e-06,-1.457971e-05,2.746073e-07,-6.305964e-06
1418381193909612,1418381193847124,-2.899328e-05,-1.763867e-05,-7.585079e-06,-2.032231e-06,1.049134e-06,1.775708e-06
1418381193972104,1418381193909612,3.956889e-06,-3.855429e-06,5.801752e-06,3.349572e-06,-1.584099e-06,3.755288e-07
1418381194097092,1418381193972104,8.286403e-06,5.644911e-06,2.091578e-06,1.653396e-05,-8.683746e-06,-4.224293e-06
1418381194159579,1418381194097092,-5.854015e-06,-3.867457e-06,2.783303e-06,-9.182284e-07,3.308929e-06,3.971029e-06
1418381194284571,1418381194159579,-1.131642e-05,-6.268861e-06,-1.004727e-05,-1.718629e-06,-2.067780e-06,-4.535744e-07
1418381194347058,1418381194284571,-3.037945e-05,-1.011839e-05,-3.364841e-06,-5.687359e-06,2.664150e-07,1.815767e-06
1418381194409549,1418381194347058,-7.995166e-06,-7.402709e-06,-1.465064e-05,6.477497e-06,-4.797153e-06,2.490276e-06
