source_timestamp,destination_timestamp,x,y,z,roll,pitch,yaw
1418132416799606,1418132416737115,-9.137664e-05,-4.288781e-05,3.522508e-05,-5.251746e-05,8.943627e-05,4.349498e-05
1418132416862098,1418132416799606,1.351431e-04,1.547150e-05,-2.593912e-05,-1.574323e-05,1.084351e-05,7.776986e-06
1418132416924588,1418132416862098,3.232565e-04,4.870797e-05,1.104984e-04,-4.523638e-06,2.172387e-06,-9.916049e-06
1418132416987080,1418132416924588,6.267244e-04,-6.095552e-05,-3.591155e-05,-2.778532e-05,-3.018412e-07,-6.677478e-06
1418132417049572,1418132416987080,-6.411240e-04,-1.844087e-04,-2.864186e-04,-1.110340e-05,1.594552e-05,3.047762e-05
1418132417112060,1418132417049572,1.313277e-03,2.846561e-04,4.825776e-05,3.315063e-06,3.497771e-05,-1.730382e-07
1418132417174554,1418132417112060,7.395520e-04,4.763851e-06,2.260234e-04,-1.311542e-05,2.764069e-05,2.003457e-05
1418132417237047,1418132417174554,1.241216e-03,5.474503e-05,-1.091281e-04,-2.530598e-06,-8.125170e-05,9.581046e-06
1418132417299536,1418132417237047,1.332569e-03,-2.137418e-05,1.795658e-04,5.369279e-06,-1.158691e-04,-3.081602e-05
1418132417362027,1418132417299536,2.124428e-04,-1.177669e-05,-8.541463e-05,4.342069e-05,-9.703238e-05,-3.873237e-06
1418132417424514,1418132417362027,1.763438e-04,-7.229531e-06,-7.839073e-05,-2.779556e-07,-4.632182e-05,5.802181e-06
1418132417487004,1418132417424514,-1.237159e-04,-3.530637e-06,-4.681288e-05,5.277937e-07,-5.727027e-06,3.501431e-06
1418132417549494,1418132417487004,-4.255019e-04,4.983854e-05,-8.025687e-05,7.826661e-05,3.402332e-05,-5.864247e-06
1418132417611983,1418132417549494,-3.311799e-04,1.946953e-05,-1.924478e-05,1.164749e-05,4.644093e-05,-1.147480e-05
1418132417674473,1418132417611983,-4.669235e-04,-1.810442e-05,-1.248824e-04,-5.910387e-06,1.121903e-05,-8.866801e-06
1418132417736962,1418132417674473,-1.076987e-04,4.306756e-06,-2.054570e-05,1.717732e-05,1.329070e-05,5.777028e-07
1418132417799450,1418132417736962,-1.679487e-04,-3.567381e-05,-1.685510e-05,4.192759e-06,2.765355e-05,1.539743e-05
1418132417861941,1418132417799450,-4.596631e-05,-7.954496e-06,5.582200e-06,1.069549e-05,2.954122e-05,5.053604e-06
1418132417924442,1418132417861941,1.372137e-04,1.794148e-05,3.179051e-05,-5.786213e-06,-1.270712e-05,-1.440592e-06
1418132417986930,1418132417924442,2.277367e-04,3.113165e-05,-1.294937e-05,-7.339301e-06,-6.559887e-05,-1.010742e-05
1418132418049426,1418132417986930,3.450013e-05,-3.587147e-05,-1.665157e-05,-1.247649e-05,-2.077016e-05,8.268012e-06
1418132418111915,1418132418049426,-4.739522e-05,-5.737241e-06,-2.035815e-05,1.064478e-05,1.321634e-05,8.612804e-06
1418132418174414,1418132418111915,7.356936e-06,-3.011452e-05,-1.494939e-05,1.646895e-06,-2.705689e-07,6.997018e-06
1418132418236910,1418132418174414,-4.859795e-05,-6.082900e-05,-5.796596e-05,-4.138465e-05,-3.635653e-05,-5.866555e-06
1418132418299398,1418132418236910,-1.605252e-06,-4.507206e-05,1.221164e-05,-1.500344e-05,-5.879062e-06,-6.191478e-06
1418132418361886,1418132418299398,-2.165440e-04,-3.819787e-05,-2.443267e-07,-1.380663e-05,4.820995e-05,3.903077e-06
1418132418424377,1418132418361886,-9.767233e-05,-3.086915e-05,-4.304313e-06,2.455132e-05,4.104639e-05,1.551062e-05
1418132418486865,1418132418424377,5.310752e-05,2.295328e-05,6.556655e-06,1.489228e-05,-9.172891e-06,1.176125e-06
1418132418549355,1418132418486865,5.935373e-05,3.583022e-05,-6.127355e-05,7.930844e-05,-5.354941e-05,2.841689e-06
1418132418611844,1418132418549355,2.005520e-05,1.181204e-06,2.648185e-07,1.164589e-06,-6.500515e-06,4.979469e-06
1418132418674333,1418132418611844,-4.317188e-05,-1.970136e-05,4.656082e-06,-1.429070e-05,1.136255e-05,1.115641e-05
1418132418736825,1418132418674333,-2.716920e-05,-2.723867e-06,-4.094143e-06,-1.172998e-05,4.962835e-06,1.037267e-06
1418132418799312,1418132418736825,2.045961e-05,7.758827e-06,6.399246e-06,-1.413219e-05,-3.403146e-06,-1.139240e-05
1418132418861802,1418132418799312,-3.103556e-06,9.219369e-06,1.203146e-05,-2.025143e-05,1.301981e-07,-1.098827e-05
1418132418924294,1418132418861802,1.884163e-05,2.311601e-05,9.259654e-06,1.250241e-05,-3.119879e-06,-5.557068e-06
1418132418986780,1418132418924294,8.681469e-05,3.601512e-05,2.245945e-05,4.537650e-05,-7.382013e-06,1.328218e-05
1418132419049270,1418132418986780,1.113453e-05,-4.978456e-06,-7.761870e-06,1.784494e-05,-9.742506e-06,1.567140e-05
1418132419111759,1418132419049270,-2.454441e-05,2.746666e-07,-4.630656e-06,2.238065e-06,9.274091e-06,-4.044956e-09
1418132419174248,1418132419111759,-5.086237e-05,3.586575e-06,-9.572205e-06,5.117348e-08,6.790682e-06,-1.392572e-05
1418132419236738,1418132419174248,1.163361e-05,-2.840954e-06,1.875732e-06,-1.603287e-05,-8.403531e-06,-3.533400e-06
1418132419299228,1418132419236738,-1.451131e-05,-3.906400e-05,-2.422658e-05,-2.212439e-05,-1.195231e-05,1.098755e-05
1418132419361717,1418132419299228,-5.612995e-05,2.270567e-05,-3.517668e-05,-1.024295e-05,-2.626153e-06,-3.460403e-06
1418132419424206,1418132419361717,1.017952e-05,5.369598e-05,5.573141e-06,1.083784e-05,4.216385e-06,-9.072027e-06
1418132419486698,1418132419424206,-2.895205e-05,1.752123e-05,-8.336268e-06,1.659624e-05,2.250618e-06,-4.710415e-06
1418132419549186,1418132419486698,3.815952e-05,1.291304e-05,1.897180e-05,7.917261e-06,2.072406e-06,2.376966e-06
1418132419611676,1418132419549186,7.243042e-06,-6.722718e-06,6.525022e-06,3.558543e-06,-3.521137e-06,5.165877e-06
1418132419674164,1418132419611676,-2.959392e-05,-3.358753e-05,-4.901801e-05,-9.716289e-06,-1.414035e-05,2.409076e-07
1418132419736653,1418132419674164,-3.803506e-05,-4.038088e-06,-1.836919e-05,-1.743289e-05,-1.168226e-05,-1.189342e-05
1418132419799143,1418132419736653,4.188501e-06,2.980898e-07,3.625184e-06,-4.429896e-06,2.159264e-06,-4.446455e-07
1418132419861632,1418132419799143,-3.211399e-05,-9.437922e-06,-1.130018e-05,-1.081856e-06,2.458838e-07,4.149323e-06
1418132419924121,1418132419861632,3.692407e-06,-5.878692e-07,9.255931e-07,1.600118e-05,1.754808e-06,2.076929e-06
1418132419986611,1418132419924121,1.001284e-04,5.081461e-05,3.478599e-05,1.056231e-05,-2.810720e-08,-9.835317e-06
1418132420049101,1418132419986611,-1.421319e-05,-7.846686e-06,-2.667646e-06,4.499374e-06,9.390205e-07,-1.643772e-06
1418132420111589,1418132420049101,7.105421e-15,-4.884982e-14,-1.332268e-14,-3.053105e-16,-2.498001e-16,1.276757e-15
1418132420174079,1418132420111589,-3.556878e-05,-1.214928e-05,-5.800355e-06,-9.343078e-06,2.813467e-06,5.307388e-07
1418132420236568,1418132420174079,-4.660707e-06,-3.731793e-06,-6.131401e-06,-7.595264e-06,4.847158e-08,-6.498941e-06
1418132420299058,1418132420236568,-1.564095e-05,-1.551569e-05,-1.784289e-05,-3.311669e-06,-6.800730e-06,7.196894e-07
1418132420361548,1418132420299058,-2.170101e-05,-1.372182e-05,-1.689195e-05,1.277469e-05,-5.031844e-06,6.545453e-08
1418132420424037,1418132420361548,1.054109e-04,3.259936e-05,2.969205e-05,2.924767e-05,4.235686e-06,4.577001e-06
1418132420486526,1418132420424037,5.491234e-05,4.183936e-05,2.265579e-05,9.773987e-06,4.861057e-06,-3.934281e-08
1418132420549015,1418132420486526,-9.187872e-06,-6.138983e-06,-1.425235e-06,-1.249621e-05,-2.404161e-07,-3.150219e-07
1418132420611505,1418132420549015,-2.514659e-05,-4.700242e-06,-2.740157e-05,-2.431505e-05,-5.599229e-06,-1.954573e-06
1418132420673994,1418132420611505,4.166128e-05,8.609780e-06,1.374348e-05,-8.312281e-06,-2.547731e-06,-2.725509e-06
1418132420736484,1418132420673994,-1.115294e-04,-2.727139e-05,-2.191189e-05,-1.225413e-05,4.761842e-07,1.843348e-06
1418132420798974,1418132420736484,-3.720404e-05,1.773314e-06,-7.288306e-06,1.063367e-05,3.211858e-06,4.930756e-07
1418132420861462,1418132420798974,-4.572448e-05,8.814222e-06,-1.238184e-05,1.828018e-05,4.066561e-06,6.753881e-07
1418132420923951,1418132420861462,-3.399782e-05,-1.129977e-05,-1.565483e-05,7.385487e-06,-4.754120e-06,4.073355e-06
1418132420986443,1418132420923951,-4.378339e-06,-2.938321e-06,8.492444e-07,1.898280e-06,-2.381801e-06,8.264132e-07
1418132421048930,1418132420986443,6.548414e-05,-3.448068e-05,3.927436e-05,-3.325859e-06,3.156646e-08,6.097374e-07
1418132421111422,1418132421048930,1.805069e-05,-1.554928e-06,1.591557e-05,-1.537575e-05,1.653634e-06,-6.934922e-06
1418132421173909,1418132421111422,-3.167160e-06,7.183932e-06,-1.325016e-07,-6.946252e-06,2.875819e-06,-8.880474e-07
1418132421236399,1418132421173909,-3.422684e-05,-6.313553e-06,-1.266830e-05,3.913130e-06,6.221232e-07,-1.313058e-08
1418132421298888,1418132421236399,-6.652863e-05,2.749417e-07,-1.972953e-05,6.857864e-06,-2.909855e-06,-1.298017e-06
1418132421361378,1418132421298888,2.971913e-07,6.581698e-07,-3.459482e-06,1.338601e-05,-4.456183e-06,2.001118e-07
1418132421423866,1418132421361378,4.490539e-05,-5.216610e-05,1.572013e-05,9.877362e-06,1.004301e-06,7.799049e-06
1418132421486357,1418132421423866,-1.265582e-05,-2.047243e-06,-8.754562e-06,-6.923055e-06,-7.218029e-07,2.010152e-07
1418132421548844,1418132421486357,1.751486e-06,2.835030e-06,-3.917376e-06,-1.154759e-05,3.113482e-07,3.229695e-06
1418132421611336,1418132421548844,-3.418678e-05,6.564191e-07,-4.470744e-06,-2.691540e-06,2.681165e-06,-3.089049e-06
1418132421673826,1418132421611336,7.628955e-05,-5.540795e-06,1.839403e-05,-8.329231e-06,-2.929477e-06,-6.334623e-06
1418132421736314,1418132421673826,2.315443e-05,7.794431e-06,7.602638e-06,5.765137e-06,-1.586521e-06,1.424333e-06
1418132421798802,1418132421736314,-5.133757e-06,-6.707899e-07,-4.859089e-06,4.770216e-06,-2.005216e-06,2.690780e-06
1418132421861293,1418132421798802,-2.240207e-05,3.008192e-05,1.363878e-06,3.305323e-06,2.856034e-06,-1.610897e-06
1418132421923781,1418132421861293,-5.645633e-05,2.307562e-05,-4.271507e-05,5.004525e-06,-3.772601e-06,8.522368e-07
1418132421986271,1418132421923781,-3.253888e-05,-5.427394e-06,2.912639e-06,1.660944e-06,1.284669e-06,-1.139056e-06
1418132422048760,1418132421986271,8.201525e-06,-2.348510e-05,-7.702702e-07,1.599273e-06,3.919764e-06,6.642881e-07
1418132422111249,1418132422048760,-3.389492e-06,-1.992764e-06,-1.046863e-06,-3.925758e-06,1.730602e-06,-5.107051e-07
1418132422173738,1418132422111249,-3.387883e-05,-2.952036e-05,-1.715572e-05,-2.565496e-05,-1.227888e-05,8.672958e-07
1418132422236228,1418132422173738,8.130199e-06,1.736089e-06,-1.161860e-05,-1.098598e-06,-6.252715e-06,-1.342328e-06
1418132422298717,1418132422236228,1.097244e-05,6.887941e-06,1.331831e-05,3.500498e-06,4.386453e-06,-1.530951e-06
1418132422361207,1418132422298717,4.824660e-05,-1.444750e-06,3.184707e-05,4.929990e-06,6.194197e-06,4.046831e-06
1418132422423698,1418132422361207,1.544436e-04,9.071637e-05,5.278062e-05,6.766397e-06,6.863954e-08,-3.796986e-06
1418132422486186,1418132422423698,-9.635312e-06,7.173848e-06,-5.916920e-06,1.987777e-06,1.016682e-06,-7.500264e-06
1418132422548675,1418132422486186,-2.492738e-05,1.634019e-05,-1.456739e-05,-1.247295e-06,-3.442588e-06,-4.161641e-06
1418132422611164,1418132422548675,4.387443e-05,-4.199654e-06,9.808026e-06,-4.888414e-06,-2.563432e-06,7.394026e-07
1418132422673656,1418132422611164,-1.398383e-05,-1.275309e-05,-7.863840e-06,-3.826476e-06,-6.643194e-07,5.782829e-06
1418132422736143,1418132422673656,4.217797e-05,3.087673e-05,2.874020e-05,1.438768e-05,4.243698e-06,-4.914761e-06
1418132422798632,1418132422736143,-2.848349e-05,-5.737083e-06,-1.271267e-05,5.095015e-06,8.083242e-08,1.582944e-06
1418132422861122,1418132422798632,7.308126e-06,-4.803607e-06,1.463908e-06,-2.330229e-06,-2.657846e-06,2.435277e-06
1418132422923612,1418132422861122,4.886065e-05,1.155159e-05,1.728567e-05,-1.831911e-06,-4.886963e-07,6.688925e-07
1418132422986101,1418132422923612,-2.448815e-05,-9.486478e-06,-7.677853e-06,4.835025e-07,-1.828893e-06,-2.129461e-07
1418132423048591,1418132422986101,4.652941e-06,3.813567e-06,1.120659e-06,2.580110e-06,-1.988679e-06,-4.894444e-06
1418132423173579,1418132423048591,-4.220768e-06,-2.694770e-05,7.521416e-07,-3.846649e-06,2.260595e-06,6.044142e-06
1418132423236085,1418132423173579,-6.632998e-07,2.800542e-06,-1.318737e-06,4.732804e-06,2.400005e-06,3.413823e-07
1418132423298560,1418132423236085,-4.353615e-05,4.331517e-06,-1.804700e-05,-2.381180e-05,-6.458963e-06,-1.096119e-05
1418132423361047,1418132423298560,9.291933e-07,1.073037e-05,-1.163359e-05,1.818876e-05,-4.345691e-06,-2.239722e-06
1418132423423536,1418132423361047,-1.054741e-05,-1.413562e-05,-2.194153e-05,1.638848e-05,-1.159287e-05,5.845041e-06
1418132423548526,1418132423423536,2.660006e-05,3.928914e-06,2.171604e-05,-3.296556e-05,9.309205e-06,-4.431810e-06
1418132423611017,1418132423548526,-8.196920e-05,-2.689410e-06,-7.404453e-05,7.832382e-06,-7.765317e-06,-7.258597e-06
1418132423673505,1418132423611017,4.977857e-05,1.676929e-05,2.580133e-05,-4.159466e-06,1.809220e-06,3.248131e-07
1418132423735994,1418132423673505,-3.936150e-05,-1.176082e-05,-2.350783e-05,7.597871e-06,-5.171781e-06,1.112854e-05
1418132423860985,1418132423735994,-1.300282e-06,3.687757e-06,-4.724814e-06,1.076056e-05,1.479788e-06,1.740696e-07
1418132423923473,1418132423860985,-5.656230e-05,-6.501879e-06,-6.157720e-06,-4.887904e-06,4.277483e-06,-4.258743e-06
1418132423985962,1418132423923473,5.289525e-06,-7.350643e-06,2.607483e-06,5.316615e-07,-1.769344e-06,3.788913e-06
1418132424048454,1418132423985962,-9.959954e-06,-9.101650e-06,-1.267516e-05,-1.140968e-05,-5.465396e-06,4.260544e-06
1418132424173440,1418132424048454,6.140465e-06,1.067567e-05,3.918732e-06,3.408950e-06,5.449922e-06,-6.043693e-06
1418132424235930,1418132424173440,7.924026e-07,9.759186e-06,8.682804e-06,4.647377e-06,7.869689e-08,-3.041406e-06
1418132424298422,1418132424235930,-1.460617e-04,-3.200679e-05,-5.649725e-05,-1.047064e-05,-5.282553e-06,1.160706e-05
1418132424360908,1418132424298422,-3.396086e-05,-3.119365e-05,-1.215648e-05,6.184425e-06,2.772051e-06,6.375796e-06
1418132424485898,1418132424360908,-5.913835e-05,-5.164617e-06,-1.783564e-05,-5.537298e-06,-1.129454e-06,-1.075778e-07
1418132424548388,1418132424485898,4.270805e-06,-6.521721e-05,-5.121861e-06,-8.456628e-06,-2.900528e-06,4.876249e-06
1418132424610878,1418132424548388,-1.419590e-05,-8.459635e-06,-2.967719e-06,-3.825152e-06,-3.912307e-06,3.295906e-06
1418132424673367,1418132424610878,1.786066e-05,6.709277e-06,1.206556e-05,-1.279642e-06,3.289459e-06,-4.979474e-06
1418132424798354,1418132424673367,7.806602e-06,8.423515e-07,-1.521148e-05,1.690220e-05,-4.059205e-06,1.080138e-06
1418132424860843,1418132424798354,-6.511764e-05,-8.988818e-06,-3.290451e-05,5.290168e-06,-4.970678e-06,3.032389e-06
1418132424923333,1418132424860843,8.526513e-14,2.842171e-14,-1.385558e-13,-2.359215e-16,-7.216448e-16,2.151057e-16
1418132424985822,1418132424923333,4.832864e-05,3.266233e-05,1.574450e-05,2.849957e-06,-2.406844e-06,-7.558156e-06
1418132425110812,1418132424985822,2.558527e-05,-8.638952e-06,3.302196e-06,-2.399115e-05,-8.729864e-06,2.194226e-07
1418132425173300,1418132425110812,-2.187364e-06,2.266583e-06,-2.939132e-06,4.431565e-06,-3.362423e-07,1.223566e-06
1418132425235790,1418132425173300,6.380404e-06,6.100107e-06,8.313717e-06,-5.291512e-07,2.778121e-06,-4.195984e-06
1418132425298281,1418132425235790,3.225714e-05,1.736007e-05,2.005803e-05,-2.300741e-07,4.452406e-06,4.061336e-07
1418132425423282,1418132425298281,8.652596e-06,1.915808e-06,-9.061164e-06,8.693469e-06,-6.381190e-06,7.847697e-07
1418132425485760,1418132425423282,-9.124404e-05,-3.517184e-05,-4.222511e-05,-4.428239e-06,-4.665976e-06,7.922031e-06
1418132425548248,1418132425485760,7.984938e-05,3.992796e-05,2.122100e-05,4.970241e-06,1.914627e-06,-7.399310e-06
1418132425610738,1418132425548248,-3.640094e-05,-6.531615e-06,-1.062539e-05,-2.230653e-06,2.633196e-06,-4.825558e-07
1418132425735726,1418132425610738,3.938072e-05,-8.854107e-06,9.310032e-06,-1.390969e-05,-4.259752e-06,4.987857e-06
1418132425798216,1418132425735726,9.853556e-06,7.524478e-06,3.598927e-06,-3.323123e-06,-1.778047e-06,-4.638052e-06
1418132425860705,1418132425798216,1.280487e-05,5.788533e-06,3.491338e-06,8.847851e-06,7.879326e-08,-8.386382e-07
1418132425923194,1418132425860705,-3.268497e-13,-2.234657e-12,1.850964e-12,3.108624e-15,9.832413e-15,1.051936e-14
1418132426048183,1418132425923194,1.831643e-05,9.873436e-06,5.715255e-06,-9.498028e-07,-9.722729e-07,-1.972804e-06
1418132426110674,1418132426048183,4.471972e-06,4.852767e-06,-3.851021e-06,-2.508849e-07,-1.658322e-06,-1.843599e-06
1418132426173163,1418132426110674,-6.342063e-05,-1.430201e-05,-3.252497e-05,-4.944532e-06,-5.340460e-06,-1.158073e-06
1418132426235652,1418132426173163,5.192236e-05,1.630352e-05,1.941286e-05,5.403233e-06,-1.045821e-07,4.132961e-07
1418132426360641,1418132426235652,8.676774e-06,2.089065e-05,1.153815e-05,8.361629e-06,5.371022e-06,-5.717446e-06
1418132426423132,1418132426360641,-5.607603e-11,1.247713e-11,-4.908429e-11,-6.212642e-12,-2.602696e-12,1.370001e-12
1418132426485621,1418132426423132,1.207289e-05,-2.711957e-06,-4.423412e-06,3.488375e-06,-2.982203e-06,5.140935e-06
1418132426548110,1418132426485621,2.962063e-05,1.416229e-05,7.713846e-06,-1.025270e-06,-3.036409e-06,-3.318271e-06
1418132426673099,1418132426548110,3.391469e-05,2.702003e-05,2.856697e-05,1.183262e-05,4.538679e-06,-3.471491e-06
1418132426735588,1418132426673099,-1.928326e-05,-2.453041e-06,-4.223751e-07,-1.806076e-06,9.322209e-07,-4.275330e-06
1418132426798079,1418132426735588,-3.725929e-06,-5.327205e-06,-6.650304e-06,-1.511635e-06,-2.554258e-06,6.193843e-06
1418132426860568,1418132426798079,1.980196e-05,-1.426303e-05,1.482062e-06,8.007211e-06,-3.141280e-06,4.197188e-06
1418132426985556,1418132426860568,-4.179314e-05,8.354449e-06,-1.606144e-05,-3.460704e-07,-1.844079e-06,-4.622581e-06
1418132427048048,1418132426985556,7.918832e-05,7.546286e-06,3.249739e-05,4.842148e-06,4.349155e-06,-1.040669e-06
1418132427110536,1418132427048048,-1.883467e-05,8.315997e-06,2.955601e-07,-2.639594e-07,7.428114e-07,1.180338e-06
1418132427173025,1418132427110536,1.831134e-05,-7.489925e-06,2.357339e-06,1.033589e-06,-3.808639e-07,2.637262e-06
1418132427298014,1418132427173025,7.706253e-05,9.882398e-06,3.405451e-05,-7.603358e-06,-4.377748e-06,-9.787095e-08
1418132427360504,1418132427298014,-1.173817e-11,-2.754685e-12,-9.634959e-12,-2.008560e-12,-2.232103e-13,7.142620e-13
1418132427422993,1418132427360504,2.910456e-05,7.712248e-06,1.252769e-05,1.005525e-06,3.540354e-06,9.678316e-07
1418132427485482,1418132427422993,-4.327554e-05,-1.133890e-05,-1.295373e-05,-2.296421e-06,1.613031e-06,-1.947897e-06
1418132427547987,1418132427485482,7.829909e-06,-1.160901e-05,7.721131e-06,6.098718e-06,-1.410113e-06,4.029882e-06
1418132427672961,1418132427547987,2.227711e-05,-7.144133e-06,-1.757860e-05,3.179791e-06,-9.700305e-06,3.155767e-06
1418132427735451,1418132427672961,-2.097090e-05,-2.162984e-06,-4.787769e-06,2.570767e-06,1.664380e-06,2.105018e-07
1418132427797940,1418132427735451,1.780145e-05,2.234281e-07,8.138655e-06,3.876094e-06,8.987210e-07,-1.227717e-06
1418132427860430,1418132427797940,-3.806607e-05,-4.995332e-06,-1.290230e-05,-3.709579e-06,-2.224701e-06,3.751546e-06
1418132427985419,1418132427860430,-5.488286e-06,1.435780e-06,-3.225706e-06,2.329454e-07,-7.213474e-08,-3.225312e-06
1418132428047908,1418132427985419,-4.314792e-05,-2.535271e-05,-9.342999e-06,-8.662164e-06,7.823104e-07,1.482204e-06
1418132428110398,1418132428047908,-4.835232e-06,-1.472242e-05,9.222420e-07,-5.021936e-06,7.648320e-08,2.095994e-06
1418132428172887,1418132428110398,-3.286328e-05,-8.433383e-06,-8.077986e-06,-1.943568e-06,-9.917571e-08,5.732043e-06
1418132428297876,1418132428172887,-4.355642e-05,-2.491674e-05,-1.816123e-05,-3.682694e-06,-1.279327e-06,2.364835e-06
1418132428360366,1418132428297876,1.933148e-05,1.579187e-05,5.842205e-06,6.571332e-06,1.158660e-07,-2.861732e-06
1418132428422856,1418132428360366,5.277571e-05,-1.541988e-05,3.414461e-05,-6.959292e-07,7.917993e-06,2.573919e-06
1418132428485345,1418132428422856,-7.560979e-05,2.051301e-05,-1.528248e-05,-3.406315e-06,1.122151e-06,1.003889e-06
1418132428610334,1418132428485345,-8.170094e-05,-5.413866e-05,-6.362339e-05,-6.143898e-06,-6.479730e-06,5.989538e-07
1418132428672824,1418132428610334,-2.418984e-05,-7.764100e-06,-8.594375e-06,-6.515961e-06,-2.481694e-06,1.694233e-06
1418132428735313,1418132428672824,-1.314504e-05,-3.866035e-06,-2.114736e-05,2.073219e-06,-4.903371e-06,3.715750e-06
1418132428797802,1418132428735313,9.339417e-05,2.595285e-06,3.451598e-05,2.292872e-06,4.194926e-06,-6.631955e-08
1418132428860292,1418132428797802,-3.175060e-05,2.793335e-06,-6.650452e-06,1.046220e-05,5.073293e-06,-2.126081e-06
1418132428985282,1418132428860292,1.321781e-04,5.345110e-05,3.918470e-05,8.819932e-06,2.209873e-06,-4.815626e-06
1418132429047771,1418132428985282,6.564359e-05,8.271087e-06,4.384793e-07,-9.102491e-07,-3.714709e-06,-5.957327e-07
1418132429110260,1418132429047771,-4.443929e-05,1.562969e-05,-1.676354e-05,-3.960143e-06,-1.898522e-06,2.512188e-07
1418132429172749,1418132429110260,4.959370e-06,-1.702724e-07,3.312207e-06,2.420281e-06,2.551556e-06,-9.166862e-07
1418132429297739,1418132429172749,-7.537538e-05,7.406425e-06,-2.659503e-05,1.752786e-05,6.880087e-06,2.834348e-06
1418132429360228,1418132429297739,9.894566e-05,2.734242e-05,1.746277e-05,4.241154e-06,-5.047944e-06,-1.144036e-06
1418132429422718,1418132429360228,4.949544e-07,-1.510756e-07,-4.852481e-07,2.694493e-06,-1.238222e-06,-1.867987e-06
1418132429485207,1418132429422718,4.652979e-05,3.291592e-05,1.838929e-05,2.216186e-06,7.219130e-07,-4.159540e-06
1418132429610197,1418132429485207,-2.155760e-05,-1.680650e-05,2.840742e-06,-3.151787e-05,6.521509e-06,-7.086939e-07
1418132429672688,1418132429610197,-5.883863e-06,2.195087e-06,-6.967970e-06,1.031535e-05,1.014178e-06,1.904926e-07
1418132429735176,1418132429672688,-8.502978e-06,1.054330e-05,6.356826e-07,1.446046e-05,-1.096973e-06,-1.565022e-06
1418132429797667,1418132429735176,-3.130228e-05,-2.672602e-06,-1.426059e-05,3.182607e-06,-1.053600e-06,-2.841177e-07
1418132429922656,1418132429797667,1.860855e-05,1.949199e-05,3.263157e-06,1.021835e-05,-3.322969e-07,-3.348940e-06
1418132429985144,1418132429922656,-4.666124e-05,-2.346198e-05,-8.844863e-06,-1.249886e-05,1.954411e-06,1.117862e-06
1418132430047632,1418132429985144,3.252790e-05,6.172116e-06,1.866982e-05,-8.874605e-06,3.258162e-06,-4.290845e-06
1418132430110122,1418132430047632,1.339373e-05,1.544123e-05,-6.060387e-06,1.050127e-06,-5.061085e-06,-2.916065e-06
1418132430172613,1418132430110122,-9.843780e-06,-5.721905e-06,-1.311631e-05,4.949905e-06,-4.643099e-06,2.629670e-06
1418132430297602,1418132430172613,-3.080794e-05,4.282827e-06,-4.480756e-06,9.412255e-06,9.686808e-06,2.769736e-06
1418132430360092,1418132430297602,-7.421504e-05,-3.762338e-05,-2.807920e-05,2.886239e-06,-1.774233e-06,1.156350e-06
1418132430422581,1418132430360092,-4.554256e-05,-8.316299e-06,-1.590009e-05,-7.288665e-06,-6.261281e-06,5.547974e-06
1418132430485073,1418132430422581,4.725348e-05,-1.719118e-05,1.602810e-05,-5.428037e-06,-2.781759e-06,2.312399e-06
1418132430610063,1418132430485073,2.737000e-05,1.178326e-05,2.597210e-05,1.688933e-06,4.471528e-06,-2.862222e-06
1418132430672552,1418132430610063,-1.246445e-05,-2.743836e-06,4.718715e-06,9.780637e-06,3.913450e-06,9.379124e-07
1418132430735042,1418132430672552,2.020682e-05,9.842344e-06,2.237094e-06,1.397887e-05,-3.094801e-06,1.650710e-06
1418132430797532,1418132430735042,-1.107895e-04,-5.009818e-05,-4.780708e-05,-2.659608e-07,-7.897048e-06,3.455853e-06
1418132430922521,1418132430797532,-7.702480e-07,-8.856230e-07,2.895245e-06,5.347272e-06,2.340671e-06,-5.542955e-07
1418132430985011,1418132430922521,3.889823e-05,3.255776e-05,1.156798e-05,5.525002e-06,1.569759e-06,5.999694e-08
1418132431047501,1418132430985011,-1.180239e-05,-1.125353e-05,-2.818316e-06,-6.899606e-06,6.589542e-07,2.338591e-06
1418132431109991,1418132431047501,1.633808e-05,2.174570e-05,-4.131930e-06,5.623465e-06,-5.063209e-06,-1.310695e-06
1418132431234982,1418132431109991,-5.671987e-06,-5.240909e-06,-9.353084e-06,1.535089e-06,-2.153640e-06,2.317097e-06
1418132431297471,1418132431234982,2.367691e-05,-7.495888e-06,1.079920e-05,6.402342e-06,3.187308e-06,-4.994273e-07
1418132431359963,1418132431297471,-7.887071e-06,1.998975e-06,-9.459438e-07,-1.767459e-06,7.138495e-07,-2.956913e-06
1418132431422451,1418132431359963,3.156300e-05,-6.935831e-06,1.357625e-05,-3.219993e-06,4.325925e-07,3.464817e-06
1418132431484941,1418132431422451,2.832453e-05,8.734466e-05,-1.140122e-06,-1.658573e-06,-5.348905e-06,-8.944776e-06
1418132431609931,1418132431484941,7.954230e-05,8.003748e-06,3.258439e-05,1.088151e-05,1.987696e-06,1.181680e-06
1418132431672424,1418132431609931,2.763221e-05,1.161644e-05,1.267064e-05,7.290042e-06,5.970683e-06,-2.143582e-06
1418132431734911,1418132431672424,1.446777e-05,-7.652076e-06,5.325139e-06,-3.145152e-06,-7.808406e-07,1.340962e-06
1418132431797401,1418132431734911,-4.048904e-05,-2.030801e-05,-2.096964e-05,-4.849323e-06,-5.491336e-06,1.860154e-06
1418132431859891,1418132431797401,7.254535e-06,1.246934e-05,1.067860e-06,5.520953e-06,-3.144615e-06,-2.772493e-06
1418132431922381,1418132431859891,2.845460e-06,1.889457e-06,-3.006395e-06,2.339420e-06,-1.406134e-08,2.892819e-07
1418132432047372,1418132431922381,2.612912e-05,1.203452e-05,9.575349e-06,7.611207e-06,2.789856e-06,-1.140683e-06
1418132432109861,1418132432047372,-5.643869e-05,-3.050661e-05,-2.889794e-05,3.371294e-06,-1.004789e-06,5.171546e-06
1418132432172349,1418132432109861,2.863012e-05,6.051252e-07,9.992710e-07,-1.044356e-06,-1.785450e-07,-1.545668e-06
1418132432234840,1418132432172349,-2.504496e-05,-1.267555e-05,-9.740716e-06,6.200108e-07,-2.614105e-06,3.536494e-06
1418132432297330,1418132432234840,-6.265918e-06,-4.098089e-06,-4.498912e-06,-3.738369e-08,-4.070655e-06,8.869185e-07
1418132432422318,1418132432297330,2.557085e-05,1.164295e-05,1.536493e-05,-8.668784e-07,3.881486e-06,-4.649624e-06
1418132432484807,1418132432422318,2.426687e-06,-6.390714e-06,2.703490e-06,-8.442977e-08,-2.139344e-07,1.888297e-06
1418132432547298,1418132432484807,-5.890467e-06,4.247954e-06,-1.510986e-06,2.542115e-06,-7.714860e-07,3.216479e-07
1418132432609785,1418132432547298,-3.757602e-05,3.649060e-06,-1.231781e-05,-2.401939e-07,1.201717e-06,-5.269606e-07
1418132432672277,1418132432609785,3.785366e-05,-2.292529e-06,2.403710e-05,6.065065e-06,1.914996e-06,-1.692337e-06
1418132432734764,1418132432672277,5.453390e-06,5.539458e-06,3.867699e-06,3.657753e-06,-3.507600e-07,-3.919419e-06
1418132432859753,1418132432734764,-5.787830e-05,-7.864329e-05,-3.429423e-05,3.048947e-06,-1.161168e-06,6.952902e-06
1418132432922245,1418132432859753,4.298143e-06,-4.289494e-06,-7.956885e-06,-3.419157e-06,-3.765081e-06,-1.533262e-06
1418132432984735,1418132432922245,-1.174483e-05,8.181146e-07,-4.429550e-06,3.338194e-06,-4.556929e-07,-7.805944e-07
1418132433047223,1418132432984735,-5.325188e-05,1.255306e-05,-1.218329e-05,-5.012911e-06,7.427525e-07,-2.826116e-07
1418132433109711,1418132433047223,4.200606e-05,1.486866e-05,2.152636e-05,2.693792e-06,7.306167e-07,2.057459e-06
1418132433172201,1418132433109711,3.276768e-05,1.437711e-05,5.673306e-06,1.503208e-06,-3.927717e-06,-6.865875e-09
1418132433297190,1418132433172201,5.433200e-05,3.278133e-06,1.241837e-05,-7.975475e-07,2.049656e-06,-1.625816e-06
1418132433359679,1418132433297190,-5.078516e-05,-7.490104e-06,-3.627826e-06,-9.423946e-09,-1.680485e-08,3.803369e-06
1418132433422169,1418132433359679,1.177277e-04,6.543777e-05,4.569959e-05,7.035658e-06,2.832847e-06,-6.517335e-06
1418132433484658,1418132433422169,2.707314e-05,1.349514e-05,1.137592e-05,-4.837445e-06,3.355373e-06,-3.006162e-06
1418132433609647,1418132433484658,1.198736e-04,4.342504e-05,2.962878e-05,1.599631e-05,-5.480519e-06,-1.820726e-06
1418132433672138,1418132433609647,-3.881914e-05,-1.253893e-05,-1.660690e-05,-6.346718e-06,-3.001827e-06,-9.818972e-07
1418132433734627,1418132433672138,-5.102455e-05,1.057103e-07,-9.682621e-06,4.762316e-06,4.814131e-06,-1.019360e-06
1418132433797116,1418132433734627,5.728831e-05,1.990981e-05,2.274494e-05,1.752966e-05,-1.256030e-07,2.820236e-07
1418132433922107,1418132433797116,-2.373232e-05,-1.875201e-05,-1.215630e-05,-1.949506e-05,-5.336837e-06,3.853560e-06
1418132433984595,1418132433922107,4.885930e-05,4.035161e-05,2.743115e-05,1.831812e-05,6.199200e-06,-5.782355e-06
1418132434047088,1418132433984595,-1.246006e-05,-6.196749e-06,9.192476e-06,-2.543131e-05,3.154922e-06,-5.683296e-06
1418132434109576,1418132434047088,6.065202e-05,3.073070e-06,2.638333e-05,-3.976806e-06,1.422261e-06,3.352837e-06
1418132434234568,1418132434109576,2.113622e-04,5.306531e-05,6.339457e-05,3.449249e-05,1.075485e-06,3.949483e-07
1418132434297055,1418132434234568,-3.496315e-05,-7.245561e-06,-9.311996e-06,6.500799e-06,1.519743e-06,-2.666962e-06
1418132434359548,1418132434297055,-4.113022e-06,-9.031465e-06,-3.566922e-07,9.131536e-06,6.571297e-07,3.542484e-06
1418132434422037,1418132434359548,2.615789e-05,-4.551662e-05,1.229316e-05,-1.425103e-05,-2.899648e-07,6.829289e-06
1418132434484527,1418132434422037,-3.241576e-06,-7.850891e-07,-1.793230e-06,-6.068537e-06,1.206032e-06,-1.328774e-06
1418132434609515,1418132434484527,1.733944e-05,1.238741e-05,2.961037e-06,-1.011176e-06,-2.049296e-06,-1.039609e-05
1418132434672005,1418132434609515,-5.139688e-05,-2.093987e-05,-2.793676e-05,1.233749e-05,-3.028223e-06,1.154944e-05
1418132434734495,1418132434672005,-3.072140e-05,3.283392e-06,-1.678265e-05,2.026821e-05,2.676914e-06,2.798657e-06
1418132434796985,1418132434734495,1.077518e-04,5.291578e-05,4.665151e-05,5.756785e-06,3.247118e-06,-7.356482e-06
1418132434921974,1418132434796985,3.276582e-05,-1.866451e-05,7.829279e-06,-8.671084e-06,-4.122299e-06,-2.625492e-06
1418132434984465,1418132434921974,2.358902e-05,-1.746058e-05,1.825676e-05,-1.224463e-05,2.590856e-06,1.899214e-06
1418132435046955,1418132434984465,1.051866e-05,6.261000e-06,2.271461e-06,1.799960e-06,1.629086e-07,-4.639953e-06
1418132435109445,1418132435046955,-3.946993e-05,-2.130184e-05,-1.195212e-05,-2.766728e-06,2.309422e-07,1.702485e-07
1418132435234435,1418132435109445,1.585041e-05,-7.031124e-06,-8.079176e-06,3.171326e-05,-6.435641e-07,1.435735e-05
1418132435296925,1418132435234435,2.842171e-14,1.381117e-13,0,1.450229e-15,-5.551110e-17,-2.720046e-15
1418132435359415,1418132435296925,-6.383218e-05,-1.919129e-05,-3.748074e-05,-4.645074e-06,-2.037796e-06,-4.323247e-06
1418132435421904,1418132435359415,-3.691752e-05,-2.758221e-06,-1.666199e-05,-3.535142e-06,-2.040709e-06,-8.380679e-07
1418132435484395,1418132435421904,3.335251e-05,2.462626e-05,1.066970e-05,-3.868910e-06,-5.930973e-07,-3.416186e-06
1418132435546885,1418132435484395,8.638979e-05,4.032360e-05,1.102573e-05,4.502813e-06,1.152909e-07,-1.040598e-06
1418132435671874,1418132435546885,-1.815072e-05,-1.180983e-07,-1.062265e-05,1.723047e-05,4.355445e-07,-5.893998e-06
1418132435734368,1418132435671874,1.312470e-05,4.134371e-06,1.025726e-06,-3.040409e-06,-1.755742e-06,-8.019395e-07
1418132435796854,1418132435734368,1.245100e-05,-1.615566e-05,8.031506e-06,-1.979078e-05,-1.750950e-06,9.543780e-06
1418132435859344,1418132435796854,1.655830e-05,1.346623e-06,5.142507e-06,-1.176508e-05,-7.315889e-07,-6.851214e-07
1418132435921836,1418132435859344,-2.800731e-06,-2.636743e-06,8.328428e-06,-7.555876e-06,3.811564e-06,-2.114702e-06
1418132435984324,1418132435921836,-8.027105e-06,4.068546e-06,-2.948651e-06,-7.611315e-06,-2.016322e-07,-1.246458e-07
1418132436109314,1418132435984324,1.553262e-05,7.915633e-06,5.130700e-06,1.264663e-05,-3.267366e-06,3.339524e-06
1418132436171805,1418132436109314,-5.536050e-05,-1.878077e-05,-2.110943e-05,1.620010e-06,7.387620e-07,-4.270026e-07
1418132436234294,1418132436171805,4.572725e-05,2.806244e-05,2.278670e-05,-3.173415e-06,4.075944e-06,-1.129556e-05
1418132436296784,1418132436234294,-4.846413e-05,4.960516e-06,-8.188135e-07,-1.402388e-05,5.371633e-06,-3.084952e-06
1418132436359274,1418132436296784,-1.501526e-05,5.733409e-06,1.690094e-06,-7.354086e-06,-2.647670e-08,-5.526717e-06
1418132436421764,1418132436359274,3.411385e-05,5.033644e-06,1.505525e-05,-1.276779e-05,3.799620e-06,-2.852421e-06
1418132436546754,1418132436421764,-9.700410e-05,-1.915304e-05,9.289574e-06,-4.970420e-05,4.564337e-05,-1.842580e-05
1418132436609244,1418132436546754,9.377645e-05,4.381969e-06,1.960870e-05,-1.373012e-05,-9.073043e-06,-6.711858e-06
1418132436671734,1418132436609244,3.364191e-06,-2.614443e-05,1.452842e-06,-9.481686e-05,-1.485812e-05,-1.463456e-05
1418132436734225,1418132436671734,-3.930447e-05,-2.879370e-05,1.491962e-06,-8.240793e-05,1.120334e-05,-2.741848e-06
1418132436796715,1418132436734225,-4.034461e-05,-1.717580e-05,1.374885e-05,-3.094993e-05,1.692103e-05,2.895596e-07
1418132436859203,1418132436796715,-4.376547e-05,-2.623789e-05,-9.144635e-06,-1.764054e-05,7.090470e-06,5.319841e-06
1418132436984191,1418132436859203,4.482522e-04,3.331659e-04,1.327047e-04,1.334598e-05,8.572022e-06,2.533969e-05
1418132437046680,1418132436984191,1.188258e-04,-1.491185e-05,3.264847e-05,1.094802e-05,-5.673509e-06,4.039946e-05
1418132437109172,1418132437046680,4.933297e-05,-4.996015e-05,2.984508e-05,-3.540327e-05,-1.094644e-06,3.089363e-05
1418132437171660,1418132437109172,8.467493e-06,-5.590456e-05,7.437799e-06,-6.290470e-05,-9.672589e-06,3.568549e-05
1418132437234149,1418132437171660,3.390757e-05,-7.353681e-05,5.901981e-07,-6.768959e-05,-1.717973e-05,5.759222e-05
1418132437359138,1418132437234149,1.520985e-05,-2.354093e-04,-2.982019e-05,-4.199483e-05,-2.000061e-05,1.768905e-04
1418132437421628,1418132437359138,-3.288309e-05,-2.075840e-05,-3.818242e-05,9.456790e-06,-1.086837e-05,1.906382e-05
1418132437484117,1418132437421628,3.477291e-05,3.934099e-06,4.612735e-06,1.175701e-05,-1.281584e-06,-3.018592e-06
1418132437546608,1418132437484117,4.392638e-05,5.693266e-05,1.780262e-05,8.691778e-05,1.120200e-05,1.362189e-06
1418132437609098,1418132437546608,1.109417e-05,-1.520532e-05,1.579705e-06,-8.614760e-06,-1.701629e-06,-5.424530e-07
1418132437671585,1418132437609098,-8.449335e-06,-1.196824e-05,3.467186e-06,-5.603032e-05,-6.286386e-06,-5.429173e-06
1418132437796575,1418132437671585,-7.881233e-06,-2.100837e-05,-2.064572e-06,-1.766275e-05,7.363045e-06,7.536956e-07
1418132437859064,1418132437796575,-8.619845e-06,4.515880e-06,5.488917e-06,1.422354e-05,2.305346e-06,-6.600961e-06
1418132437921554,1418132437859064,3.238568e-07,3.189397e-05,-1.347295e-05,5.249798e-05,-9.551952e-06,6.573456e-06
1418132437984043,1418132437921554,6.825218e-05,3.060798e-05,-2.096562e-05,7.203263e-05,-1.110571e-05,3.133011e-05
1418132438046532,1418132437984043,8.391502e-05,1.079078e-05,1.991622e-05,2.816613e-05,1.684108e-06,9.334474e-06
1418132438171522,1418132438046532,3.163862e-06,-3.370753e-06,2.887615e-05,-1.179936e-04,5.786243e-06,-4.496815e-05
1418132438234013,1418132438171522,-3.565621e-05,-1.675639e-05,-9.819639e-06,-2.632558e-05,1.799599e-06,2.235436e-06
1418132438296502,1418132438234013,5.749745e-05,-1.741291e-05,2.820478e-05,-2.362788e-05,-5.898002e-07,1.502584e-06
1418132438358989,1418132438296502,-2.483770e-05,-1.268829e-05,-1.042429e-05,1.851186e-05,-8.925137e-06,3.508625e-06
1418132438483978,1418132438358989,-2.495445e-05,1.896353e-05,-1.951003e-05,4.769799e-05,1.027195e-05,-2.518829e-06
1418132438546468,1418132438483978,-1.623304e-05,7.095541e-06,1.465519e-05,5.712914e-05,3.491942e-05,7.083074e-06
1418132438608957,1418132438546468,1.446707e-05,-8.090603e-06,2.821825e-05,6.543540e-06,1.888127e-05,-1.822270e-06
1418132438671448,1418132438608957,7.981966e-05,3.303887e-06,3.302514e-06,-2.450766e-05,-3.853393e-05,-4.915125e-06
1418132438796436,1418132438671448,8.403631e-06,-1.166891e-05,1.709654e-05,-2.141270e-05,-1.287993e-06,-8.012791e-07
1418132438858925,1418132438796436,4.014247e-05,-6.692467e-06,6.166592e-05,6.153269e-06,3.185577e-05,-9.842367e-08
1418132438921415,1418132438858925,2.581815e-05,1.091324e-05,1.042593e-05,-5.951412e-06,-1.620554e-06,-3.831957e-06
1418132438983904,1418132438921415,3.171779e-06,-3.966208e-06,7.320292e-06,-1.773474e-05,-5.492664e-06,-1.136362e-05
1418132439108893,1418132438983904,-1.817022e-04,1.704822e-05,-1.835039e-04,-9.433707e-05,3.280748e-04,2.151116e-05
1418132439171383,1418132439108893,6.664522e-05,-4.046723e-05,2.911925e-04,-1.567207e-05,2.440109e-04,7.992103e-05
1418132439233874,1418132439171383,2.565859e-03,4.043780e-04,1.943077e-05,3.784176e-05,1.107181e-04,1.596216e-04
1418132439296362,1418132439233874,3.259057e-03,4.031533e-04,-2.768476e-04,-1.258834e-05,5.982443e-05,2.965966e-04
1418132439358851,1418132439296362,4.756658e-03,7.498580e-04,-3.663076e-04,2.007781e-05,1.337402e-04,3.362820e-04
1418132439483841,1418132439358851,1.250158e-02,1.247671e-03,-2.901856e-04,1.174665e-05,3.616696e-04,4.601882e-04
1418132439546330,1418132439483841,7.637213e-03,4.779454e-04,-3.468129e-04,-5.111075e-05,1.047602e-04,1.527314e-04
1418132439608820,1418132439546330,8.700389e-03,4.815336e-04,-6.076827e-04,-1.044072e-04,1.377223e-04,2.643413e-04
1418132439733809,1418132439608820,2.284009e-02,1.703472e-03,-1.213252e-03,-2.452942e-04,7.718762e-04,1.009253e-03
1418132439796298,1418132439733809,1.492672e-02,1.348385e-03,-5.775973e-04,-1.044752e-04,5.316946e-04,7.006290e-04
1418132439858789,1418132439796298,1.675086e-02,1.495679e-03,-9.935297e-04,-1.480463e-04,5.926365e-04,8.914743e-04
1418132439921278,1418132439858789,2.052941e-02,1.998265e-03,-6.732585e-04,-2.853143e-05,6.324883e-04,9.760880e-04
1418132440046268,1418132439921278,4.933426e-02,4.088244e-03,-2.669003e-03,5.873761e-05,1.121043e-03,2.530008e-03
1418132440108756,1418132440046268,3.048677e-02,3.094907e-03,-1.057173e-03,9.896068e-05,3.794714e-04,1.583159e-03
1418132440171244,1418132440108756,3.395360e-02,3.219663e-03,-1.707690e-03,7.258803e-05,1.745273e-04,1.971297e-03
1418132440233735,1418132440171244,3.626279e-02,3.881128e-03,-1.916645e-03,-7.925242e-05,1.257330e-05,2.323270e-03
1418132440296223,1418132440233735,4.005173e-02,4.824754e-03,-1.936407e-03,1.037382e-04,-1.443499e-04,2.635923e-03
1418132440421211,1418132440296223,8.619415e-02,1.087777e-02,-4.788390e-03,2.917060e-04,-2.968714e-04,6.292965e-03
1418132440483701,1418132440421211,4.690756e-02,5.819484e-03,-3.161712e-03,-3.566660e-04,5.038252e-06,3.868637e-03
1418132440546193,1418132440483701,4.940618e-02,6.448287e-03,-3.422740e-03,-4.025091e-04,1.261260e-04,4.482495e-03
1418132440608682,1418132440546193,5.055463e-02,7.049339e-03,-3.556018e-03,-1.845884e-04,2.943793e-07,4.982854e-03
1418132440733671,1418132440608682,1.079936e-01,1.568534e-02,-7.728348e-03,-3.186233e-04,-3.963579e-04,1.003702e-02
1418132440796159,1418132440733671,5.763958e-02,8.341693e-03,-3.813213e-03,5.155772e-05,-8.027465e-05,4.904945e-03
1418132440858648,1418132440796159,5.845845e-02,8.817415e-03,-4.265376e-03,-5.730361e-06,2.308000e-04,5.226055e-03
1418132440921137,1418132440858648,5.879717e-02,8.773242e-03,-4.580446e-03,-7.010443e-04,6.791652e-04,5.833272e-03
1418132441046128,1418132440921137,1.296550e-01,1.904960e-02,-8.719499e-03,-1.863620e-03,2.418055e-03,1.341433e-02
1418132441108618,1418132441046128,6.715561e-02,1.021582e-02,-4.572518e-03,-8.150981e-04,1.406105e-03,7.557036e-03
1418132441171108,1418132441108618,6.935616e-02,1.130474e-02,-4.458498e-03,-1.179008e-03,1.467281e-03,8.088954e-03
1418132441233595,1418132441171108,7.240489e-02,1.254680e-02,-4.730706e-03,-1.365049e-03,1.397997e-03,8.723107e-03
1418132441358585,1418132441233595,1.560506e-01,3.268734e-02,-8.505062e-03,-3.049306e-04,3.324531e-03,1.956766e-02
1418132441421073,1418132441358585,8.124065e-02,1.724481e-02,-4.683603e-03,1.204086e-04,1.917195e-03,1.080884e-02
1418132441483564,1418132441421073,8.261472e-02,1.698546e-02,-5.105515e-03,-2.800888e-04,1.819404e-03,1.150764e-02
1418132441546051,1418132441483564,8.695110e-02,1.788542e-02,-4.545807e-03,-3.869917e-04,1.673039e-03,1.195652e-02
1418132441671042,1418132441546051,1.826164e-01,3.248196e-02,-9.310024e-03,-3.327107e-03,2.141945e-03,2.370519e-02
1418132441733531,1418132441671042,9.443445e-02,1.481245e-02,-4.085316e-03,-2.130202e-03,6.591227e-04,1.104586e-02
1418132441796022,1418132441733531,9.909628e-02,1.530831e-02,-4.611554e-03,-1.898604e-03,4.375858e-04,1.098110e-02
1418132441858510,1418132441796022,9.933021e-02,1.446632e-02,-4.435096e-03,-2.432839e-03,-1.031570e-04,1.171158e-02
1418132441983497,1418132441858510,2.038853e-01,3.075029e-02,-8.962485e-03,-4.782979e-03,-4.389016e-04,2.386934e-02
1418132442045987,1418132441983497,1.034923e-01,1.473812e-02,-4.945764e-03,-1.605960e-03,1.810738e-05,1.110764e-02
1418132442108476,1418132442045987,1.056221e-01,1.358146e-02,-4.594751e-03,-2.432850e-03,-4.937791e-04,1.047446e-02
1418132442170967,1418132442108476,1.087640e-01,1.154200e-02,-3.769994e-03,-3.264330e-03,-8.857147e-04,1.018741e-02
1418132442295956,1418132442170967,2.178105e-01,2.205681e-02,-8.360974e-03,-7.537918e-03,-1.110545e-03,2.063507e-02
1418132442358446,1418132442295956,1.097607e-01,1.024966e-02,-5.060856e-03,-2.464824e-03,1.940830e-04,9.771933e-03
1418132442420935,1418132442358446,1.090551e-01,1.237603e-02,-6.431724e-03,-1.045115e-03,6.340381e-04,8.985025e-03
1418132442483423,1418132442420935,1.093154e-01,1.421200e-02,-7.786548e-03,8.483104e-04,1.366693e-03,8.175477e-03
1418132442608414,1418132442483423,2.153559e-01,3.221807e-02,-1.883851e-02,5.540119e-03,5.028185e-03,1.525925e-02
1418132442670902,1418132442608414,1.087917e-01,1.578107e-02,-8.300951e-03,2.913551e-03,2.518399e-03,7.367560e-03
1418132442733401,1418132442670902,1.104164e-01,1.135403e-02,-6.466669e-03,7.254836e-04,1.258486e-03,6.905870e-03
1418132442795900,1418132442733401,1.165323e-01,3.020688e-03,-1.820314e-03,-3.961218e-03,-1.005416e-03,6.022790e-03
1418132442920892,1418132442795900,2.379403e-01,-2.696779e-02,9.530482e-03,-2.854366e-02,-1.042852e-02,8.480573e-03
1418132442983388,1418132442920892,1.201700e-01,-1.347137e-02,2.092302e-03,-8.671913e-03,-4.065978e-03,2.397201e-03
1418132443045888,1418132442983388,1.171961e-01,-8.132289e-03,-2.829261e-03,-5.416225e-03,-1.267009e-03,3.345109e-03
1418132443108379,1418132443045888,1.142455e-01,1.022666e-03,-7.742218e-03,-2.746945e-03,1.304952e-03,4.381145e-03
1418132443233376,1418132443108379,2.275938e-01,2.784338e-02,-2.507419e-02,8.964110e-03,5.420706e-03,7.564086e-03
1418132443295875,1418132443233376,1.160927e-01,1.740747e-02,-1.152298e-02,8.841756e-03,1.989907e-03,1.933717e-03
1418132443358379,1418132443295875,1.164765e-01,1.323271e-02,-1.012764e-02,7.143871e-03,1.166312e-03,1.257164e-03
1418132443420865,1418132443358379,1.194403e-01,5.131423e-03,-7.005205e-03,2.493900e-03,5.091803e-04,1.472903e-03
1418132443545865,1418132443420865,2.428558e-01,-1.026045e-02,-7.033902e-03,-5.850111e-03,8.741811e-04,3.328784e-03
1418132443608353,1418132443545865,1.202362e-01,-1.220581e-02,-3.904588e-03,-5.919284e-03,4.347234e-04,5.176470e-04
1418132443670852,1418132443608353,1.208654e-01,-1.286798e-02,-3.592389e-03,-6.369401e-03,7.587264e-04,-5.766169e-04
1418132443733351,1418132443670852,1.246549e-01,-1.152581e-02,-4.640144e-03,-4.796618e-03,1.094645e-03,-1.282663e-03
1418132443858343,1418132443733351,2.578483e-01,-1.304149e-02,-1.253967e-02,-1.201485e-03,1.662202e-03,-3.511854e-03
1418132443920839,1418132443858343,1.290344e-01,-8.060039e-04,-8.201581e-03,3.806762e-03,-9.362439e-04,-2.992607e-03
1418132443983338,1418132443920839,1.316157e-01,1.161715e-03,-9.348032e-03,4.171956e-03,-2.338973e-03,-3.801495e-03
1418132444045828,1418132443983338,1.341094e-01,2.210482e-04,-9.931045e-03,3.311012e-03,-2.298057e-03,-4.076856e-03
1418132444108317,1418132444045828,1.342672e-01,-3.182456e-03,-9.287552e-03,2.089645e-03,-5.209128e-04,-3.228966e-03
1418132444170807,1418132444108317,1.342624e-01,-1.049600e-02,-7.192275e-03,-2.563054e-03,2.710224e-03,-2.006070e-03
1418132444233297,1418132444170807,1.378488e-01,-1.761915e-02,-4.183631e-03,-4.533055e-03,4.511426e-03,-1.919874e-03
1418132444295795,1418132444233297,1.388764e-01,-2.065805e-02,-2.857933e-03,-4.195069e-03,3.574476e-03,-3.419974e-03
1418132444358294,1418132444295795,1.447484e-01,-2.253103e-02,-2.601593e-03,-5.551353e-03,1.844001e-03,-6.231892e-03
1418132444420784,1418132444358294,1.470229e-01,-1.832505e-02,-4.894012e-03,-5.013660e-03,-2.927841e-04,-8.233890e-03
1418132444483282,1418132444420784,1.545561e-01,-1.162810e-02,-6.508498e-03,2.748714e-04,-1.866390e-03,-7.708399e-03
1418132444545782,1418132444483282,1.574675e-01,-4.721048e-03,-9.101003e-03,4.552222e-03,-2.289487e-03,-5.836583e-03
1418132444608274,1418132444545782,1.581321e-01,-2.849291e-03,-1.083085e-02,5.412033e-03,-1.621277e-03,-4.681484e-03
1418132444670770,1418132444608274,1.621910e-01,-4.965217e-03,-1.073124e-02,3.999284e-03,-5.861488e-04,-5.570497e-03
1418132444733269,1418132444670770,1.623356e-01,-1.023163e-02,-9.620203e-03,1.390795e-03,4.160459e-04,-7.062507e-03
1418132444795760,1418132444733269,1.686583e-01,-1.466754e-02,-8.919231e-03,-5.843408e-04,1.122344e-03,-8.164975e-03
1418132444858257,1418132444795760,1.716752e-01,-1.633866e-02,-8.562343e-03,-1.429211e-03,9.626660e-04,-7.667265e-03
1418132444920751,1418132444858257,1.708325e-01,-1.791207e-02,-7.145071e-03,-2.245844e-03,7.993182e-04,-6.741448e-03
1418132444983241,1418132444920751,1.783863e-01,-1.934837e-02,-7.913035e-03,-2.458015e-03,5.902288e-04,-6.428227e-03
1418132445045734,1418132444983241,1.805349e-01,-1.730854e-02,-7.016314e-03,-1.232517e-03,4.834568e-04,-7.034261e-03
1418132445108226,1418132445045734,1.933195e-01,-1.830566e-02,-6.730341e-03,-5.459968e-05,2.880119e-04,-7.957483e-03
1418132445170715,1418132445108226,1.894265e-01,-1.411673e-02,-7.235366e-03,-9.866811e-05,-2.276508e-04,-8.774856e-03
1418132445233209,1418132445170715,2.021487e-01,-1.137064e-02,-6.699666e-03,4.792095e-04,-7.409889e-04,-8.618067e-03
1418132445295700,1418132445233209,1.995909e-01,-1.097636e-02,-9.103348e-03,2.625622e-03,-1.164980e-03,-7.842547e-03
1418132445358188,1418132445295700,2.053440e-01,-1.035738e-02,-9.996144e-03,4.182445e-03,-1.027155e-03,-7.594640e-03
1418132445420678,1418132445358188,2.081734e-01,-1.260336e-02,-1.040271e-02,2.112623e-03,-2.056402e-04,-7.591952e-03
1418132445483167,1418132445420678,2.160557e-01,-1.561419e-02,-9.626201e-03,-1.272216e-03,-3.318120e-04,-8.144421e-03
1418132445545661,1418132445483167,2.203703e-01,-1.864832e-02,-8.166855e-03,-2.152579e-03,-9.634491e-04,-8.405170e-03
1418132445608148,1418132445545661,2.236846e-01,-1.766397e-02,-8.770315e-03,-6.523838e-04,-1.134480e-03,-8.331101e-03
1418132445670639,1418132445608148,2.305974e-01,-1.738157e-02,-9.415274e-03,-2.730548e-04,-1.026958e-03,-7.776618e-03
1418132445733128,1418132445670639,2.330764e-01,-1.608717e-02,-1.013363e-02,-1.059882e-03,-5.230620e-04,-6.977799e-03
1418132445795618,1418132445733128,2.413881e-01,-1.686961e-02,-1.047970e-02,-1.639950e-03,2.212662e-04,-6.509395e-03
1418132445858108,1418132445795618,2.433893e-01,-1.411320e-02,-1.171328e-02,-6.589424e-05,8.795855e-04,-6.518438e-03
1418132445920598,1418132445858108,2.501874e-01,-1.194583e-02,-1.126473e-02,1.376215e-03,7.112484e-04,-6.512358e-03
1418132445983088,1418132445920598,2.515790e-01,-1.200084e-02,-1.116927e-02,2.723753e-04,1.152398e-05,-6.191165e-03
1418132446045578,1418132445983088,2.597801e-01,-1.242120e-02,-9.793128e-03,-8.012155e-04,1.830850e-04,-5.755093e-03
1418132446108070,1418132446045578,2.649236e-01,-1.088990e-02,-1.034869e-02,4.325918e-04,3.094028e-04,-5.723101e-03
1418132446170559,1418132446108070,2.664167e-01,-1.134233e-02,-1.173838e-02,-7.540501e-05,-3.685377e-04,-5.430038e-03
1418132446233049,1418132446170559,2.740470e-01,-1.083587e-02,-1.155961e-02,-7.872811e-04,-2.683137e-05,-5.300356e-03
1418132446295552,1418132446233049,2.736504e-01,-1.089387e-02,-1.158832e-02,-6.834575e-04,1.695648e-04,-5.355350e-03
1418132446358029,1418132446295552,2.888196e-01,-1.096797e-02,-1.193529e-02,2.181852e-03,1.685981e-04,-5.417322e-03
1418132446420520,1418132446358029,2.843754e-01,-7.671988e-03,-1.267587e-02,1.611773e-03,-5.117821e-04,-5.065283e-03
1418132446483011,1418132446420520,2.964820e-01,-1.172214e-02,-1.074733e-02,-1.129334e-03,-1.393585e-03,-4.612860e-03
1418132446545499,1418132446483011,2.980876e-01,-1.262253e-02,-1.094523e-02,-1.323512e-03,-1.335057e-03,-4.551913e-03
1418132446607987,1418132446545499,3.000235e-01,-1.109551e-02,-1.257900e-02,3.936401e-05,-3.932185e-04,-4.805690e-03
1418132446670476,1418132446607987,3.004800e-01,-1.006164e-02,-1.432143e-02,-7.236598e-04,3.023470e-04,-4.752479e-03
1418132446732966,1418132446670476,3.069461e-01,-9.071694e-03,-1.498694e-02,-1.843687e-03,2.419393e-04,-4.398055e-03
1418132446795458,1418132446732966,3.091671e-01,-1.058145e-02,-1.388774e-02,-1.687152e-03,-3.006483e-04,-3.654567e-03
1418132446857947,1418132446795458,3.140326e-01,-8.602008e-03,-1.470867e-02,-3.819852e-04,-3.584040e-04,-3.109517e-03
1418132446920436,1418132446857947,3.247672e-01,-5.589330e-03,-1.223233e-02,6.057205e-04,-7.312020e-04,-3.415345e-03
1418132446982924,1418132446920436,3.318019e-01,-1.764962e-03,-1.241891e-02,1.412719e-03,-9.243752e-04,-3.886170e-03
1418132447045417,1418132446982924,3.350607e-01,-1.170032e-02,-1.355344e-02,2.789716e-04,4.256639e-04,-3.529282e-03
1418132447107903,1418132447045417,3.276752e-01,-5.944892e-03,-1.502371e-02,-8.829510e-04,1.021859e-03,-3.320322e-03
1418132447170393,1418132447107903,3.444635e-01,-9.135786e-03,-1.770170e-02,1.592680e-04,8.539935e-05,-3.032736e-03
1418132447232882,1418132447170393,3.399002e-01,-5.129774e-03,-1.301175e-02,4.984016e-05,-8.359021e-04,-3.048738e-03
1418132447295371,1418132447232882,3.367044e-01,-8.403206e-03,-1.497742e-02,-1.338206e-03,-3.605182e-04,-2.842069e-03
1418132447357861,1418132447295371,3.454061e-01,-8.948027e-03,-1.514094e-02,-1.467570e-03,3.396651e-04,-2.860031e-03
1418132447420351,1418132447357861,3.449972e-01,-7.483958e-03,-1.573048e-02,-7.717328e-04,-5.434022e-04,-2.771517e-03
1418132447482840,1418132447420351,3.520039e-01,-9.977102e-03,-1.173338e-02,-2.442588e-03,-2.129033e-03,-2.782391e-03
1418132447545329,1418132447482840,3.555927e-01,-6.769818e-03,-1.231744e-02,1.194872e-04,-2.955939e-03,-2.835317e-03
1418132447607819,1418132447545329,3.495396e-01,-6.571970e-03,-1.608114e-02,2.359663e-04,-1.945797e-03,-2.476220e-03
1418132447670308,1418132447607819,3.586032e-01,-6.861583e-03,-1.923466e-02,-9.467408e-04,9.257232e-04,-2.251797e-03
1418132447732797,1418132447670308,3.545638e-01,-7.335645e-03,-2.032762e-02,-1.225484e-03,2.000007e-03,-2.177099e-03
1418132447795287,1418132447732797,3.551735e-01,-3.601942e-03,-2.201403e-02,2.009892e-03,1.518910e-03,-2.660923e-03
1418132447857779,1418132447795287,3.643368e-01,-3.411574e-03,-2.249972e-02,1.944826e-03,5.928524e-04,-2.916425e-03
1418132447920269,1418132447857779,3.764183e-01,-4.550635e-03,-2.045110e-02,8.235737e-04,1.125012e-03,-2.642023e-03
1418132447982756,1418132447920269,3.754250e-01,-5.544332e-03,-1.787327e-02,-9.229201e-04,2.716762e-03,-1.974003e-03
1418132448045246,1418132447982756,3.676449e-01,-6.799620e-03,-1.579878e-02,-4.669432e-04,2.491311e-03,-1.666088e-03
1418132448107735,1418132448045246,3.776565e-01,-7.581385e-03,-1.289261e-02,-1.267317e-03,1.218011e-04,-1.779178e-03
1418132448170224,1418132448107735,3.920534e-01,-1.014021e-02,-1.374357e-02,-1.682486e-03,-1.888875e-03,-1.736628e-03
1418132448232714,1418132448170224,3.831913e-01,-8.223079e-03,-1.560596e-02,-8.821898e-04,-2.206484e-03,-2.022551e-03
1418132448295212,1418132448232714,3.824100e-01,-6.552573e-03,-1.778858e-02,-3.769729e-04,-2.353702e-03,-1.942709e-03
1418132448357710,1418132448295212,3.891948e-01,-4.505364e-03,-1.758533e-02,-8.132241e-04,-2.031659e-03,-1.633907e-03
1418132448420202,1418132448357710,3.953404e-01,-1.321350e-03,-1.835309e-02,-3.178292e-04,-1.575703e-03,-1.570296e-03
1418132448482698,1418132448420202,4.073582e-01,-1.981224e-03,-1.724758e-02,1.795153e-04,-1.322919e-03,-1.290212e-03
1418132448545197,1418132448482698,3.923181e-01,-5.334590e-03,-1.950604e-02,-5.253224e-04,-4.523375e-04,-1.019743e-03
1418132448607689,1418132448545197,3.857053e-01,-6.202686e-03,-2.054076e-02,-5.026631e-04,6.642857e-04,-9.839818e-04
1418132448670186,1418132448607689,3.950690e-01,-6.625083e-03,-1.983746e-02,1.284391e-04,8.139359e-04,-7.549480e-04
1418132448732686,1418132448670186,4.062784e-01,-3.990355e-03,-1.890248e-02,1.633621e-04,1.452097e-03,-6.653110e-04
1418132448795174,1418132448732686,4.092002e-01,-3.529508e-03,-1.954436e-02,-1.010866e-04,1.346686e-03,-5.028622e-04
1418132448857673,1418132448795174,4.047096e-01,-5.356267e-03,-1.895128e-02,-4.260870e-04,7.663258e-04,-4.745772e-04
1418132448920173,1418132448857673,4.156871e-01,-7.959124e-03,-1.779040e-02,-1.597199e-04,1.949040e-04,-5.866634e-04
1418132448982662,1418132448920173,4.059285e-01,-6.570611e-03,-1.638094e-02,-3.473579e-03,-5.486901e-04,-7.238379e-04
1418132449045151,1418132448982662,4.077920e-01,-7.672581e-03,-1.735864e-02,-2.646218e-03,-1.538461e-03,-6.468850e-04
1418132449107640,1418132449045151,4.059395e-01,-5.122385e-03,-1.924447e-02,2.446569e-04,-1.419941e-03,-6.474154e-04
1418132449170130,1418132449107640,4.150835e-01,-1.856651e-03,-2.092089e-02,5.240014e-04,-1.164245e-03,-6.127077e-04
1418132449232629,1418132449170130,4.075941e-01,-2.746935e-03,-2.258831e-02,1.022657e-03,1.002846e-04,-3.251397e-04
1418132449295128,1418132449232629,4.136592e-01,-1.719091e-03,-2.419086e-02,1.252907e-03,1.712436e-03,-3.911603e-04
1418132449357618,1418132449295128,4.126155e-01,-1.091333e-03,-2.455939e-02,1.307265e-03,2.213861e-03,-4.394575e-04
1418132449420118,1418132449357618,4.145532e-01,-1.869230e-03,-2.106069e-02,-3.189775e-04,1.428480e-03,-1.889617e-05
1418132449482615,1418132449420118,4.207599e-01,-3.598953e-03,-1.912348e-02,-6.956436e-04,2.778893e-04,1.071055e-04
1418132449545105,1418132449482615,4.246493e-01,-4.014152e-03,-1.663425e-02,-1.399770e-03,-6.806152e-04,-2.110196e-04
1418132449607602,1418132449545105,4.256960e-01,-3.963089e-03,-1.805812e-02,-1.357503e-03,-7.083722e-04,-5.132945e-04
1418132449670100,1418132449607602,4.362996e-01,-1.908122e-03,-1.938398e-02,1.089256e-04,-9.559754e-04,-4.593823e-04
1418132449732589,1418132449670100,4.446716e-01,-1.406991e-03,-2.222742e-02,2.024152e-03,-1.572474e-03,-9.118206e-05
1418132449795077,1418132449732589,4.570527e-01,-1.017594e-02,-2.711965e-02,2.417840e-03,-4.548058e-04,9.160060e-06
1418132449857566,1418132449795077,4.443187e-01,-8.371326e-04,-2.249664e-02,1.434961e-03,4.709087e-04,-4.467827e-04
1418132449920064,1418132449857566,4.532437e-01,4.344888e-03,-2.087508e-02,3.630341e-04,8.765195e-04,-4.711659e-04
1418132449982557,1418132449920064,4.421764e-01,-4.290779e-03,-1.892664e-02,-9.582201e-04,7.489683e-04,9.277233e-05
1418132450045047,1418132449982557,4.410964e-01,-4.528317e-03,-1.947825e-02,-2.168035e-03,-3.011092e-04,3.599095e-04
1418132450107537,1418132450045047,4.595716e-01,-6.929656e-03,-1.857053e-02,-1.275004e-03,-4.422058e-05,2.820113e-04
1418132450170023,1418132450107537,4.533457e-01,-6.695143e-04,-2.082147e-02,1.284975e-03,7.753789e-04,-8.741723e-05
1418132450232513,1418132450170023,4.647737e-01,6.624392e-03,-2.005353e-02,1.234284e-03,5.763364e-04,-2.995602e-04
1418132450295004,1418132450232513,4.510628e-01,-2.502345e-04,-2.134709e-02,1.287193e-03,-1.606468e-04,-2.141485e-04
1418132450357492,1418132450295004,4.663650e-01,-1.429576e-03,-2.014237e-02,2.231801e-03,4.796832e-05,-1.412455e-04
1418132450419983,1418132450357492,4.653409e-01,3.411945e-04,-1.803693e-02,6.792693e-04,8.340832e-05,-4.697893e-05
1418132450482471,1418132450419983,4.660357e-01,-2.355251e-04,-1.856113e-02,-2.428481e-04,7.923190e-05,2.185176e-04
1418132450544961,1418132450482471,4.697654e-01,-9.908940e-04,-1.954927e-02,-2.590455e-05,1.027242e-04,1.575664e-04
1418132450607452,1418132450544961,4.700356e-01,-2.240579e-03,-2.256292e-02,-9.401232e-04,-2.486666e-04,1.605729e-05
1418132450669939,1418132450607452,4.747625e-01,-2.366808e-03,-2.252772e-02,-6.100491e-04,1.301177e-03,-1.634625e-04
1418132450732429,1418132450669939,4.695585e-01,1.579065e-03,-2.160808e-02,2.706867e-03,9.107857e-04,-3.733947e-04
1418132450794920,1418132450732429,4.714120e-01,3.396741e-04,-2.129000e-02,1.534053e-03,8.106795e-04,-2.173955e-04
1418132450857407,1418132450794920,4.683001e-01,-2.224309e-03,-2.174059e-02,5.372071e-04,1.553520e-03,3.405791e-05
1418132450919897,1418132450857407,4.750336e-01,1.729151e-04,-2.069944e-02,1.467388e-03,1.407759e-03,2.201488e-04
1418132450982387,1418132450919897,4.762869e-01,-4.169962e-03,-2.167321e-02,-2.374477e-04,1.767482e-03,4.191500e-04
1418132451044876,1418132450982387,4.782791e-01,-4.799441e-03,-2.008308e-02,-2.940245e-03,4.080632e-04,1.715790e-04
1418132451107366,1418132451044876,4.759991e-01,-2.210155e-03,-1.989275e-02,-5.450546e-04,-7.978556e-04,-1.110371e-04
1418132451169855,1418132451107366,4.843365e-01,-2.081056e-03,-1.925512e-02,-8.468996e-05,-1.971060e-03,-9.227657e-06
1418132451232345,1418132451169855,4.854922e-01,-8.556283e-04,-1.974500e-02,8.832790e-04,-3.543431e-03,4.531673e-05
1418132451294837,1418132451232345,4.881843e-01,5.374898e-03,-1.865474e-02,3.615319e-03,-4.401803e-03,3.061074e-05
1418132451357327,1418132451294837,4.912072e-01,4.737101e-04,-2.355586e-02,2.699106e-03,-5.050276e-03,4.147024e-04
1418132451419814,1418132451357327,4.919353e-01,-1.907573e-03,-2.555797e-02,5.017275e-04,-3.574422e-03,7.529003e-04
1418132451482303,1418132451419814,4.908317e-01,-8.588875e-03,-2.506650e-02,-1.526588e-03,-1.098065e-03,1.018935e-03
1418132451544804,1418132451482303,4.918649e-01,-2.987610e-03,-3.001545e-02,-2.194829e-03,7.248589e-04,7.192452e-04
1418132451607301,1418132451544804,4.913407e-01,-3.291911e-03,-2.930665e-02,-1.647028e-03,2.675049e-03,6.111269e-04
1418132451669789,1418132451607301,4.868897e-01,-9.748508e-04,-2.622728e-02,-9.315939e-04,4.318853e-03,7.815024e-05
1418132451732289,1418132451669789,4.840030e-01,2.524407e-03,-2.428308e-02,8.967714e-05,3.803203e-03,-1.747994e-04
1418132451794788,1418132451732289,4.836018e-01,-2.709616e-03,-2.083277e-02,-1.003266e-03,2.257888e-03,1.960519e-04
1418132451857277,1418132451794788,4.908488e-01,-3.253319e-03,-2.052522e-02,-1.298630e-04,1.283299e-03,5.995356e-04
1418132451919766,1418132451857277,4.871888e-01,-4.437196e-03,-2.131160e-02,5.458756e-04,1.266703e-03,6.480008e-04
1418132451982256,1418132451919766,4.960184e-01,-2.056541e-03,-2.195673e-02,-5.996801e-04,2.114613e-04,7.328953e-04
1418132452044745,1418132451982256,4.949155e-01,-2.573438e-03,-2.524615e-02,7.186488e-04,-3.402002e-04,8.791336e-04
1418132452107234,1418132452044745,4.974438e-01,2.760779e-03,-2.179630e-02,9.921807e-04,-1.402985e-04,7.396703e-04
1418132452169723,1418132452107234,4.957060e-01,-5.603228e-03,-2.350695e-02,-1.432643e-03,-1.184496e-03,9.343076e-04
1418132452232213,1418132452169723,4.970347e-01,-6.210722e-04,-2.196228e-02,1.542240e-03,-1.920138e-03,6.941165e-04
1418132452294705,1418132452232213,4.942955e-01,-4.210250e-04,-2.136175e-02,1.832409e-03,-2.900659e-03,6.487329e-04
1418132452357192,1418132452294705,4.990614e-01,-1.615501e-03,-2.144809e-02,6.804011e-04,-3.156499e-03,9.057950e-04
1418132452419682,1418132452357192,4.969612e-01,3.851226e-04,-2.437325e-02,1.753385e-03,-2.777623e-03,6.746672e-04
1418132452482174,1418132452419682,4.944639e-01,1.742877e-03,-2.682600e-02,2.639768e-03,-1.533693e-03,5.943690e-04
1418132452544661,1418132452482174,4.989604e-01,-2.208077e-03,-2.642966e-02,1.512816e-03,-8.958860e-05,8.540218e-04
1418132452607150,1418132452544661,4.998438e-01,-2.247859e-03,-2.689214e-02,1.287199e-03,9.270706e-04,9.039871e-04
1418132452669640,1418132452607150,4.971643e-01,-1.675108e-03,-2.556948e-02,1.292860e-03,1.592642e-03,6.659337e-04
1418132452732130,1418132452669640,4.982933e-01,-7.019972e-04,-2.630218e-02,-2.409543e-04,2.386487e-03,4.790289e-04
1418132452794619,1418132452732130,5.021748e-01,-4.793399e-03,-2.620815e-02,7.306775e-04,3.124757e-03,6.262769e-04
1418132452857108,1418132452794619,4.990006e-01,1.798455e-04,-2.707676e-02,2.235097e-03,3.882005e-03,2.828984e-04
1418132452919598,1418132452857108,4.987647e-01,-1.624976e-03,-2.582702e-02,2.950814e-04,2.435586e-03,2.034672e-04
1418132452982088,1418132452919598,5.059672e-01,1.817523e-03,-2.209837e-02,1.894473e-03,1.119724e-03,6.368902e-05
1418132453044577,1418132452982088,5.055581e-01,3.101619e-03,-2.239501e-02,2.840884e-03,-1.319319e-04,1.543675e-04
1418132453107066,1418132453044577,5.084035e-01,-7.072079e-04,-1.925234e-02,8.066051e-04,-2.177742e-03,6.238011e-04
